     3.03           OBSERVATION DATA    M: Mixed            RINEX VERSION / TYPE
Geo++ RINEX Logger  Geo++               20210912 105942 UTC PGM / RUN BY / DATE
************************************************************COMMENT
This file was generated by the Geo++ RINEX Logger App       COMMENT
for Android devices (Version 2.1.6). If you encounter       COMMENT
any issues, please send an email to android@geopp.de        COMMENT
Filtering Mode: MORE                                        COMMENT
************************************************************COMMENT
Geo++                                                       MARKER NAME
GEODETIC                                                    MARKER TYPE
Geo++               Geo++                                   OBSERVER / AGENCY
unknown             HUAWEI              ELS-AN00            REC # / TYPE / VERS
unknown             ELS-AN00                                ANT # / TYPE
 -2417115.6465  5385880.5857  2406595.9940                  APPROX POSITION XYZ
        0.0000        0.0000        0.0000                  ANTENNA: DELTA H/E/N
G    8 C1C L1C D1C S1C C5Q L5Q D5Q S5Q                      SYS / # / OBS TYPES
R    4 C1C L1C D1C S1C                                      SYS / # / OBS TYPES
E   12 C1B L1B D1B S1B C1C L1C D1C S1C C5Q L5Q D5Q S5Q      SYS / # / OBS TYPES
C    4 C2I L2I D2I S2I                                      SYS / # / OBS TYPES
J    8 C1C L1C D1C S1C C5Q L5Q D5Q S5Q                      SYS / # / OBS TYPES
  2021     9    12    11     0    0.9991560     GPS         TIME OF FIRST OBS
 24 R01  1 R02 -4 R03  5 R04  6 R05  1 R06 -4 R07  5 R08  6 GLONASS SLOT / FRQ #
    R09 -2 R10 -5 R11  0 R12 -1 R13 -2 R14 -7 R15  0 R16 -1 GLONASS SLOT / FRQ #
    R17  4 R18 -3 R19  3 R20  2 R21  4 R22 -3 R23  3 R24  2 GLONASS SLOT / FRQ #
G L1C                                                       SYS / PHASE SHIFT
G L5Q -0.25000                                              SYS / PHASE SHIFT
R L1C                                                       SYS / PHASE SHIFT
E L1B                                                       SYS / PHASE SHIFT
E L1C +0.50000                                              SYS / PHASE SHIFT
E L5Q -0.25000                                              SYS / PHASE SHIFT
C L2I                                                       SYS / PHASE SHIFT
J L1C                                                       SYS / PHASE SHIFT
J L5Q -0.25000                                              SYS / PHASE SHIFT
 C1C    0.000 C1P    0.000 C2C    0.000 C2P    0.000        GLONASS COD/PHS/BIS
                                                            END OF HEADER
> 2021  9 12 11  0  0.9991560  0 11
C08  38440422.349   200169436.959       -2549.199          23.000  
C09  37723659.354   196436884.0171       -739.692          21.000  
C33  22441504.670   116858820.174       -1631.601          21.000  
E01  23816313.909   125155573.436         719.829          36.000  
E21  24443174.542   128449759.318       -1887.634          28.000  
G10  20280499.302   106574743.269       -1640.747          32.000  
G25  20895441.687   109806215.289       -1598.987          23.000  
G32  21450128.785   112721151.719         447.138          31.000  
J01  37690318.535   198063944.250         447.958          31.000  
J02  38118778.319   200315523.677       -1452.110          31.000  
R02  20202931.302   107806912.458        1638.805          31.000  
> 2021  9 12 11  0  1.9991555  0 10
C08  38440762.314   200171205.973       -2550.290          24.000  
C09  37723653.058   196436844.015        -741.774          23.000  
E01  23816028.207   125154072.726         719.153          36.000  
E21  24443385.296   128450859.493       -1886.272          28.000  
G10  20280665.987   106575596.335       -1640.028          31.000  
G25  20895600.577   109807028.232       -1601.284          23.000  
G32  21449892.548   112719916.998         446.146          31.000  
J01  37690081.699   198062709.249         448.664          31.000  
J02  38118903.932   200316189.309       -1452.440          31.000  
R02  20202474.118   107804473.468        1638.636          32.000  
> 2021  9 12 11  0  2.9991549  0 10
C09  37723614.685   196436648.857        -741.220          26.000  
C33  22441805.961   116860368.4571      -1633.125          22.000  
E01  23815711.326   125152407.474         719.023          36.000  
E21  24443565.772   128451800.204       -1886.793          28.000  
G10  20280796.996   106576292.465       -1640.719          32.000  
G25  20895730.387   109807684.651       -1602.047          22.000  
G32  21449631.129   112718524.992         445.705          32.000  
J01  37689817.582   198061316.734         446.950          31.000  
J02  38119002.863   200316697.412       -1452.697          31.000  
R02  20201988.454   107801875.681        1637.864          33.000  
> 2021  9 12 11  0  3.9991547  0 10
C08  38441505.500   200175058.8731      -2550.570          24.000  
C09  37723700.126   196437077.105        -740.092          25.000  
E01  23815515.562   125151378.390         717.976          36.000  
E21  24443864.964   128453372.972       -1888.490          27.000  
G10  20281052.420   106577619.560       -1642.857          32.000  
G25  20895975.917   109808972.121       -1603.148          23.000  
G32  21449479.135                         444.813          32.000  
J01  37689667.686   198060554.538         448.154          31.000  
J02  38119218.714   200317835.837       -1453.861          31.000  
R02  20201622.708   107799917.938        1637.285          33.000  
> 2021  9 12 11  0  4.9991542  0 12
C08  38441844.565   200176828.515       -2549.687          24.000  
C09  37723693.231   196437036.108        -739.512          24.000  
C33  22442228.668   116862544.6541      -1636.431          22.000  
E01  23815226.262   125149858.680         717.896          36.000  
E21  24444073.920   128454473.593       -1888.808          26.000  
G10  20281214.008   106578474.645       -1643.668          32.000  
G25  20896133.908   109809787.571       -1603.380          23.000  
G32  21449241.999   112716538.9171        447.474          31.000  
J01  37689439.244   198059319.618         447.047          30.000  
J02  38119344.627   200318501.549       -1454.477          32.000  
R02  20201168.522   107797480.534        1637.626          32.000  
R12  19432282.711   103803767.2481      -2434.354          13.000  
> 2021  9 12 11  0  5.9991537  0 11
C08  38442187.527   200178597.330       -2549.314          22.000  
C09  37723684.237   196436995.176        -740.328          25.000  
C25  21981315.152   114462469.0741      -1566.891          18.000  
E01  23814940.260   125148354.970         717.502          36.000  
G10  20281370.200   106579330.371       -1646.454          31.000  
G25  20896293.097   109810602.997       -1603.411          23.000  
G32  21449004.863   112715304.812         447.419          31.000  
J01  37689200.010   198058084.728         447.133          31.000  
J02  38119473.238   200319167.396       -1453.361          33.000  
R02  20200717.634   107795043.365        1636.759          32.000  
R12  19432581.903   103805365.515       -2434.345          15.000  
> 2021  9 12 11  0  6.9991534  0 10
C08  38442588.949   200180678.194       -2549.626          23.000  
C09  37723739.099   196437267.117        -740.694          24.000  
C25  21981525.606   114463568.733       -1569.000          19.000  
E01  23814713.317   125147162.344         715.956          36.000  
G10  20281596.843   106580501.941       -1642.754          31.000  
G32  21448835.480   112714386.035         443.677          31.000  
J01  37689032.426   198057165.052         447.803          31.000  
J02  38119659.109   200320148.475       -1453.936          32.000    38119666.904   149589730.6611      -1086.794          25.000  
R02  20200326.405   107792926.528        1637.231          33.000  
R12  19432943.753   103807298.389       -2434.295          16.000  
> 2021  9 12 11  0  7.9991529  0 12
C08  38442931.013   200182448.734       -2552.209          22.000  
C09  37723731.304   196437226.923        -740.068          24.000  
C25  21981676.102   114464358.843       -1571.724          20.000  
C33  22442786.282   116865422.6281      -1636.220          20.000  
E01  23814427.015   125145657.634         715.357          36.000  
G10  20281760.529   106581359.145       -1645.499          31.000  
G25  20896662.142   109812551.8311      -1605.753          25.000  
G31  21376008.997   112331685.0081        351.217          20.000  
G32  21448598.944   112713152.271         446.208          30.000  
J01  37688786.896   198055930.372         446.587          30.000  
J02  38119785.322   200320814.591       -1452.763          31.000    38119792.817   149590227.999       -1085.105          24.000  
R02  20199873.718   107790489.451        1637.391          33.000  
> 2021  9 12 11  0  8.9991524  0 12
C08  38443271.577   200184220.370       -2552.476          23.000  
C09  37723723.510   196437186.520        -740.087          22.000  
C25  21981825.399   114465151.169       -1573.136          25.000  
C33  22442951.468   116866278.291       -1636.312          20.000  
E01  23814141.313   125144156.924         716.030          36.000  
G10  20281923.616   106582217.013       -1646.855          31.000  
G25  20896812.638   109813369.808       -1606.279          24.000  
G32  21448362.707   112711918.635         445.664          31.000  
J01  37688553.058   198054695.724         447.603          31.000  
J02  38119912.734   200321480.745       -1453.824          32.000    38119918.729   149590725.195       -1084.876          25.000  
R02  20199421.032   107788052.459        1637.090          34.000  
R12  19433550.833   103810540.4581      -2436.138          17.000  
> 2021  9 12 11  0  9.9991519  0 13
C03  36476293.088   189941603.0541       -720.204          31.000  
C08  38443612.741   200185992.889       -2554.056          23.000  
C09  37723716.614   196437144.739        -739.169          20.000  
C25  21981977.694   114465943.803       -1574.020          25.000  
C33  22443119.352   116867134.133       -1637.734          23.000  
E01  23813856.210   125142658.214         715.330          37.000  
G10  20282087.603   106583075.749       -1647.115          30.000  
G25  20896966.731   109814188.721       -1606.999          26.000  
G31  21375580.893   112329409.3401        350.162          17.000  
G32  21448123.773   112710685.108         446.638          31.000  
J01  37688323.716   198053461.171         448.188          31.000  
J02  38120036.248   200322147.065       -1453.413          32.000    38120044.342   149591221.429       -1084.865          26.000  
R02  20198969.844   107785615.385        1636.680          34.000  
> 2021  9 12 11  0 10.9991514  0 10
C08  38443952.705   200187766.071       -2553.707          22.000  
C09  37723707.321   196437103.174        -739.421          25.000  
C33  22443284.837   116867990.952       -1636.281          22.000  
E01  23813570.508   125141157.504         715.413          36.000    23813564.512    93449541.6761        535.649          28.000  
G10  20282248.591   106583934.802       -1644.699          31.000  
G25  20897123.522   109815008.422       -1607.810          24.000  
G32  21447889.935   112709451.682         446.231          30.000  
J01  37688083.882   198052226.628         447.339          31.000  
J02  38120167.257   200322813.401       -1452.233          32.000    38120172.054   149591717.620       -1084.181          25.000  
R02  20198515.958   107783179.264        1636.295          33.000  
> 2021  9 12 11  0 11.9991511  0 11
C08  38444352.029   200189851.204       -2553.210          23.000  
C09  37723758.286   196437374.266        -740.170          26.000  
C25  21982343.141   114467842.0701      -1573.724          24.000  
E01  23813343.565   125139964.878         714.567          36.000    23813338.469    93448654.741         534.412          26.000  
G10  20282470.138   106585109.714       -1648.385          30.000  
G25  20897338.174   109816143.990       -1608.573          25.000  
G32  21447712.458   112708533.451         445.409          31.000  
J01  37687909.103   198051307.289         445.433          31.000  
J02  38120359.125   200323794.832       -1451.820          31.000    38120359.125   149592449.109       -1085.813          23.000  
R02  20198119.033   107781063.863        1634.946          33.000  
R12  19434526.357   103815752.0471      -2438.875          17.000  
> 2021  9 12 11  0 12.9991506  0 11
C08  38444692.593   200191623.137       -2551.803          23.000  
C09  37723751.390   196437335.965        -743.968          22.000  
C25  21982495.135   114468634.921       -1573.139          24.000  
C33  22443676.066   116870019.1001      -1639.585          21.000  
E01  23813057.563   125138461.168         713.474          34.000    23813053.066    93447534.516         532.400          27.000  
G10  20282632.925   106585970.413       -1648.528          30.000  
G25  20897495.565   109816964.965       -1608.986          24.000  
G31  21374998.696   112326311.8011        348.368          18.000  
G32  21447480.118   112707300.200         447.217          31.000  
J01  37687675.565   198050072.707         445.419          31.000  
R02  20197660.351   107778628.806        1635.568          31.000  
> 2021  9 12 11  0 13.9991503  0 11
C08  38445092.816   200193706.828       -2551.685          21.000  
C09  37723803.254   196437611.253        -742.942          19.000  
C25  21982709.487   114469738.274       -1571.625          24.000  
E01  23812831.820   125137275.542         715.029          36.000    23812827.922    93446650.581         532.153          27.000  
G10  20282855.072   106587146.480       -1649.125          29.000  
G25  20897713.514   109818101.650       -1610.078          25.000  
G32  21447304.140   112706382.211         443.805          32.000  
J01  37687500.187   198049153.302         446.944          30.000  
J02  38120666.112   200325442.8691      -1454.213          33.000  
R02  20197264.924   107776513.707        1634.475          33.000  
R12  19435198.492   103819342.0171      -2440.635          22.000  
> 2021  9 12 11  0 14.9991498  0 10
C08  38445430.682   200195477.363       -2551.706          21.000  
C09  37723795.760   196437572.088        -739.416          19.000  
C25  21982864.480   114470529.576       -1571.734          25.000  
C33  22444061.300   116872052.8311      -1641.201          28.000  
E01  23812544.319   125135764.832         712.365          33.000    23812541.620    93445527.356         530.232          22.000  
G10  20283019.358   106588008.022       -1649.698          30.000  
G25  20897869.406   109818924.110       -1609.559          24.000  
G32  21447073.300   112705149.194         444.379          30.000  
J01  37687271.745   198047918.934         445.915          33.000  
J02  38120792.624   200326109.518       -1455.193          30.000  
> 2021  9 12 11  0 15.9991493  0 11
C09  37723787.665   196437530.897        -738.396          26.000  
C25  21983017.074   114471321.108       -1572.232          24.000  
C33  22444224.687   116872913.710       -1641.464          28.000  
E01  23812259.216   125134266.122         712.634          29.000    23812255.618    93444405.131         532.010          26.000  
G10  20283183.644   106588870.335       -1650.547          29.000  
G25  20898024.699   109819746.468       -1610.834          23.000  
G32  21446839.162   112703915.196         446.154          27.000  
J01  37687035.508   198046684.712         444.695          34.000  
J02  38120918.237   200326776.505       -1457.694          31.000  
R02  20196356.553   107771642.1661       1636.202          19.000  
R12  19435812.767   103822623.3251      -2442.503          26.000  
> 2021  9 12 11  0 16.9991488  0 10
C08  38446108.213   200199022.2641      -2554.584          19.000  
C09  37723773.875   196437488.925        -739.194          24.000  
C25  21983170.268   114472113.186       -1573.616          23.000  
C33  22444388.973   116873775.146       -1643.766          24.000  
E01  23811972.614   125132760.412         714.050          30.000    23811969.916    93443283.906         532.544          22.000  
G10  20283349.429   106589733.332       -1650.987          30.000  
G25  20898181.190   109820569.900       -1611.514          25.000  
G32  21446605.024   112702682.576         444.780          29.000  
J01  37686798.073                         445.722          29.000  
J02  38121045.349   200327442.500       -1455.816          26.000  
> 2021  9 12 11  0 17.9991483  0 11
C08  38446448.478   200200794.291       -2553.088          20.000  
C09  37723765.481   196437445.996        -737.875          23.000  
C25  21983323.162   114472906.109       -1574.248          20.000  
C33  22444550.861   116874638.270       -1643.978          22.000  
E01  23811687.512   125131261.702         712.987          26.000    23811685.113    93442166.681         534.446          22.000  
G10  20283513.716   106590597.432       -1652.214          28.000  
G25  20898339.181   109821394.197       -1612.483          27.000  
G32  21446371.186   112701450.787         443.238          30.000  
J01  37686564.534   198044217.4451        446.020          30.000  
J02  38121170.962   200328110.659       -1455.709          32.000  
R02  20195442.786   107766772.1401       1635.257          19.000  
> 2021  9 12 11  0 18.9991478  0 10
C09  37723758.885   196437404.019        -739.519          22.000  
C25  21983478.155   114473701.053       -1576.646          21.000  
C33  22444715.147   116875500.403       -1643.204          24.000  
E01  23811402.109   125129761.992         713.076          26.000    23811398.812    93441042.456         529.877          22.000  
G10  20283680.400   106591462.311       -1652.934          29.000  
G25  20898494.773   109822219.663       -1613.905          22.000  
G32  21446139.447   112700219.709         443.502          29.000  
J01  37686332.495   198042983.207         447.375          33.000  
J02  38121295.376   200328778.221       -1455.210          33.000  
R02  20194985.902   107764338.005        1632.983          23.000  
> 2021  9 12 11  0 19.9991478  0 11
C09  37723900.087   196438144.007        -739.814          25.000  
C25  21983779.746   114475276.798       -1575.366          25.000  
C33  22445029.629   116877143.975       -1643.452          22.000  
E01                                                                                                                                  23811263.006    93440509.456         530.003          23.000  
E21  24447549.414   128472764.1681      -1895.631          23.000  
G10  20283996.681   106593115.325       -1652.819          27.000  
G25  20898802.660   109823834.412       -1615.516          22.000  
G32  21446055.805   112699775.468         443.861          28.000  
J01  37686246.454                         447.195          36.000  
J02  38121572.385   200330233.251       -1455.242          33.000  
R02  20194681.613   107762704.804        1633.534          31.000  
> 2021  9 12 11  0 20.9991473  0 11
C08  38447619.167   200206889.2801      -2554.792          19.000  
C09  37723893.792   196438103.532        -739.211          24.000  
C25  21983931.441   114476071.599       -1574.909          24.000  
C33  22445193.316   116878007.714       -1646.029          23.000  
E21  24447759.568   128473873.180       -1897.785          23.000  
G10  20284160.968   106593980.958       -1654.027          31.000  
G25  20898963.049   109824661.771       -1615.611          24.000  
G32  21445822.866   112698543.787         444.625          29.000  
J01  37686014.715   198041301.9241        446.686          36.000  
J02  38121699.497   200330900.350       -1453.973          32.000  
R02  20194222.930   107760270.757        1632.584          28.000  
> 2021  9 12 11  0 21.9991468  0  9
C08  38447960.331   200208663.129       -2554.585          23.000  
C25  21984084.035   114476864.983       -1572.832          21.000  
C33  22445359.401   116878876.183       -1649.600          10.000  
G10  20284325.254   106594847.226       -1654.507          34.000  
G32  21445586.629   112697311.334         443.269          28.000  
J01  37685777.579   198040067.781         446.504          34.000  
J02  38121823.910                       -1453.991          30.000  
R02  20193766.946   107757838.969        1631.310          28.000  
R12  19437831.269   103833406.1061      -2448.681          28.000  
> 2021  9 12 11  0 22.9991462  0  8
C08  38448271.216   200210280.013       -2553.190          25.000  
C25  21984204.852   114477499.761       -1571.751          10.000  
G10  20284460.160   106595556.771       -1655.066          31.000  
G25  20899250.250   109826158.3421      -1614.856          23.000  
J01  37685510.464   198038676.076         445.806          35.000  
J02  38121915.647   200332045.7391      -1454.547          27.000  
R02  20193279.783   107755247.887        1630.667          28.000  
R12  19438113.674   103834914.904       -2448.434          30.000  
> 2021  9 12 11  0 23.9991457  0  9
C08  38448610.881   200212052.950       -2554.304          21.000  
C25  21984357.446   114478291.853       -1573.246          16.000  
C33  22445661.892   116880462.6731      -1647.179          13.000  
G10  20284625.046   106596425.243       -1656.825          29.000  
G25  20899408.541   109826986.425       -1616.049          24.000  
G32  21445081.779   112694691.3561        441.040          20.000  
J01  37685277.525   198037441.938         446.495          34.000  
J02  38122043.059   200332713.117       -1455.128          30.000  
R12  19438421.261   103836557.741       -2449.722          25.000  
> 2021  9 12 11  0 24.9991452  0  9
C08  38448950.845   200213826.950       -2555.543          21.000  
C09  37723828.437   196437791.0071       -740.839          17.000  
C25  21984508.242   114479083.122       -1572.123          16.000  
C33  22445827.377   116881328.960       -1646.882          17.000  
G10  20284790.232   106597294.488       -1657.137          34.000  
J01  37685038.591   198036207.673         445.916          34.000  
J02  38122170.171   200333380.902       -1455.579          28.000  
R02  20192360.620   107750385.8271       1632.047          24.000  
R12  19438733.345   103838224.972       -2450.610          26.000  
> 2021  9 12 11  0 25.9991450  0  7
C33  22446082.201   116882662.385       -1644.975          17.000  
G25  20899812.061   109829118.2391      -1616.965          20.000  
G32  21444700.143   112692705.7721        443.521          22.000  
J01  37684891.093   198035446.256         446.539          35.000  
J02  38122386.021   200334520.664       -1454.212          28.000  
R02  20191993.674   107748433.903        1631.129          25.000  
R12  19439132.968   103840360.016       -2452.046          25.000  
> 2021  9 12 11  0 26.9991444  0  9
C08  38449690.433   200217685.6251      -2553.101          22.000  
C25  21984872.489   114480980.3511      -1572.316          15.000  
G10  20285187.157                       -1656.944          34.000  
G25  20899940.372   109829790.736       -1618.466          19.000  
G32  21444433.927   112691317.215         443.805          22.000  
J01  37684629.074   198034055.031         445.572          35.000  
J02  38122483.154   200335030.160       -1455.971          30.000  
R02  20191505.612   107745843.333        1630.585          27.000  
R12  19439412.375   103841852.148       -2451.080          27.000  
> 2021  9 12 11  0 27.9991442  0  6
C16  37338366.087   194430563.2231       -593.755          22.000  
G10  20285444.379   106600720.7641      -1657.334          34.000  
G32  21444287.029   112690557.750         443.808          25.000  
J01  37684487.272   198033293.969         447.622          34.000  
R02  20191141.064   107743893.178        1629.964          24.000  
R12  19439812.298   103843988.607       -2452.521          28.000  
> 2021  9 12 11  0 28.9991437  0  8
C08  38450459.101   200221698.6861      -2552.953          22.000  
C16  37338330.412   194430375.237        -591.985          22.000  
G10  20285605.068   106601592.293       -1660.097          31.000  
G32  21444053.790   112689326.166         443.043          25.000  
J01  37684251.336   198032060.228         445.571          34.000  
J02  38122829.714   200336839.1011      -1455.818          31.000  
R02  20190675.186   107741462.926        1630.279          24.000  
R12  19440123.483   103845650.441       -2451.096          29.000  
> 2021  9 12 11  0 29.9991432  0  8
C16  37338294.736   194430186.666        -591.728          21.000  
G10  20285768.755   106602464.461       -1661.517          34.000  
G25  20900496.188   109832761.7181      -1622.048          16.000  
G32  21443819.952   112688095.760         443.306          24.000  
J01  37684018.697   198030826.556         445.922          36.000  
J02  38122956.526   200337507.262       -1455.196          28.000  
R02  20190215.005   107739033.542        1630.362          22.000  
R12  19440433.468   103847306.209       -2453.714          27.000  
> 2021  9 12 11  0 30.9991427  0  7
C09  37723921.672   196438339.1011       -736.693          17.000  
G10  20285938.737   106603337.158       -1660.062          33.000  
G32  21443587.913   112686864.702         442.913          25.000  
J01  37683783.659   198029592.772         445.263          36.000  
J02  38123082.439   200338174.780       -1455.186          27.000  
R02  20189759.920   107736604.618        1627.573          24.000  
R12  19440751.848   103849007.822       -2452.674          20.000  
> 2021  9 12 11  0 31.9991421  0  9
C08  38451451.114   200226858.1001      -2551.747          23.000  
C16  37338188.010   194429653.8221       -593.242          22.000  
E21  24450184.589   128486552.5961      -1901.346          26.000  
G10  20286076.342   106604052.880       -1660.077          34.000  
G32  21443324.695   112685476.128         443.677          26.000  
J01  37683519.842   198028201.388         447.699          36.000  
J02  38123178.972   200338683.593       -1453.796          29.000  
R02  20189275.755   107734016.914        1628.130          27.000  
R12  19441030.655   103850497.213       -2454.067          19.000  
> 2021  9 12 11  0 32.9991419  0 10
C08  38451880.417   200229098.174       -2553.642          23.000  
C16  37338240.774   194429934.641        -593.038          24.000  
C33  22447347.025   116889294.1261      -1645.649          12.000  
E21  24450487.680   128488138.224       -1898.870          24.000  
G10  20286329.666   106605399.442       -1662.878          34.000  
G32  21443179.895   112684717.280         443.838          25.000  
J01  37683375.342   198027440.210         445.987          36.000  
J02  38123396.022   200339823.439       -1455.052          29.000  
R02  20188910.308   107732067.793        1629.738          26.000  
R12  19441431.177   103852636.387       -2455.180          24.000  
> 2021  9 12 11  0 33.9991414  0  8
C16  37338205.098   194429747.735        -593.916          23.000  
G10  20286492.753   106606274.169       -1663.873          34.000  
G25  20901197.702   109836431.4081      -1625.691          16.000  
G32  21442946.657   112683485.935         443.794          27.000  
J01  37683138.206   198026206.485         446.076          36.000  
J02  38123521.335   200340490.991       -1455.240          27.000  
R02  20188459.121   107729638.788        1628.475          25.000  
R12  19441738.764   103854279.079       -2455.711          22.000  
> 2021  9 12 11  0 34.9991409  0  9
C08  38452565.443   200232645.9631      -2554.768          22.000  
C16  37338167.624   194429561.332        -595.625          23.000  
G10  20286659.438   106607149.384       -1662.542          31.000  
G25  20901359.590   109837269.340       -1625.334          17.000  
G32  21442714.018   112682254.381         443.760          28.000  
J01  37682904.368   198024972.729         445.576          36.000  
J02  38123650.546   200341158.592       -1454.943          31.000  
R02  20188006.434   107727210.347        1628.501          27.000  
R12  19442046.651   103855924.404       -2456.583          22.000  
> 2021  9 12 11  0 35.9991406  0  8
C16  37338191.308   194429688.416        -595.508          24.000  
G10  20286888.479   106608340.395       -1664.466          33.000  
G25  20901580.237   109838421.735       -1624.965          24.000  
G32  21442537.740   112681337.797         443.778          25.000  
J01  37682727.790   198024054.097         444.975          35.000  
J02  38123839.715   200342141.569       -1456.061          30.000  
R02  20187611.008   107725102.662        1627.002          29.000  
R12  19442417.195   103857903.807       -2457.174          27.000  
> 2021  9 12 11  0 36.9991401  0 10
C08  38453309.228   200236506.5411      -2556.080          22.000  
C09  37724005.315   196438696.0321       -739.408          21.000  
C16  37338155.033   194429503.481        -595.296          24.000  
G10  20287053.665   106609216.983       -1664.145          34.000  
G25  20901741.226   109839258.930       -1625.212          24.000  
G32  21442304.501   112680106.573         443.341          27.000  
J01  37682495.451   198022820.358         445.257          34.000  
J02  38123969.525   200342809.487       -1455.625          30.000  
R02  20187155.323   107722676.022        1627.340          27.000  
R12  19442724.182   103859543.235       -2457.580          27.000  
> 2021  9 12 11  0 37.9991396  0 10
C08  38453650.392   200238281.410       -2555.761          23.000  
C09  37723998.120   196438654.293        -739.333          20.000  
C16  37338118.458   194429317.347        -594.520          22.000  
G10  20287223.348   106610093.933       -1664.956          33.000  
G25  20901902.214   109840096.598       -1625.807          23.000  
G32  21442071.863   112678875.449         443.364          27.000  
J01  37682258.016   198021586.411         445.944          35.000  
J02  38124098.736   200343477.530       -1455.928          27.000  
R02  20186704.136   107720247.860        1628.581          28.000  
R12  19443029.671   103861175.446       -2458.261          24.000  
> 2021  9 12 11  0 38.9991393  0 10
C08  38454051.514   200240368.733       -2555.264          22.000  
C09  37724052.682   196438924.586        -739.086          21.000  
C16  37338142.142   194429442.946        -594.335          22.000  
G10  20287450.290   106611286.682       -1665.564          34.000  
G25  20902123.461   109841250.220       -1627.049          19.000  
G32  21441898.283   112677959.422         443.468          27.000  
J01  37682082.637   198020667.688         445.758          35.000  
J02  38124287.005   200344460.455       -1455.135          30.000  
R02  20186311.108   107718140.249        1626.486          29.000  
R12  19443392.420   103863113.303       -2458.806          24.000  
> 2021  9 12 11  0 39.9991388  0  9
C08  38454391.479   200242141.721       -2554.140          23.000  
C09  37724045.187   196438882.376        -738.367          21.000  
C16  37338107.666   194429255.799        -592.617          22.000  
G10  20287619.074   106612164.976       -1667.085          31.000  
G25  20902283.850   109842090.377       -1628.216          17.000  
J01  37681849.698   198019433.714         446.332          36.000  
J02  38124414.117   200345128.483       -1456.210          29.000  
R02  20185854.524   107715715.035        1624.972          29.000  
R12  19443711.698   103864818.442       -2459.390          26.000  
> 2021  9 12 11  0 40.9991383  0  8
C08  38454732.942   200243915.925       -2555.084          25.000  
G10  20287788.756   106613043.940       -1667.452          33.000  
G25  20902447.836   109842931.101       -1628.882          24.000  
G32  21441422.512   112675497.6371        443.033          26.000  
J01  37681616.760   198018199.823         446.611          36.000  
J02  38124540.630   200345797.091       -1456.427          28.000  
R02  20185402.137   107713290.364        1625.218          28.000  
R12  19444022.883   103866480.464       -2460.405          27.000  
> 2021  9 12 11  0 41.9991378  0  8
C08  38455075.305   200245690.393       -2554.056          25.000  
C16  37338037.215   194428878.9491       -594.040          23.000  
G10  20287950.944   106613923.498       -1667.990          34.000  
G25  20902609.125   109843772.285       -1628.784          23.000  
G32  21441184.777   112674266.928         443.071          24.000  
J01  37681382.022   198016965.916         446.129          35.000  
J02  38124667.442   200346465.740       -1456.634          30.000  
R02  20184943.454   107710864.362        1626.233          26.000  
> 2021  9 12 11  0 42.9991373  0  9
C08  38455417.668   200247462.773       -2552.488          23.000  
C16  37338000.940   194428692.043        -593.415          23.000  
G10  20288121.526   106614803.729       -1667.708          34.000  
G25  20902768.914   109844613.595       -1629.332          21.000  
G32  21440950.939   112673036.107         443.088          23.000  
J01  37681146.085   198015732.125         446.678          35.000  
J02  38124793.954   200347134.282       -1456.094          30.000  
R02  20184490.768   107708438.732        1625.798          26.000  
R12  19444643.154   103869794.4341      -2461.690          19.000  
> 2021  9 12 11  0 43.9991370  0 10
C08  38455818.191   200249547.115       -2552.254          22.000  
C09  37724079.963   196439031.2271       -738.271          18.000  
C16  37338026.422   194428817.265        -593.291          23.000  
G10  20288348.469   106615999.805       -1667.990          33.000  
G25  20902990.761   109845770.492       -1630.354          21.000  
G32  21440777.658   112672120.385         442.936          24.000  
J01  37680969.208   198014813.404         446.635          34.000  
J02  38124981.624   200348117.258       -1455.058          28.000  
R02  20184095.641   107706333.619        1625.072          26.000  
R12  19445001.406   103871707.898       -2462.613          18.000  
> 2021  9 12 11  0 44.9991365  0 10
C08  38456160.554   200251320.148       -2554.345          23.000  
C09  37724071.569   196438988.187        -737.656          17.000  
C16  37337991.946   194428629.050        -592.092          23.000  
G10  20288517.252   106616881.358       -1669.827          34.000  
G25  20903152.349   109846613.286       -1631.030          22.000  
G32  21440545.020   112670889.425         443.451          26.000  
J01  37680738.667   198013579.620         445.490          35.000  
J02  38125110.235   200348785.217       -1455.652          27.000  
R02  20183639.957   107703907.431        1625.601          26.000  
R12  19445314.389   103873379.965       -2463.910          17.000  
> 2021  9 12 11  0 45.9991363  0 12
C08  38456591.356   200253562.532       -2554.492          24.000  
C09  37724152.213   196439413.802        -738.534          17.000  
C16  37338050.106   194428908.848        -591.999          25.000  
C23  23275207.409   121200111.9111       1032.597          23.000  
C25  21988220.871   114498352.7801      -1583.929          24.000  
G10  20288774.773   106618236.072       -1670.465          33.000  
G25  20903402.076   109847929.410       -1631.762          24.000  
G32  21440402.019   112670131.074         442.995          27.000  
J01  37680592.968   198012818.272         445.911          37.000  
J02  38125327.285   200349925.826       -1455.031          30.000  
R02  20183275.409   107701962.578        1625.579          25.000  
R12  19445715.511   103875522.027       -2463.743          23.000  
> 2021  9 12 11  0 46.9991357  0 11
C08  38456902.840   200255180.788       -2555.230          24.000  
C09  37724111.141   196439215.056        -736.927          16.000  
C16  37337985.950   194428564.017        -592.640          24.000  
C23  23274828.172   121198142.156        1033.111          19.000  
C25  21988342.887   114499001.666       -1586.909          23.000  
G10  20288914.177   106618961.184       -1669.679          33.000  
G25  20903532.186   109848615.872       -1632.032          24.000  
G32  21440137.602   112668742.918         442.608          28.000  
J01  37680327.352   198011426.764         446.453          36.000  
J02  38125423.818   200350435.619       -1455.243          32.000  
R02  20182788.246   107699376.745        1625.699          28.000  
> 2021  9 12 11  0 47.9991352  0 11
C08  38457244.604   200256954.743       -2554.756          24.000  
C16  37337949.975   194428376.034        -593.068          23.000  
C23  23274480.113   121196327.906        1033.529          22.000  
C25  21988499.079   114499808.503       -1587.141          24.000  
G10  20289081.161   106619844.514       -1669.697          34.000  
G25  20903692.575   109849460.454       -1632.630          24.000  
G32  21439905.262   112667512.399         442.818          28.000  
J01  37680091.116   198010192.733         446.533          36.000  
J02  38125551.230   200351103.406       -1455.539          28.000  
R02  20182334.660   107696950.959        1625.815          26.000  
R12  19446315.696   103878728.7191      -2464.628          18.000  
> 2021  9 12 11  0 48.9991347  0  9
C16  37337913.400   194428186.310        -588.292          21.000  
C25  21988654.671   114500614.567       -1586.827          21.000  
G10  20289247.246   106620727.853       -1670.368          32.000  
G25  20903852.964   109850306.568       -1635.474          22.000  
G32  21439671.724   112666282.746         441.447          25.000  
J01  37679856.078   198008958.861         446.351          32.000  
J02  38125681.040   200351771.543       -1455.854          29.000  
R02  20181881.374   107694526.152        1623.569          28.000  
R12  19446631.677   103880415.924       -2465.572          28.000  
> 2021  9 12 11  0 49.9991342  0  7
C23  23273781.596   121192702.2631       1032.009          21.000  
C25  21988808.764   114501420.533       -1586.410          23.000  
G10  20289414.231   106621611.288       -1672.394          33.000  
G25  20904012.453   109851154.378       -1636.047          21.000  
J01  37679621.641   198007725.102         446.385          35.000  
J02  38125808.752   200352439.442       -1455.483          31.000  
R12  19446945.860   103882094.987       -2466.039          29.000  
> 2021  9 12 11  0 50.9991340  0  8
C09  37724158.509   196439500.2881       -734.441          20.000  
C23  23273522.576   121191358.205        1030.055          21.000  
C25  21989052.496   114502695.315       -1587.668          26.000  
G32  21439299.382   112664296.1621        442.260          30.000  
J01  37679478.640   198006964.298         443.878          32.000  
J02  38126027.001   200353579.588       -1455.494          32.000  
R02  20181055.146   107690159.1651       1623.107          27.000  
R12  19447349.680   103884251.468       -2466.587          31.000  
> 2021  9 12 11  0 51.9991334  0  8
C09  37724119.236   196439299.580        -736.811          20.000  
C25  21989178.109   114503347.121       -1588.787          28.000  
C33  22450849.800   116907451.8781      -1654.526          28.000  
G10  20289807.259   106623697.7961      -1673.671          24.000  
G32  21439036.464   112662908.705         442.116          31.000  
J01  37679209.726   198005571.864         446.642          23.000  
J02  38126123.234   200354089.998       -1456.311          34.000  
R12  19447630.286   103885750.459       -2467.781          28.000  
> 2021  9 12 11  0 52.9991332  0  9
C08  38459098.520   200266606.9011      -2555.429          19.000  
C23  23272883.118   121188051.9791       1028.106          21.000  
C25  21989423.939   114504622.617       -1586.233          23.000  
C33  22451108.521   116908794.214       -1654.508          24.000  
G10  20290066.579   106625056.776       -1674.567          30.000  
J01  37679064.626   198004810.473         446.057          34.000  
J02  38126337.886                       -1455.813          30.000  
R02  20180215.727   107685633.5441       1622.288          26.000  
R12  19448028.410   103887877.647       -2468.200          26.000  
> 2021  9 12 11  0 53.9991327  0  9
C08  38459437.585   200268380.273       -2552.689          25.000  
C09  37724189.987   196439679.7651       -736.390          20.000  
C23  23272537.158   121186243.894        1027.728          23.000  
C25  21989579.831   114505429.165       -1586.057          14.000  
G25  20904814.098   109855345.4661      -1637.711          18.000  
J01  37678829.589   198003576.805         445.780          36.000  
J02  38126460.201   200355925.1641      -1457.680          27.000  
R02  20179761.242   107683211.977        1622.656          23.000  
R12  19448342.892   103889557.757       -2469.763          27.000  
> 2021  9 12 11  0 54.9991322  0  9
C08  38459776.051   200270153.708       -2553.951          23.000  
C09  37724181.593   196439636.228        -736.443          20.000  
C23  23272192.696   121184435.644        1027.440          22.000  
C33  22451445.788   116910545.9071      -1656.553          22.000  
G10  20290405.644   106626831.6171      -1675.610          35.000  
G32  21438429.384   112659691.4941        442.689          29.000  
J01  37678594.852   198002342.495         446.502          35.000  
J02  38126587.912   200356594.546       -1457.011          27.000    38126602.302   149616940.0461      -1087.537          26.000  
R12  19448659.173   103891247.029       -2470.939          29.000  
> 2021  9 12 11  0 55.9991316  0  9
C08  38460084.837   200271771.048       -2554.109          21.000  
C16  37337771.898   194427464.8691       -591.327          18.000  
C33  22451585.791   116911266.169       -1657.099          20.000  
G10  20290551.943   106627562.904       -1677.566          35.000  
G32  21438166.766   112658303.605         442.902          31.000  
J01  37678331.034   198000951.112         445.445          35.000  
J02  38126686.244   200357106.164       -1456.897          26.000    38126700.035   149617320.698       -1086.912          27.000  
R02  20178830.386   107678205.0191       1624.854          19.000  
R12  19448943.676   103892766.297       -2471.146          28.000  
> 2021  9 12 11  0 56.9991311  0  6
C08  38460426.001   200273545.734       -2556.448          23.000  
G10  20290717.429                       -1677.193          35.000  
J01  37678098.395   197999717.849         445.205          34.000  
J02  38126811.558   200357774.691       -1457.895          26.000    38126827.746   149617819.343       -1088.133          27.000  
R02  20178375.301   107675780.918        1623.672          24.000  
R12  19449255.461   103894431.754       -2472.623          25.000  
> 2021  9 12 11  0 57.9991306  0  9
C08  38460765.366   200275321.407       -2556.304          23.000  
C16  37337698.449   194427087.8771       -594.179          20.000  
C23  23271124.536   121178861.1831       1022.067          22.000  
G10  20290889.210   106629329.7741      -1676.956          36.000  
G32  21437699.689   112655843.9491        441.030          32.000  
J01  37677865.457                         442.239          34.000  
J02  38126939.269   200358444.777       -1457.810          26.000    38126955.158   149618320.055       -1090.395          27.000  
R02  20177920.816   107673358.587        1622.124          24.000  
R12  19449572.941   103896128.281       -2474.224          23.000  
> 2021  9 12 11  0 58.9991304  0  6
C08  38461196.168   200277564.338       -2553.357          21.000  
C23  23270869.712   121177525.160        1027.646          23.000  
G10  20291149.430   106630692.941       -1679.636          35.000  
G32  21437554.890                         441.667          33.000  
J02  38127156.919   200359586.733       -1456.530          28.000    38127171.608   149619173.790       -1088.259          27.000  
R02  20177557.767   107671417.155        1620.784          25.000  
> 2021  9 12 11  0 59.9991301  0  9
C08  38461597.290   200279650.077       -2554.547          22.000  
C09  37724248.746   196440038.3411       -740.088          15.000  
C23  23270583.111   121176028.627        1028.172          23.000  
G10  20291376.672   106631899.103       -1678.749          34.000  
G32  21437382.809   112654196.3261        440.796          33.000  
J01  37677541.681   197996838.7071        446.332          34.000  
J02  38127343.689   200360570.728       -1456.145          27.000    38127358.379   149619907.241       -1085.206          28.000  
R02  20177171.635   107669316.257        1621.630          25.000  
R12  19450351.202   103900285.7041      -2472.377          21.000  
> 2021  9 12 11  1  0.9991296  0  8
C08  38461937.255   200281424.748       -2555.362          23.000  
C23  23270233.253   121174219.126        1029.204          21.000  
G10  20291546.055   106632790.952       -1680.081          34.000  
G32  21437148.071   112652967.030         439.171          32.000  
J01  37677307.243   197995605.070         446.119          34.000  
J02                                                                  38127484.891   149620404.450       -1086.492          27.000  
R02  20176720.747   107666895.442        1621.358          26.000  
R12  19450662.686   103901949.617       -2472.966          24.000  
> 2021  9 12 11  1  1.9991291  0 10
C08  38462277.220   200283200.054       -2555.162          21.000  
C09  37724230.758   196439956.1861       -737.352          17.000  
C16  37337697.550   194427116.9141       -588.767          20.000  
C25  21990938.190   114512538.5411      -1592.106          16.000  
C33  22452743.289   116917324.5801      -1664.659          19.000  
G10  20291714.239   106633683.579       -1680.636          34.000  
G32  21436912.434   112651737.845         441.697          29.000  
J01  37677072.805   197994371.394         445.165          35.000  
J02  38127596.714   200361908.6951      -1457.529          25.000    38127612.003   149620902.505       -1086.903          27.000  
R12  19450984.364   103903667.266       -2474.027          28.000  
> 2021  9 12 11  1  2.9991286  0  7
G10  20291889.018   106634576.477       -1681.398          32.000  
G31  21365107.944   112274637.0681        333.312          23.000  
G32  21436673.200   112650508.504         439.295          30.000  
J01  37676840.166   197993137.569         444.889          34.000  
J02                                                                  38127739.415   149621401.916       -1088.188          27.000  
R02  20175806.680   107662053.9331       1620.186          23.000  
R12  19451300.045   103905353.834       -2475.166          25.000  
> 2021  9 12 11  1  3.9991283  0  7
G10  20292112.063   106635785.037       -1681.076          33.000  
G31  21364959.546   112273832.242         331.184          24.000  
G32  21436493.025   112649594.207         439.158          31.000  
J01  37676665.387   197992218.810         445.519          34.000  
J02  38127915.693   200363561.7981      -1456.069          31.000    38127926.186   149622135.775       -1086.623          26.000  
R02  20175417.249   107659955.407        1618.887          21.000  
R12  19451679.283   103907380.231       -2474.793          24.000  
> 2021  9 12 11  1  4.9991278  0  4
G10  20292282.045   106636679.471       -1683.418          31.000  
G32  21436266.981   112648365.176         441.539          30.000  
J01  37676423.755   197990985.193         445.922          33.000  
J02  38128041.906   200364230.275       -1456.493          30.000    38128053.898   149622633.681       -1086.166          26.000  
> 2021  9 12 11  1  5.9991273  0  8
C25  21991615.721   114516101.5081      -1591.522          24.000  
C33  22453483.777   116921178.3541      -1671.779          15.000  
G10  20292456.225   106637574.611       -1682.924          33.000  
G31  21364542.235   112271596.0461        330.097          27.000  
G32  21436029.246   112647136.283         442.696          28.000  
J01  37676195.013   197989751.564         445.395          31.000  
J02  38128171.416   200364899.179       -1456.775          29.000    38128180.410   149623132.868       -1088.044          24.000  
R02  20174504.681   107655115.4671       1620.283          22.000  
> 2021  9 12 11  1  6.9991268  0  7
C09  37724258.339   196440038.8521       -735.310          25.000  
G10  20292627.706   106638470.295       -1684.256          35.000  
G31  21364332.680   112270478.823         327.973          28.000  
G32  21435796.307   112645907.112         440.670          26.000  
J01  37675959.376   197988518.044         446.725          33.000  
J02  38128300.927   200365567.680       -1456.260          29.000    38128307.522   149623630.888       -1086.678          24.000  
R02  20174050.495   107652695.503        1619.608          26.000  
> 2021  9 12 11  1  7.9991265  0  7
C09  37724311.702   196440305.953        -734.083          22.000  
C33  22453884.000   116923267.1741      -1671.281          14.000  
G10  20292859.146   106639681.659       -1684.408          36.000  
G31  21364182.184   112269678.333         327.348          27.000  
G32  21435626.025   112644993.516         441.128          25.000  
J01  37675783.098   197987599.436         446.952          32.000  
J02  38128487.098   200366551.589       -1456.925          31.000    38128496.391   149624365.762       -1089.226          24.000  
> 2021  9 12 11  1  8.9991260  0 10
C09  37724304.208   196440259.829        -734.934          20.000  
C16  37337582.729   194426412.5531       -589.069          21.000  
C33  22454055.181   116924156.972       -1669.243          13.000  
G10  20293027.929   106640578.693       -1684.794          34.000  
G25  20907485.249   109869385.2011      -1646.777          16.000  
G31  21363972.929   112268563.031         327.578          26.000  
G32  21435395.484   112643764.661         440.941          26.000  
J01  37675546.562   197986365.888         445.992          32.000  
J02  38128614.210   200367221.135       -1457.291          30.000    38128623.803   149624866.810       -1090.665          22.000  
R02  20173205.081   107648175.7991       1620.559          25.000  
> 2021  9 12 11  1  9.9991255  0  8
C08  38465127.946   200298030.0311      -2558.958          22.000  
C16  37337549.452   194426219.929        -587.562          21.000  
G10  20293201.209   106641476.293       -1686.014          35.000  
G31  21363763.374   112267447.381         327.898          24.000  
G32  21435164.345   112642535.586         441.369          27.000  
J01  37675308.227   197985132.348         447.167          31.000  
J02  38128744.619   200367890.832       -1457.173          30.000    38128751.814   149625367.645       -1088.172          24.000  
R02  20172745.499   107645755.676        1620.342          26.000  
> 2021  9 12 11  1 10.9991252  0  5
G10  20293429.951   106642689.523       -1685.567          35.000  
G31  21363615.876   112266647.393         327.116          26.000  
G32  21434991.664   112641621.534         441.341          27.000  
J01  37675139.444   197984213.638         446.235          32.000  
J02  38128931.390   200368875.083       -1456.291          30.000    38128939.784   149626103.925       -1088.773          23.000  
> 2021  9 12 11  1 11.9991247  0  8
C08  38465870.232   200301899.3191      -2557.314          22.000  
G10  20293602.631   106643588.400       -1687.066          35.000  
G25  20908044.062   109872280.9691      -1648.813          18.000  
G31  21363406.621   112265532.362         326.827          26.000  
G32  21434760.524   112640392.854         440.589          28.000  
J01  37674910.102   197982980.054         447.041          31.000  
J02  38129058.202   200369543.103       -1455.770          30.000    38129066.297   149626603.927       -1088.370          24.000  
R02  20171898.585   107641238.0391       1618.541          27.000  
> 2021  9 12 11  1 12.9991242  0  8
C08  38466211.396   200303676.000       -2556.275          23.000  
C16  37337499.687   194425948.3411       -586.543          21.000  
G10  20293766.618   106644487.974       -1687.546          34.000  
G31  21363194.668   112264417.442         326.763          27.000  
G32  21434528.784   112639164.867         440.160          27.000  
J01  37674672.367   197981746.489         446.441          33.000  
J02  38129186.513   200370212.040       -1457.110          30.000    38129193.708   149627105.613       -1088.228          23.000  
R02  20171445.899   107638821.757        1614.514          28.000  
> 2021  9 12 11  1 13.9991237  0  7
C08  38466551.960   200305450.807       -2554.536          23.000  
E01  23796846.886   125053274.3701        690.343          31.000  
G10  20293938.099   106645387.964       -1685.713          34.000  
G32  21434295.546   112637936.943         440.046          25.000  
J01  37674429.235   197980512.864         445.557          31.000  
J02  38129313.625   200370881.480       -1457.452          32.000    38129320.820   149627604.847       -1085.774          24.000  
R02  20170987.516   107636406.804        1615.025          24.000  
> 2021  9 12 11  1 14.9991235  0  8
C08  38466979.764   200307692.624       -2553.442          22.000  
E01  23796652.620   125052253.286         689.063          26.000  
G10  20294200.118   106646761.667       -1689.073          31.000  
G25  20908634.054   109875612.9421      -1650.833          18.000  
G31  21362861.599   112262661.6161        326.742          27.000  
J01  37674291.331   197979752.077         446.263          34.000  
J02  38129531.275   200372023.898       -1457.757          30.000    38129536.971   149628456.297       -1087.702          22.000  
R02  20170623.568   107634471.050        1616.243          24.000  
> 2021  9 12 11  1 15.9991229  0  9
C08  38467290.349   200309309.858       -2554.065          24.000  
C25  21993354.517   114525164.3721      -1594.805          19.000  
E01  23796341.436   125050618.034         688.367          33.000  
G10  20294347.016   106647505.638       -1688.457          33.000  
G31  21362621.165   112261389.330         327.587          24.000  
G32  21433880.034   112635796.8771        440.126          22.000  
J01  37674028.113   197978361.010         447.166          34.000  
J02  38129629.607   200372536.163       -1458.027          29.000    38129635.003   149628838.162       -1087.535          24.000  
R02  20170136.405   107631895.243        1616.303          24.000  
> 2021  9 12 11  1 16.9991227  0  8
C08  38467722.350   200311552.191       -2554.552          23.000  
E01  23796151.367   125049618.950         687.120          33.000  
G10  20294607.536   106648880.502       -1689.782          33.000  
G31  21362500.649   112260747.438         326.398          24.000  
G32  21433735.534   112635041.154         440.933          25.000  
J01  37673884.512   197977600.231         445.279          35.000  
J02  38129847.856   200373678.648       -1457.131          29.000    38129851.753   149629690.977       -1088.219          25.000  
R02  20169784.149   107629959.855        1614.438          26.000  
> 2021  9 12 11  1 17.9991222  0 10
C08  38468063.514   200313326.904       -2556.518          22.000  
C16  37337478.402   194426047.6831       -591.793          15.000  
C25  21993759.537   114527264.6621      -1598.168          23.000  
E01  23795871.061   125048146.240         687.561          33.000  
G10  20294777.518   106649783.462       -1691.067          32.000  
G31  21362289.595   112259633.626         325.548          25.000  
G32  21433498.997   112633813.096         440.018          24.000  
J01  37673649.175   197976366.901         447.208          34.000  
J02  38129974.668   200374348.088       -1456.612          29.000    38129979.764   149630192.251       -1091.108          23.000  
R02  20169328.464   107627544.157        1616.049          24.000  
> 2021  9 12 11  1 18.9991217  0 10
C08  38468404.977   200315102.303       -2556.038          21.000  
C16  37337444.825   194425856.883        -586.997          13.000  
C25  21993918.727   114528082.468       -1599.242          24.000  
E01  23795589.556   125046666.530         686.469          33.000  
G10  20294950.498   106650687.196       -1694.321          30.000  
G31  21362077.641   112258520.696         324.909          25.000  
G32  21433266.958   112632585.508         440.189          25.000  
J01  37673412.040   197975133.645         446.110          34.000  
J02  38130100.880   200375016.926       -1456.834          29.000  
R02  20168877.876   107625128.881        1613.951          25.000  
> 2021  9 12 11  1 19.9991212  0  5
E01  23795308.351   125045188.820         686.945          34.000  
G10  20295120.480   106651591.076       -1691.466          29.000  
J01  37673172.805   197973900.347         445.224          34.000  
J02  38130227.992   200375685.847       -1456.710          29.000  
R02  20168430.586   107622714.185        1614.904          26.000  
> 2021  9 12 11  1 20.9991206  0 10
C08  38469058.225   200318497.6351      -2557.561          22.000  
C25  21994207.127   114529561.9871      -1598.407          22.000  
E01  23795000.164   125043569.568         685.218          34.000  
G10  20295261.083   106652336.975       -1691.026          28.000  
G31  21361625.554   112256141.1301        323.518          20.000  
G32  21432771.401   112629971.2021        441.203          24.000  
J01  37672909.587   197972509.446         443.873          32.000  
J02  38130324.825   200376197.658       -1457.196          30.000  
R02  20167952.717   107620139.094        1616.435          26.000  
R12  19457249.726   103937136.5421      -2486.810          30.000  
> 2021  9 12 11  1 21.9991201  0  9
C08  38469400.288   200320275.190       -2557.652          22.000  
C33  22456437.332   116936629.3031      -1668.255          24.000  
E01  23794720.158   125042097.858         684.590          32.000  
G10  20295431.365   106653241.669       -1693.285          28.000  
G32  21432539.062   112628742.633         440.249          31.000  
J01  37672674.850   197971276.241         445.959          33.000  
J02  38130451.038   200376867.471       -1458.097          28.000  
R02  20167500.030   107617723.970        1614.153          26.000  
R12  19457564.209   103938815.985       -2487.998          31.000  
> 2021  9 12 11  1 22.9991199  0 10
C08  38469831.090   200322519.847       -2556.658          25.000  
C33  22456697.552   116937985.457       -1668.453          26.000  
E01  23794529.190   125041094.774         685.312          32.000  
G10  20295693.084   106654619.852       -1694.385          26.000  
G25  20910093.444   109883170.7031      -1662.582          17.000  
G32  21432396.361   112627988.425         437.857          31.000  
J01  37672526.153   197970515.630         445.171          33.000  
J02  38130669.287   200378010.063       -1457.108          26.000  
R02  20167130.986   107615789.498        1614.343          26.000  
R12  19457972.526   103940996.924       -2488.224          30.000  
> 2021  9 12 11  1 23.9991196  0 10
C08  38470233.112   200324607.846       -2555.898          24.000  
C25  21994836.691   114532796.4771      -1599.213          26.000  
C33  22456927.493   116939185.652       -1669.537          25.000  
E01  23794310.642   125039946.148         683.998          32.000  
G10  20295924.524   106655842.220       -1695.427          28.000  
G32  21432223.680   112627077.550         438.741          31.000  
J01  37672349.275   197969597.462         447.133          32.000  
J02  38130855.458   200378995.123       -1457.301          25.000  
R02  20166741.555   107613696.677        1612.492          24.000  
R12  19458348.466   103943005.127       -2487.924          29.000  
> 2021  9 12 11  1 24.9991191  0  9
E01  23794029.736   125038469.438         684.322          33.000  
G10  20296097.204   106656749.600       -1695.336          31.000  
G25  20910487.970   109885234.7181      -1661.709          17.000  
G31  21360918.644   112252491.6261        321.607          18.000  
G32  21431991.941   112625851.045         438.725          31.000  
J01  37672121.433   197968364.560         444.435          32.000  
J02  38130981.970   200379664.912       -1457.746          25.000  
R02  20166290.667   107611282.349        1614.296          26.000  
R12  19458664.147   103944691.498       -2490.086          29.000  
> 2021  9 12 11  1 25.9991186  0  7
E01  23793751.229   125037005.728         683.504          31.000  
G10  20296268.086   106657657.578       -1696.261          32.000  
G32  21431758.103   112624624.112         439.299          30.000  
J01  37671888.194   197967131.608         444.822          34.000  
J02  38131109.382   200380334.936       -1458.612          29.000  
R02  20165839.480   107608868.614        1613.345          29.000  
R12  19458978.330   103946370.354       -2492.017          28.000  
> 2021  9 12 11  1 26.9991181  0  8
C08  38471259.601   200329935.9491      -2557.013          20.000  
C33  22457444.035   116941854.8801      -1674.776          17.000  
E01  23793469.724   125035527.018         682.973          30.000  
G32  21431525.464   112623397.096         439.250          29.000  
J01  37671650.759   197965898.755         445.171          33.000  
J02  38131237.394   200381005.409       -1458.216          27.000  
R02  20165388.892   107606455.485        1612.487          31.000  
R12  19459290.713   103948038.569       -2492.226          25.000  
> 2021  9 12 11  1 27.9991176  0 11
C08  38471600.765   200331711.627       -2554.965          24.000  
C25  21995474.650   114536083.3581      -1603.980          19.000  
C33  22457614.917   116942748.880       -1674.205          19.000  
E01  23793188.518   125034049.308         684.770          32.000  
G10  20296618.543                       -1698.022          35.000  
G31  21360283.084   112249160.5331        320.753          20.000  
G32  21431292.225   112622170.005         439.250          30.000  
J01  37671416.021   197964665.996         444.444          31.000  
J02  38131366.005   200381674.908       -1456.922          29.000  
R02  20164940.102   107604043.368        1611.357          30.000  
R12  19459605.795   103949722.035       -2492.904          29.000  
> 2021  9 12 11  1 28.9991171  0  9
C25  21995631.441   114536905.919       -1602.191          24.000  
E01  23792909.711   125032583.598         682.030          32.000  
G10  20296797.819   106660360.3021      -1699.482          32.000  
G31  21360072.929   112248053.005         319.204          21.000  
G32  21431058.987   112620943.112         438.001          30.000  
J01  37671183.382   197963433.083         443.839          32.000  
J02  38131495.215   200382344.985       -1457.818          29.000  
R02  20164491.313   107601631.466        1612.153          31.000  
R12  19459920.577   103951403.025       -2492.887          27.000  
> 2021  9 12 11  1 29.9991165  0 11
C08  38472254.612   200335103.3071      -2555.065          21.000  
C25  21995757.954   114537571.229       -1601.518          23.000  
C33  22457931.797   116944381.2571      -1675.940          17.000  
E01  23792600.625   125030959.346         682.828          31.000  
G10  20296939.022   106661113.914       -1699.845          30.000  
G31  21359828.598   112246788.974         317.584          21.000  
G32  21430796.368   112619559.195         438.794          29.000  
J01  37670921.064   197962042.762         445.316          33.000  
J02  38131595.046   200382857.782       -1458.147          29.000  
R02  20164013.444   107599059.695        1611.371          31.000  
R12  19460210.776   103952953.075       -2493.183          28.000  
> 2021  9 12 11  1 30.9991165  0  9
C25  21996065.541   114539172.623       -1601.545          25.000  
E01  23792470.515   125030276.346         680.689          33.000  
G10  20297260.999   106662813.418       -1700.554          32.000  
G31  21359768.340   112246471.191         316.022          20.000  
G32  21430713.626   112619119.896         439.360          31.000  
J01  37670833.225   197961597.839         443.692          32.000  
J02  38131872.654   200384315.687       -1458.210          28.000  
R02  20163713.951   107597447.741        1612.757          31.000  
R12  19460679.352   103955456.614       -2494.063          29.000  
> 2021  9 12 11  1 31.9991160  0 12
C08  38473088.635   200339433.7521      -2557.092          21.000  
C25  21996225.030   114539994.709       -1603.633          23.000  
C33  22458423.757   116946952.5601      -1674.356          15.000  
E01  23792188.111   125028791.636         682.408          31.000  
G10  20297430.381   106663725.940       -1702.379          32.000  
G23  22069717.952   115977053.5241      -3707.557          26.000  
G25  20911742.902   109892013.3111      -1661.301          14.000  
G32  21430480.087   112617893.043         439.084          31.000  
J01  37670595.489   197960365.209         445.052          33.000  
J02  38132000.965   200384986.919       -1459.790          28.000  
R02  20163260.066   107595036.825        1610.573          28.000  
R12  19460997.132   103957153.618       -2495.244          26.000  
> 2021  9 12 11  1 32.9991155  0 11
C08  38473429.799   200341209.776       -2555.821          19.000  
C25  21996381.822   114540817.470       -1602.109          19.000  
E01  23791908.405   125027321.926         683.069          31.000  
G10  20297597.066   106664639.035       -1703.000          31.000  
G23  22070273.168   115979973.510       -3708.048          26.000  
G31  21359349.830   112244264.5401        316.918          19.000  
G32  21430245.350   112616667.248         438.521          32.000  
J01  37670362.850   197959132.673         443.896          31.000  
J02  38132128.677   200385658.251       -1458.614          27.000  
R02  20162808.878   107592626.384        1610.274          32.000  
R12  19461314.612   103958850.309       -2495.710          28.000  
> 2021  9 12 11  1 33.9991150  0  9
E01  23791626.600   125025841.216         681.141          32.000  
G10  20297770.646   106665552.986       -1702.517          27.000  
G23  22070828.084   115982894.062       -3708.795          26.000  
G31  21359137.577   112243158.884         318.772          19.000  
G32  21430012.711   112615440.881         438.648          29.000  
J01  37670128.713   197957900.136         444.579          31.000  
J02  38132255.489   200386328.848       -1458.572          28.000  
R02  20162357.990   107590216.283        1610.447          31.000  
R12  19461632.092   103960545.637       -2496.588          28.000  
> 2021  9 12 11  1 34.9991145  0  8
E01  23791348.392   125024379.506         680.150          32.000  
G10  20297947.523   106666467.902       -1705.093          29.000  
G23  22071382.999   115985815.563       -3708.854          26.000  
G32  21429780.372   112614214.468         438.393          30.000  
J01  37669895.774   197956667.746         445.377          32.000  
J02  38132383.800   200387000.224       -1459.528          28.000  
R02  20161907.102   107587805.685        1610.441          32.000  
R12  19461949.273   103962240.579       -2497.169          27.000  
> 2021  9 12 11  1 35.9991140  0 10
C33  22459113.279   116950526.2371      -1673.306          18.000  
E01  23791070.784   125022920.796         678.621          31.000  
G10  20298118.705   106667382.954       -1702.788          26.000  
G23  22071937.915   115988737.518       -3709.970          26.000  
G31  21358717.867   112240946.7691        318.516          20.000  
G32  21429548.932   112612988.691         437.057          26.000  
J01  37669664.334   197955435.578         444.245          34.000  
J02  38132511.512   200387672.076       -1459.341          31.000  
R02  20161459.212   107585395.979        1608.097          32.000  
R12  19462265.554   103963930.236       -2498.139          27.000  
> 2021  9 12 11  1 36.9991135  0  9
C33  22459284.161   116951419.288       -1674.235          28.000  
E01  23790792.877   125021460.086         681.720          22.000  
G10  20298293.484   106668298.384       -1703.466          27.000  
G23  22072493.431   115991660.242       -3710.578          26.000  
G31  21358504.115   112239841.204         317.544          20.000  
G32  21429318.991   112611763.599         437.458          21.000  
J01  37669429.297   197954203.141         445.222          35.000  
J02  38132638.324   200388343.311       -1458.371          31.000    38132643.420   149640647.2031      -1091.504          29.000  
R12  19462585.732   103965639.857       -2498.802          29.000  
> 2021  9 12 11  1 37.9991132  0  8
C33  22459515.901   116952625.754       -1675.947          26.000  
E01  23790574.928   125020314.460         680.461          28.000  
G10  20298527.622   106669529.662       -1704.473          24.000  
G23  22073110.404   115994897.090       -3709.802          25.000  
G32  21429145.411   112610852.465         438.466          24.000  
J02                                                                  38132831.390   149641384.522       -1087.433          23.000  
R02  20160613.198   107580899.4871       1609.801          31.000  
R12  19462966.169   103967672.259       -2499.243          30.000  
> 2021  9 12 11  1 38.9991130  0 10
C33  22459778.819   116953989.261       -1676.264          25.000  
E01  23790385.759   125019320.376         677.149          25.000  
G10  20298786.642   106670919.106       -1704.931          22.000  
G23  22073756.756   115998291.940       -3710.468          24.000  
G31  21358224.109   112238423.7941        315.217          24.000  
G32  21429002.111   112610099.412         438.355          24.000  
J01  37669108.819   197952525.5791        445.657          32.000  
J02  38133039.446   200390470.8261      -1459.134          32.000    38133049.339   149642237.232       -1088.583          22.000  
R02  20160251.648   107578969.798        1609.471          32.000  
R12  19463375.985   103969861.215       -2499.523          32.000  
> 2021  9 12 11  1 39.9991124  0  9
C25  21997592.084   114547200.3301      -1604.876          29.000  
C33  22459922.719   116954728.880       -1676.430          24.000  
E01  23790077.872   125017702.124         679.452          29.000  
G23  22074281.993   116001056.351       -3710.288          25.000  
G31  21357984.575   112237163.299         315.059          25.000  
G32  21428737.094   112608715.906         437.802          22.000  
J01  37668842.903   197951135.267         446.491          33.000  
J02  38133136.279                       -1458.281          32.000    38133146.772   149642621.529       -1092.310          23.000  
R12  19463665.285   103971406.962       -2499.982          29.000  
> 2021  9 12 11  1 40.9991119  0 10
C25  21997750.674   114548024.169       -1604.458          26.000  
C33  22460095.699   116955624.892       -1676.055          25.000  
E01  23789799.964   125016242.414         677.451          26.000  
G10  20299108.020   106672597.2461      -1705.670          29.000  
G23  22074837.808   116003979.066       -3711.613          25.000  
G31  21357774.420   112236060.476         315.253          23.000  
J01  37668607.865   197949902.662         445.376          33.000  
J02  38133263.091   200391654.4401      -1458.460          31.000    38133275.683   149643125.567       -1091.188          23.000  
R02  20159312.398   107573991.8341       1608.633          32.000  
R12  19463985.763   103973118.639       -2500.826          31.000  
> 2021  9 12 11  1 41.9991114  0 10
C33  22460268.080   116956522.375       -1678.958          23.000  
E01  23789519.958   125014770.704         677.801          25.000  
G10  20299282.499   106673515.804       -1706.813          29.000  
G23  22075394.822   116006902.437       -3710.741          26.000  
G31  21357564.866   112234957.486         315.289          24.000  
G32  21428270.917   112606269.3231        437.153          23.000  
J01  37668376.426   197948670.063         444.225          33.000  
J02  38133394.400   200392325.392       -1459.059          31.000    38133403.694   149643626.207       -1088.529          22.000  
R02  20158862.710   107571583.712        1607.689          31.000  
R12  19464305.941   103974829.077       -2501.709          29.000  
> 2021  9 12 11  1 42.9991109  0 10
C25  21998072.951   114549673.6661      -1606.196          25.000  
C33  22460438.062   116957420.721       -1679.922          24.000  
E01  23789239.053   125013293.994         678.085          27.000  
G10  20299460.276   106674435.278       -1707.736          30.000  
G23  22075950.637   116009825.828       -3711.280          25.000  
G31  21357353.212   112233854.803         313.417          24.000  
J01  37668141.089   197947437.466         445.473          34.000  
J02  38133521.213   200392996.520       -1459.228          30.000  
R02  20158409.124   107569176.114        1609.151          29.000  
R12  19464623.422   103976525.209       -2502.357          29.000  
> 2021  9 12 11  1 43.9991107  0 11
C25  21998321.179   114550968.005       -1605.905          25.000  
C33  22460699.781   116958787.562       -1677.560          24.000  
E01  23789049.284   125012296.910         676.941          29.000  
G10  20299726.792   106675827.902       -1707.969          29.000  
G23  22076597.290   116013222.233       -3711.241          27.000  
G31  21357234.194   112233226.472         312.991          22.000  
G32  21427892.279   112604290.7131        438.103          27.000  
J01  37667994.190   197946677.396         445.693          34.000  
J02  38133731.667   200394140.075       -1457.009          31.000  
R02  20158051.172   107567246.850        1608.592          27.000  
R12  19465033.238   103978714.321       -2502.804          30.000  
> 2021  9 12 11  1 44.9991101  0  7
C33  22460840.684   116959528.893       -1678.973          23.000  
E01  23788739.298   125010668.658         677.230          27.000  
G23  22077122.526   116015989.190       -3712.497          26.000  
J01  37667730.972   197945287.529         444.621          33.000  
J02  38133836.294   200394653.836       -1461.384          31.000  
R02  20157571.803   107564679.257        1606.814          26.000  
R12  19465320.439   103980248.433       -2503.651          28.000  
> 2021  9 12 11  1 45.9991096  0 11
C23  23255454.384   121097234.0001       1002.634          14.000  
C25  21998603.584   114552462.5191      -1607.787          17.000  
E01  23788458.093   125009190.948         676.743          29.000  
G10  20300045.471   106677511.7861      -1709.085          31.000  
G23  22077678.042   116018913.357       -3711.808          24.000  
G31  21356786.005   112230868.1811        312.795          24.000  
G32  21427391.326   112601681.5221        437.943          30.000  
J01  37667497.734   197944055.256         443.393          34.000  
J02  38133961.608   200395325.176       -1460.569          29.000  
R02  20157120.616   107562273.915        1605.030          24.000  
R12  19465640.318   103981956.831       -2505.038          30.000  
> 2021  9 12 11  1 46.9991094  0 11
C25  21998852.112   114553757.949       -1607.986          24.000  
C33  22461275.083   116961796.8691      -1680.523          23.000  
E01  23788269.524   125008199.864         674.219          31.000  
G10  20300319.481                       -1711.216          30.000  
G23  22078322.895   116022311.008       -3712.938          25.000  
G31  21356667.587   112230240.407         312.202          24.000  
G32  21427247.725   112600927.984         437.841          25.000  
J01  37667354.733   197943295.768         444.428          33.000  
J02  38134178.358   200396469.560       -1461.564          29.000  
R02  20156762.664   107560348.641        1605.396          25.000  
R12  19466050.434   103984147.797       -2505.680          28.000  
> 2021  9 12 11  1 47.9991089  0 10
C25  21999010.402   114554585.613       -1608.810          27.000  
E01  23787991.016   125006736.154         674.181          29.000  
G10  20300492.462   106679820.8731      -1709.270          33.000  
G23  22078879.610   116025237.198       -3714.476          22.000  
G31  21356459.831   112229140.438         312.268          24.000  
G32  21427015.986   112599702.604         437.188          29.000  
J01  37667111.601   197942063.526         443.675          32.000  
J02  38134303.971   200397140.972       -1459.093          29.000  
R02  20156310.577   107557942.960        1605.947          25.000  
R12  19466367.914   103985843.802       -2505.942          29.000  
> 2021  9 12 11  1 48.9991084  0  7
E01  23787712.809   125005274.444         674.608          33.000  
G10  20300669.039   106680744.028       -1710.113          28.000  
G23  22079438.423   116028164.276       -3716.122          24.000  
G31  21356252.674   112228039.420         314.821          22.000  
J01  37666874.166   197940831.112         447.585          29.000  
J02  38134435.879   200397812.343       -1460.813          29.000  
R12  19466683.595   103987530.149       -2506.344          26.000  
> 2021  9 12 11  1 49.9991078  0  8
C25  21999295.505   114556087.2661      -1609.934          17.000  
E01  23787404.922   125003656.192         675.665          33.000  
G10  20300813.539   106681509.346       -1710.341          27.000  
G32  21426514.733   112597096.9741        436.277          21.000  
J01  37666617.843   197939441.009         442.062          30.000  
J02  38134537.209   200398326.127       -1458.858          29.000  
R02  20155364.132   107552969.2901       1608.846          22.000  
R12  19466972.296   103989072.786       -2507.015          28.000  
> 2021  9 12 11  1 50.9991076  0 10
C25  21999543.133   114557384.787       -1610.523          24.000  
C33  22462034.757   116965710.5021      -1681.955          19.000  
E01  23787218.751   125002678.108         672.942          33.000  
G10  20301080.055   106682906.116       -1713.069          28.000  
G23  22080619.905   116034333.6291      -3716.030          23.000  
G32  21426370.532   112596345.731         436.529          28.000  
J01  37666472.744   197938681.060         444.215          29.000  
J02  38134753.360   200399469.980       -1459.029          28.000  
R02  20155001.383   107551041.208        1607.463          21.000  
R12  19467381.512   103991258.566       -2507.345          28.000  
> 2021  9 12 11  1 51.9991071  0  9
C23  23253548.004   121087321.3681       1008.699          18.000  
C33  22462209.236   116966611.945       -1681.953          20.000  
E01  23786939.045   125001207.398         673.970          33.000  
G10  20301255.134   106683831.697       -1713.648          29.000  
G23  22081174.221   116037262.270       -3716.938          26.000  
G31  21355710.050   112225046.5191        314.812          18.000  
G32  21426137.294   112595120.924         437.164          26.000  
J01  37666238.306   197937448.474         444.321          31.000  
J02  38134881.071   200400141.178       -1458.908          28.000  
> 2021  9 12 11  1 52.9991066  0 10
C25  21999856.716   114559042.4761      -1609.644          26.000  
C33  22462383.416   116967514.295       -1683.004          21.000  
E01  23786659.638   124999739.688         673.858          31.000  
G10  20301431.411   106684757.473       -1713.749          31.000  
G23  22081731.535   116040191.468       -3716.436          25.000  
G32  21425906.454   112593896.624         436.463          27.000  
J01  37665999.071   197936215.598         445.261          30.000  
J02  38135010.282   200400812.310       -1458.791          29.000  
R02  20154086.716   107546226.8441       1606.110          22.000  
R12  19468018.571   103994661.2001      -2508.867          27.000  
> 2021  9 12 11  1 53.9991060  0 10
C25  21999988.925   114559715.418       -1609.438          27.000  
C33  22462527.316   116968260.546       -1684.347          21.000  
E01  23786350.552   124998115.436         672.938          31.000  
G10  20301577.111   106685526.337       -1714.271          31.000  
G31  21355266.657   112222686.3151        313.898          18.000  
G32  21425645.035   112592514.441         437.012          27.000  
J01  37665735.554   197934825.354         446.093          30.000  
J02  38135108.314   200401325.969       -1457.804          30.000  
R02  20153607.648   107543662.005        1604.010          21.000  
R12  19468305.173   103996192.391       -2509.433          25.000  
> 2021  9 12 11  1 54.9991058  0 10
C25  22000241.350   114561013.158       -1610.131          28.000  
C33  22462790.234   116969632.235       -1683.674          22.000  
E01  23786162.582   124997127.352         672.023          31.000  
G10  20301842.127   106686925.621       -1714.146          30.000  
G23  22082908.820   116046365.4611      -3717.603          26.000  
G32  21425498.736   112591761.733         437.761          27.000  
J01  37665591.653   197934065.423         442.406          31.000  
J02  38135319.967   200402469.983       -1454.820          30.000  
R02  20153247.597   107541738.003        1604.021          24.000  
R12  19468713.790   103998374.619       -2509.835          24.000  
> 2021  9 12 11  1 55.9991053  0 11
C25  22000402.638   114561843.506       -1611.431          27.000  
C33  22462964.713   116970536.257       -1685.355          22.000  
E01  23785886.174   124995674.642         672.626          31.000  
G10  20302018.105   106687852.497       -1715.483          29.000  
G23  22083464.636   116049294.718       -3715.307          25.000  
G31  21354945.279   112220956.7851        311.355          19.000  
G32  21425263.099   112590536.158         437.436          29.000  
J01  37665362.312   197932832.787         442.876          30.000  
J02  38135447.679   200403141.295       -1460.389          30.000  
R02  20152797.609   107539334.453        1603.416          24.000  
R12  19469030.071   104000064.449       -2508.913          24.000  
> 2021  9 12 11  1 56.9991048  0  9
C25  22000563.927   114562674.622       -1612.551          27.000  
E01  23785609.765   124994222.932         671.683          31.000  
G10  20302194.383   106688780.772       -1716.231          29.000  
G23  22084023.449   116052221.964       -3716.283          26.000  
G32  21425029.561   112589311.013         436.819          29.000  
J01  37665125.776   197931600.243         444.461          30.000  
J02  38135579.887   200403812.793       -1459.883          29.000  
R02  20152348.220   107536931.117        1603.107          24.000  
R12  19469351.748   104001783.314       -2510.218          27.000  
> 2021  9 12 11  1 57.9991045  0  9
C08  38482399.889   200387966.3851      -2558.125          23.000  
E01  23785394.814   124993093.306         670.792          33.000  
G10  20302431.219   106690024.130       -1715.300          29.000  
G23  22084641.921   116055466.274       -3717.531          25.000  
G31  21354591.524   112219075.9801        307.202          20.000  
J01  37664955.794   197930682.797         443.613          30.000  
J02  38135769.956   200404799.348       -1458.653          29.000  
R02  20151973.479   107534848.369        1602.416          22.000  
R12  19469732.185   104003814.968       -2512.026          28.000  
> 2021  9 12 11  1 58.9991040  0  8
C33  22463544.212   116973558.9661      -1682.403          21.000  
E01  23785119.005   124991643.596         671.592          35.000  
G10  20302610.495   106690952.792       -1717.090          30.000  
G23  22085199.834   116058396.194       -3717.778          26.000  
J01  37664717.159   197929450.145         444.122          31.000  
J02  38135897.068   200405470.705       -1458.761          30.000  
R02  20151525.289   107532446.032        1602.420          22.000  
R12  19470050.864   104005517.512       -2512.940          27.000  
> 2021  9 12 11  1 59.9991035  0  8
C33  22463717.492   116974460.518       -1681.679          20.000  
E01  23784840.797   124990181.886         669.928          34.000  
G10  20302787.373   106691882.535       -1717.446          28.000  
G23  22085757.148   116061325.696       -3717.538          26.000  
G31  21354177.810   112216888.2111        303.211          20.000  
J01  37664484.820   197928217.463         445.687          32.000  
J02  38136021.182   200406142.173       -1459.194          30.000  
R02  20151069.305   107530043.354        1603.886          24.000  
> 2021  9 12 11  2  0.9991030  0  7
E01  23784563.489   124988724.176         669.205          35.000  
G10  20302965.150   106692812.185       -1717.331          29.000  
G23  22086315.062   116064255.207       -3717.100          24.000  
J01  37664247.084   197926984.734         444.162          31.000  
J02  38136139.900   200406813.590       -1458.555          30.000  
R02  20150613.021   107527641.272        1600.668          25.000  
R12  19470695.418   104008960.5671      -2514.084          28.000  
> 2021  9 12 11  2  1.9991027  0  9
C33  22464121.312   116976573.8501      -1681.060          17.000  
E01  23784345.540   124987578.550         668.802          35.000  
G10  20303200.187   106694058.165       -1719.676          28.000  
G23  22086932.035   116067499.504       -3717.201          24.000  
G31  21353824.955   112215021.1031        304.764          19.000  
J01  37664072.305   197926067.322         445.796          31.000  
J02  38136334.165   200407800.276       -1459.634          30.000  
R02  20150221.792   107525558.880        1603.052          24.000  
R12  19471079.752   104011013.329       -2514.501          30.000  
> 2021  9 12 11  2  2.9991022  0  8
C33  22464293.993   116977476.146       -1685.456          16.000  
E01  23784068.232   124986121.840         668.903          35.000  
G10  20303377.364   106694990.604       -1720.841          28.000  
G23  22087489.050   116070428.612       -3717.204          23.000  
G31  21353623.794   112213928.046         306.827          18.000  
J01  37663838.167   197924834.816         445.290          30.000  
J02  38136468.172   200408471.925       -1459.813          30.000  
R02  20149769.105   107523156.876        1600.580          27.000  
> 2021  9 12 11  2  3.9991020  0 10
C08  38484588.374   200399405.6921      -2557.388          19.000  
C33  22464558.710   116978851.302       -1688.576          15.000  
E01  23783880.562   124985135.756         668.348          35.000  
G10  20303645.978   106696396.716       -1721.381          30.000  
G23  22088139.599   116073832.432       -3719.568          23.000  
G32  21423633.127   112581841.3361        434.700          24.000  
J01  37663694.867   197924075.085         444.553          31.000  
J02  38136684.323   200409616.393       -1458.707          30.000  
R02  20149414.151   107521234.905        1603.718          26.000  
R12  19471819.940   104014967.8791      -2516.295          28.000  
> 2021  9 12 11  2  4.9991014  0  9
E01  23783573.575   124983522.504         666.343          34.000  
G10  20303794.076   106697172.859       -1721.101          29.000  
G23  22088670.831   116076607.836       -3722.676          23.000  
G31  21353264.043   112212049.0441        310.461          16.000  
G32  21423374.107   112580461.339         434.347          22.000  
J01  37663431.349   197922685.212         444.184          32.000  
J02  38136784.454   200410130.760       -1458.875          29.000  
R02  20148935.382   107518672.471        1602.163          19.000  
R12  19472114.935   104016543.545       -2516.939          28.000  
> 2021  9 12 11  2  5.9991009  0  7
C33  22464874.091   116980513.6811      -1690.273          16.000  
E01  23783295.967   124982063.794         667.798          34.000  
G10  20303971.253   106698106.002       -1721.371          28.000  
G23  22089235.640   116079542.902       -3721.496          23.000  
J01  37663185.519   197921452.803         444.990          31.000  
J02  38136912.765   200410802.644       -1459.576          28.000  
R12  19472434.214   104018248.830       -2517.643          30.000  
> 2021  9 12 11  2  6.9991004  0  8
C08  38485581.286   200404576.9481      -2557.689          19.000  
E01  23783016.260   124980593.084         667.977          35.000  
G10  20304151.728   106699040.255       -1722.732          29.000  
G23  22089796.252   116082476.894       -3721.567          22.000  
J01  37662956.178   197920220.615         443.934          29.000  
J02  38137044.074   200411474.677       -1460.244          31.000  
R02  20148037.204   107513869.3701       1600.682          21.000  
R12  19472757.091   104019973.862       -2518.250          26.000  
> 2021  9 12 11  2  7.9990999  0  6
E01  23782740.152   124979142.374         665.068          33.000  
G10  20304331.604   106699975.919       -1724.212          35.000  
J01  37662726.237   197918988.509         444.213          36.000  
J02  38137164.590   200412146.888       -1462.534          34.000  
R02  20147580.920   107511469.719        1599.351          27.000  
R12  19473074.571   104021669.536       -2519.133          30.000  
> 2021  9 12 11  2  8.9990994  0  7
C08  38486267.212   200408131.6821      -2560.054          20.000  
C33  22465398.728   116983244.9271      -1694.409          16.000  
E01  23782465.542   124977699.664         666.071          32.000  
G10  20304511.479   106700912.855       -1725.564          33.000  
J01  37662493.298   197917756.636         443.712          35.000  
J02  38137290.503   200412819.319       -1461.150          32.000  
R12  19473392.651   104023368.222       -2519.928          27.000  
> 2021  9 12 11  2  9.9990991  0  6
C08  38486670.732   200410223.338       -2559.666          21.000  
E01  23782253.588   124976586.038         665.519          35.000  
G10  20304754.011                       -1726.491          34.000  
J01  37662319.719   197916839.454         443.640          33.000  
J02  38137475.775   200413806.549       -1457.726          30.000  
R12  19473772.488   104025397.677       -2520.131          32.000  
> 2021  9 12 11  2 10.9990989  0  7
C08  38487105.731   200412471.888       -2561.749          21.000  
E01  23782068.017   124975609.954         662.067          32.000  
G10  20305024.724   106703612.2971      -1726.674          33.000  
J01  37662177.317   197916080.231         442.628          31.000  
J02  38137692.825   200414951.770       -1460.729          31.000  
R02  20146370.358   107505071.8381       1599.761          17.000  
R12  19474182.304   104027586.785       -2520.865          32.000  
> 2021  9 12 11  2 11.9990984  0  7
C08  38487447.495   200414252.916       -2562.042          21.000  
E01  23781791.009   124974155.244         662.908          30.000  
G10  20305197.704   106704550.795       -1727.507          36.000  
J01  37661941.980   197914848.415         443.603          33.000  
J02  38137828.031   200415624.291       -1460.400          34.000  
R02  20145917.072   107502672.182        1599.887          25.000  
R12  19474501.583   104029292.269       -2521.746          31.000  
> 2021  9 12 11  2 12.9990979  0 10
C08  38487792.556   200416033.455       -2560.956          21.000  
E01  23781516.099   124972710.534         664.258          28.000  
G10  20305373.383   106705489.970       -1728.641          35.000  
G23  22093299.327   116100874.9881      -3724.156          16.000  
G31  21351686.535   112204097.7871        302.312          25.000  
G32  21421657.195   112571466.3591        434.966          19.000  
J01  37661706.343   197913616.626         443.445          35.000  
J02  38137955.143   200416296.942       -1460.495          36.000  
R02  20145476.077   107500272.140        1598.625          21.000  
R12  19474823.260   104031010.596       -2522.415          26.000  
> 2021  9 12 11  2 13.9990973  0  8
C03  36477091.135   189945785.7521       -726.657          31.000  
C08  38488104.040   200417657.305       -2560.136          24.000  
E01  23781208.812   124971095.282         663.931          30.000  
G10  20305528.375   106706272.313       -1727.217          34.000  
G31  21351441.005   112202579.175         301.622          24.000  
J01  37661441.926   197912227.614         443.610          33.000  
J02  38138049.578   200416812.609       -1461.536          32.000  
R12  19475118.256   104032586.857       -2523.768          29.000  
> 2021  9 12 11  2 14.9990968  0  9
C08  38488446.103   200419437.806       -2561.274          18.000  
E01  23780932.103   124969641.572         662.757          36.000  
G10  20305705.852   106707212.793       -1728.627          28.000  
G23  22094383.377   116106597.2181      -3730.520          14.000  
G32  21421150.546   112568863.5981        434.383          20.000  
J01  37661207.788   197910996.004         442.332          31.000  
J02  38138172.493   200417485.923       -1463.352          28.000  
R02  20144559.012   107495317.8591       1596.548          24.000  
R12  19475443.231   104034322.543       -2524.853          25.000  
> 2021  9 12 11  2 15.9990963  0  8
C08  38488789.965   200421219.511       -2561.951          20.000  
C09  37724830.643   196442927.6141       -730.826          25.000  
E01  23780655.695   124968188.862         662.710          35.000  
G10  20305883.030   106708153.867       -1729.286          31.000  
G23  22094945.488   116109542.154       -3733.830          14.000  
J01  37660975.449   197909764.540         445.045          32.000  
R02  20144112.321   107492920.829        1597.638          21.000  
R12  19475770.305   104036069.696       -2525.122          29.000  
> 2021  9 12 11  2 16.9990961  0 10
C08  38489221.666   200423468.983       -2560.553          26.000  
C09  37724912.786   196443345.673        -729.916          27.000  
E01  23780470.123   124967213.778         662.895          35.000  
G10  20306151.044   106709568.393       -1730.247          29.000  
G23  22095594.238   116112957.964       -3729.350          14.000  
G31  21350907.374   112199790.1341        296.618          16.000  
G32  21420762.015   112566889.3071        435.615          21.000  
J01  37660837.545   197909005.741         444.819          31.000  
J02  38138517.853   200419303.3151      -1460.691          25.000  
R12  19476188.215   104038302.471       -2525.296          30.000  
> 2021  9 12 11  2 17.9990956  0  9
C08  38489563.729   200425248.582       -2559.826          24.000  
C09  37724904.692   196443294.271        -727.459          26.000  
E01  23780193.115   124965758.068         659.116          33.000  
G10  20306327.622   106710511.128       -1730.749          30.000  
G32  21420527.577   112565666.565         434.428          22.000  
J01  37660593.214   197907774.376         444.791          31.000  
J02  38138646.464   200419976.242       -1461.625          28.000  
R02  20143303.781   107488605.7341       1597.801          19.000  
R12  19476512.891   104040036.172       -2525.849          28.000  
> 2021  9 12 11  2 18.9990953  0 10
C08  38489963.353   200427339.781       -2559.437          25.000  
C09  37724956.256   196443554.745        -729.053          24.000  
E01  23779976.665   124964620.442         659.588          34.000  
G10  20306563.259   106711769.728       -1731.829          28.000  
G23  22096767.626   116119154.8251      -3729.698          12.000  
G32  21420358.195   112564759.268         432.651          22.000  
J01  37660416.636   197906857.670         443.832          28.000  
J02  38138837.132   200420965.187       -1461.204          25.000  
R02  20142914.650   107486528.547        1596.084          24.000  
R12  19476899.923   104042103.804       -2526.579          28.000  
> 2021  9 12 11  2 19.9990948  0 10
C08  38490307.215   200429119.388       -2561.509          24.000  
C09  37724948.162   196443503.770        -730.598          22.000  
E01  23779701.455   124963173.732         661.335          35.000  
G10  20306741.935   106712714.361       -1733.194          30.000  
G23  22097328.238   116122100.634       -3734.245          11.000  
G31  21350337.169   112196848.1391        298.857          15.000  
J01  37660181.899   197905626.036         443.806          27.000  
J02  38138965.444   200421638.239       -1460.969          25.000  
R02  20142464.362   107484133.517        1594.542          21.000  
R12  19477222.200   104043825.966       -2527.364          32.000  
> 2021  9 12 11  2 20.9990943  0 11
C08  38490650.477   200430899.426       -2559.392          23.000  
C09  37724937.969   196443454.233        -731.227          22.000  
E01  23779425.946   124961726.022         662.407          36.000    23779423.548    93315565.3811        488.993          23.000  
G10  20306921.211   106713659.735       -1733.189          29.000  
G25  20920883.574   109940043.6091      -1696.744          25.000  
G31  21350124.316   112195758.562         302.970          15.000  
G32  21419903.409   112562319.9361        431.599          20.000  
J01  37659949.260   197904393.805         444.266          27.000  
J02  38139094.354   200422311.813       -1461.741          27.000  
R02  20142019.170   107481739.744        1593.692          20.000  
R12  19477542.678   104045537.076       -2528.322          31.000  
> 2021  9 12 11  2 21.9990938  0  8
C08  38490991.341   200432678.126       -2558.729          22.000  
C09  37724928.975   196443404.163        -729.744          21.000  
E01  23779149.238   124960272.312         659.666          35.000    23779149.837    93314491.156         488.690          25.000  
G10  20307101.986   106714605.537       -1733.953          27.000  
G25  20921057.453   109940952.940       -1697.483          25.000  
J01  37659716.321   197903162.505         442.979          26.000  
J02  38139222.666   200422986.025       -1461.670          26.000  
R02  20141575.178   107479346.206        1593.640          23.000  
> 2021  9 12 11  2 22.9990932  0 10
C08  38491302.526   200434300.134       -2559.206          25.000  
C09  37724892.101   196443197.217        -729.390          22.000  
E01  23778844.049   124958668.060         659.284          35.000  
G10  20307253.381   106715394.747       -1734.690          31.000  
G25  20921201.054   109941705.372       -1698.248          24.000  
G32  21419407.253   112559719.3671        434.361          21.000  
J01  37659453.703   197901774.930         442.365          31.000  
J02  38139322.197   200423502.703       -1461.805          31.000  
R02  20141100.306   107476792.607        1593.660          26.000  
R12  19478157.252   104048820.7191      -2530.145          29.000  
> 2021  9 12 11  2 23.9990930  0 10
C08  38491732.428   200436547.629       -2561.093          23.000  
C09  37724975.443   196443615.522        -731.991          22.000  
E01  23778657.278   124957686.976         657.624          31.000  
G10  20307523.494   106716815.179       -1736.365          32.000  
G25  20921465.171   109943088.503       -1698.703          26.000  
G32  21419264.552   112558970.214         434.187          24.000  
J01  37659311.001   197901017.662         441.947          35.000  
J02  38139541.345   200424649.148       -1461.445          31.000  
R02  20140741.155   107474879.163        1593.305          29.000  
R12  19478567.368   104051010.728       -2530.705          26.000  
> 2021  9 12 11  2 24.9990925  0  9
C08  38492073.292   200438327.103       -2559.372          20.000  
C09  37724970.047   196443565.513        -730.089          19.000  
E01  23778383.268   124956247.266         658.832          29.000  
G10  20307704.269   106717763.686       -1736.205          30.000  
G25  20921638.751   109944000.560       -1700.408          26.000  
G32  21419032.213   112557748.295         433.833          24.000  
J01  37659078.363   197899787.981         441.993          36.000  
J02  38139669.956   200425323.183       -1461.778          29.000  
R02  20140290.267   107472485.904        1593.660          26.000  
> 2021  9 12 11  2 25.9990922  0  8
C08  38492477.712   200440417.686       -2558.673          21.000  
C09  37725019.512   196443826.901        -729.449          25.000  
E01  23778168.616   124955118.640         657.705          33.000  
G10  20307945.002   106719026.956       -1736.172          31.000  
J01  37658905.083   197898873.240         443.063          32.000  
J02  38139857.626   200426313.675       -1463.271          30.000  
R02  20139904.434   107470413.190        1592.659          30.000  
R12  19479290.768   104054875.2421      -2534.668          21.000  
> 2021  9 12 11  2 26.9990917  0  7
C08  38492819.176   200442196.400       -2560.925          24.000  
E01  23777894.906   124953680.930         657.077          33.000  
G31  21349010.887   112189873.1531        291.889          19.000  
J01  37658666.148   197897641.697         441.236          30.000  
J02  38139987.436   200426988.926       -1463.412          31.000  
R02  20139451.448   107468020.652        1592.479          29.000  
R12  19479618.741   104056627.513       -2533.957          23.000  
> 2021  9 12 11  2 27.9990912  0  9
C25  22006133.771   114591571.3961      -1625.513          23.000  
E01  23777619.996   124952236.220         657.207          31.000  
G10  20308313.447   106720925.7621      -1737.733          32.000  
G25  20922220.948   109947054.1871      -1701.647          18.000  
G32  21418399.950   112554401.4551        431.898          23.000  
J01  37658433.209   197896412.698         441.170          34.000  
J02  38140115.448   200427664.249       -1461.735          28.000  
R02  20139001.759   107465628.534        1591.751          28.000  
R12  19479941.617   104058352.528       -2534.215          21.000  
> 2021  9 12 11  2 28.9990907  0  9
C25  22006291.461   114592415.197       -1623.868          26.000  
E01  23777345.386   124950792.510         656.103          33.000  
G10  20308494.222   106721876.200       -1738.726          31.000  
G25  20922394.827   109947968.017       -1701.421          23.000  
G32  21418170.909   112553181.653         431.908          21.000  
J01  37658200.870   197895183.255         442.091          34.000  
J02  38140243.459   200428338.382       -1462.304          29.000  
R02  20138553.569   107463236.173        1591.885          25.000  
R12  19480268.091   104060095.996       -2534.414          25.000  
> 2021  9 12 11  2 29.9990902  0  9
C09  37724969.447   196443618.4531       -728.308          24.000  
C25  22006450.951   114593259.469       -1625.454          26.000  
E01  23777068.078   124949335.800         656.689          34.000  
G10  20308675.896   106722828.157       -1739.191          30.000  
G25  20922571.705   109948882.389       -1703.339          24.000  
G31  21348404.707   112186635.4861        290.937          21.000  
J01  37657964.334   197893952.682         443.763          34.000  
J02  38140371.770   200429012.682       -1462.344          30.000  
R02  20138105.680   107460843.399        1592.563          26.000  
> 2021  9 12 11  2 30.9990899  0  7
C09  37725020.412   196443879.404        -730.986          21.000  
C25  22006671.298   114594416.625       -1625.451          26.000  
E01  23776853.727   124948209.174         656.060          35.000  
G10  20308915.430   106724094.243       -1738.629          30.000  
J01  37657788.356                         442.725          33.000  
J02  38140559.440   200430002.102       -1462.161          29.000  
R02  20137717.748   107458771.199        1590.613          25.000  
> 2021  9 12 11  2 31.9990894  0 11
C09  37725009.619   196443830.074        -731.554          23.000  
C25  22006832.587   114595261.621       -1625.724          26.000  
E01  23776580.016   124946770.464         656.480          35.000  
G10  20309095.006   106725045.352       -1739.351          31.000  
G25  20922980.622   109951029.7131      -1705.626          23.000  
G31  21348061.744   112184790.4291        292.924          24.000  
G32  21417546.441   112549840.3921        431.051          19.000  
J01  37657554.218   197891782.7341        442.574          33.000  
J02  38140688.351   200430676.828       -1462.658          29.000  
R02  20137273.156   107456381.615        1588.757          29.000  
R12  19481293.081   104065571.0831      -2536.707          13.000  
> 2021  9 12 11  2 32.9990889  0  9
C09  37725000.925   196443781.202        -731.647          24.000  
C25  22006994.475   114596108.334       -1627.363          27.000  
E01  23776304.807   124945324.754         654.130          36.000  
G10  20309275.181   106725997.775       -1741.005          30.000  
G25  20923154.502   109951947.715       -1706.146          20.000  
G31  21347856.686   112183709.447         293.360          24.000  
J01  37657322.778   197890552.627         443.802          34.000  
J02  38140816.962   200431351.682       -1462.811          30.000  
R02  20136827.364   107453992.352        1589.614          29.000  
> 2021  9 12 11  2 33.9990886  0 11
C08  38495327.539   200455299.0561      -2561.525          21.000  
C09  37725050.091   196444044.149        -730.917          25.000  
C23  23239958.112   121016428.1671        989.074          21.000  
C25  22007215.122   114597267.050       -1627.177          26.000  
E01  23776091.055   124944201.128         654.707          35.000  
G10  20309516.214   106727266.564       -1742.170          30.000  
G25  20923391.038   109953181.558       -1707.003          22.000  
G31  21347713.086   112182943.588         292.628          23.000  
J01  37657144.401   197889637.510         442.832          34.000  
J02  38141005.232   200432341.148       -1461.643          30.000  
R02  20136439.433   107451922.549        1590.566          29.000  
> 2021  9 12 11  2 34.9990881  0 12
C08  38495670.202   200457079.766       -2561.126          21.000  
C09  37725041.097   196443993.508        -729.817          25.000  
C23  23239620.246   121014658.920         987.756          22.000  
C25  22007377.909   114598114.206       -1629.140          26.000  
E01  23775816.445   124942758.418         654.024          35.000  
G10  20309697.289   106728221.248       -1742.920          31.000  
G25  20923565.217   109954100.813       -1707.541          22.000  
G31  21347507.128   112181863.366         292.209          21.000  
G32  21416924.072   112546497.3061        431.271          20.000  
J01  37656912.062   197888407.266         440.295          34.000  
J02  38141132.344   200433015.262       -1461.572          30.000  
R02  20135988.845   107449531.942        1591.201          30.000  
> 2021  9 12 11  2 35.9990876  0  9
C09  37725029.106   196443942.636        -730.549          24.000  
C25  22007541.296   114598962.364       -1628.445          25.000  
E01  23775543.933   124941325.708         653.055          34.000  
G10  20309878.664   106729176.709       -1743.922          30.000  
G25  20923739.397   109955021.077       -1708.576          21.000  
G31  21347300.571   112180783.813         290.679          22.000  
J01  37656683.321   197887177.673         442.969          35.000  
J02  38141260.055   200433689.740       -1463.509          29.000  
R12  19482640.649   104072770.2301      -2539.165          24.000  
> 2021  9 12 11  2 36.9990874  0 10
C08  38496443.667   200461111.3681      -2564.622          18.000  
C09  37725110.350   196444362.029        -732.056          23.000  
C25  22007792.522   114600277.890       -1627.403          23.000  
E01  23775359.261   124940355.624         653.161          29.000  
G10  20310148.777   106730605.699       -1744.540          31.000  
G31  21347187.250   112180178.582         289.574          24.000  
J01  37656538.821   197886421.116         441.616          29.000  
J02  38141479.503   200434838.510       -1464.522          28.000  
R02  20135182.403   107445234.3201       1587.667          28.000  
R12  19483052.563   104074969.971       -2539.188          28.000  
> 2021  9 12 11  2 37.9990868  0  9
C08  38496755.451   200462739.707       -2564.795          19.000  
C09  37725070.777   196444159.607        -734.181          20.000  
C25  22007923.532   114600968.662       -1627.530          24.000  
E01  23775053.473   124938748.372         652.278          27.000  
G10  20310301.371   106731405.357       -1745.555          26.000  
J01  37656275.603   197885035.677         440.207          24.000  
J02  38141579.934   200435357.305       -1463.475          29.000  
R02  20134704.534   107442685.850        1588.747          26.000  
R12  19483344.561   104076530.222       -2539.615          28.000  
> 2021  9 12 11  2 38.9990863  0  7
E01  23774777.664   124937299.662         651.390          29.000  
G10  20310485.444   106732363.453       -1746.128          29.000  
G32  21416042.382   112541942.5041        427.153          16.000  
J01  37656042.364   197883807.319         441.589          29.000  
J02  38141712.442   200436033.137       -1462.984          26.000  
R02  20134258.443   107440297.691        1587.432          26.000  
R12  19483666.538   104078250.049       -2539.835          24.000  
> 2021  9 12 11  2 39.9990858  0 13
C08  38497443.175   200466311.5351      -2570.655          18.000  
C09  37725040.498   196444064.3541       -732.255          23.000  
C23  23237964.192   121006137.7651        985.509          27.000  
C25  22008249.406   114602667.4011      -1630.870          22.000  
E01  23774502.754   124935854.952         652.897          30.000  
G10  20310669.516   106733321.750       -1746.013          31.000  
G25  20924517.958   109959021.9851      -1708.132          16.000  
G31  21346549.291   112176791.0871        289.344          24.000  
G32  21415805.247   112540726.720         429.288          18.000  
J01  37655810.625   197882577.483         442.604          30.000  
J02  38141845.250   200436707.718       -1462.729          28.000  
R02  20133809.953   107437908.870        1588.636          26.000  
R12  19483988.515   104079970.073       -2540.184          24.000  
> 2021  9 12 11  2 40.9990853  0  7
C08  38497787.636   200468099.944       -2566.610          18.000  
C23  23237623.628   121004371.070         986.614          27.000  
C25  22008413.093   114603517.566       -1631.391          26.000  
E01  23774227.545   124934408.242         652.182          29.000  
G10  20310855.088   106734280.377       -1746.697          30.000  
R02  20133362.063   107435521.073        1586.945          28.000  
R12  19484311.092   104081693.460       -2540.471          34.000  
> 2021  9 12 11  2 41.9990851  0  8
C09  37725113.048   196444433.0861       -729.451          20.000  
C23  23237373.301   121003072.137         987.309          17.000  
E01  23774043.472   124933441.158         652.517          31.000  
G10  20311129.398   106735712.090       -1747.205          37.000  
G25  20924947.860   109961337.3941      -1710.176          24.000  
G32  21415421.212   112538760.5731        432.393          26.000  
J02  38142190.911   200438530.4981      -1463.801          31.000  
R02  20133009.807   107433612.936        1588.602          26.000  
> 2021  9 12 11  2 42.9990845  0  8
C08  38498537.717   200471979.3241      -2562.967          18.000  
C23  23237006.955   121001148.765         985.917          20.000  
E01  23773740.682   124931849.906         650.795          31.000  
G10  20311283.491   106736514.411       -1747.728          38.000  
G32  21415154.397   112537383.165         431.790          24.000  
J01  37655162.174                         442.403          35.000  
J02  38142277.551   200439048.536       -1462.379          30.000  
R02  20132531.638   107431064.595        1587.027          23.000  
> 2021  9 12 11  2 43.9990843  0  8
C23  23236759.026   120999851.373         984.719          21.000  
E01  23773556.609   124930882.822         649.695          30.000  
G10  20311554.503                       -1744.300          38.000  
G23  22111199.035   116195073.6971      -3736.973          23.000  
G32  21415009.897   112536636.621         431.523          23.000  
J01  37655011.078                         444.526          35.000  
J02  38142492.202                       -1462.894          31.000  
R12  19485441.909   104087733.5301      -2543.426          26.000  
> 2021  9 12 11  2 44.9990838  0  7
C23  23236420.561   120998086.405         984.172          21.000  
C25  22009210.541   114607683.0051      -1625.941          15.000  
E01  23773282.899   124929444.112         649.010          31.000  
G10  20311736.777                       -1748.925          36.000  
G32  21414773.361   112535417.433         431.148          25.000  
J01  37654779.638   197877225.2301        441.452          34.000  
J02  38142626.809   200440824.4931      -1462.258          31.000  
> 2021  9 12 11  2 45.9990833  0 10
C16  37335690.739   194416845.1061       -582.514          23.000  
C23  23236079.397   120996322.402         983.093          21.000  
C25  22009372.429   114608526.944       -1625.224          14.000  
G10  20311920.250   106739862.7301      -1749.500          36.000  
G25  20925698.241   109965350.8821      -1714.490          18.000  
G32  21414540.422   112534198.747         430.429          25.000  
J01  37654549.098   197875995.519         440.309          34.000  
J02  38142761.716   200441500.110       -1463.748          31.000  
R02  20131251.525   107424388.2581       1584.630          15.000  
R12  19486106.849   104091285.4751      -2545.990          21.000  
> 2021  9 12 11  2 46.9990828  0 11
C08  38499995.907   200479564.6451      -2559.258          19.000  
C16  37335655.064   194416647.045        -582.115          24.000  
C23  23235741.231   120994557.912         984.049          24.000  
C25  22009535.216   114609374.542       -1630.743          17.000  
E01  23772738.176   124926581.6921        647.034          31.000  
G10  20312104.023   106740825.676       -1751.376          36.000  
G32  21414306.884   112532981.020         429.841          26.000  
J01  37654313.461   197874766.071         443.620          35.000  
J02  38142889.427   200442176.072       -1461.733          30.000  
R02  20130811.129   107422004.024        1583.782          25.000  
R12  19486434.822   104093037.814       -2546.187          26.000  
> 2021  9 12 11  2 47.9990822  0 13
C08  38500306.792   200481185.945       -2560.817          19.000  
C09  37725101.356   196444282.9931       -726.068          19.000  
C16  37335588.210   194416292.841        -582.967          21.000  
C23  23235373.086   120992636.757         984.945          23.000  
C25  22009668.324   114610070.757       -1634.643          17.000  
E01  23772435.985   124924993.440         646.280          32.000  
G10  20312256.318   106741631.813       -1753.126          37.000  
G23  22113402.510   116206716.7551      -3739.705          22.000  
G31  21345063.520   112168808.0451        295.361          17.000  
G32  21414044.865   112531606.026         429.991          22.000  
J01  37654048.744   197873379.091         441.099          35.000  
J02  38142988.958   200442694.473       -1460.916          28.000  
R02  20130336.258   107419460.501        1583.612          20.000  
> 2021  9 12 11  2 48.9990817  0 13
C09  37725092.362   196444230.089        -727.160          20.000  
C16  37335551.336   194416094.876        -582.799          22.000  
C23  23235035.819   120990872.179         983.975          24.000  
C25  22009833.509   114610924.719       -1634.373          27.000  
E01  23772163.474   124923561.730         648.447          34.000  
G10  20312440.090   106742596.027       -1752.901          34.000  
G25  20926198.894   109967979.7161      -1718.361          23.000  
G31  21344855.764   112167728.081         289.724          17.000  
G32  21413813.725   112530388.985         429.609          23.000  
J01  37653816.106   197872149.672         441.809          36.000  
J02  38143121.466   200443371.215       -1462.787          28.000  
R02  20129894.064   107417076.658        1584.066          27.000  
R12  19487074.579   104096455.3351      -2549.448          19.000  
> 2021  9 12 11  2 49.9990815  0 11
C03  36477352.255   189947095.2621       -722.074          31.000  
C09  37725173.306   196444645.822        -727.650          21.000  
C16  37335603.799   194416364.568        -581.825          20.000  
C23  23234786.392   120989575.547         985.934          21.000  
C25  22010087.434   114612246.756       -1634.943          23.000  
E01  23771980.600   124922600.646         649.685          34.000  
G10  20312712.602   106744033.341       -1753.164          34.000  
G23  22114612.173   116213097.5341      -3743.276          18.000  
G32  21413672.823   112529643.994         431.346          20.000  
J01  37653671.606   197871392.713         441.541          34.000  
R02  20129541.209   107415173.427        1582.273          25.000  
> 2021  9 12 11  2 50.9990810  0 13
C03  36477340.563   189947037.093        -722.996          33.000  
C09  37725164.612   196444593.483        -728.200          21.000  
C16  37335564.227   194416166.023        -581.855          23.000  
C23  23234445.828   120987810.006         982.351          17.000  
E01  23771708.089   124921168.936         645.624          28.000  
G10  20312895.475   106744999.152       -1752.581          36.000  
G23  22115173.384   116216054.486       -3744.831          19.000  
G25  20926641.687   109970307.6321      -1707.608          12.000  
G32  21413439.584   112528426.988         428.317          21.000  
J01  37653438.367   197870163.574         440.834          34.000  
J02  38143464.129   200445194.2381      -1463.315          29.000  
R02  20129098.715   107412791.097        1582.362          28.000  
R12  19487819.263   104100432.9861      -2549.086          19.000  
> 2021  9 12 11  2 51.9990807  0 14
C03  36477390.028   189947292.142        -723.891          32.000  
C06  36700150.215   191107399.0721       -618.686          21.000  
C09  37725214.677   196444853.805        -728.656          25.000  
C16  37335584.013   194416280.891        -584.432          21.000  
C23  23234167.021   120986360.159         981.299          20.000  
E01  23771494.337   124920045.310         645.450          30.000  
G10  20313142.204   106746279.624       -1754.450          36.000  
G23  22115791.556   116219323.612       -3741.270          20.000  
G25  20926878.823   109971543.047       -1710.053          14.000  
G32  21413268.403   112527525.824         428.581          26.000  
J01  37653260.590   197869249.777         439.477          36.000  
J02  38143650.300   200446184.399       -1463.095          32.000  
R02  20128721.276   107410728.740        1582.670          28.000  
R12  19488205.696   104102496.931       -2550.142          23.000  
> 2021  9 12 11  2 52.9990802  0  9
C03  36477378.636   189947235.553        -724.037          27.000  
C06  36700116.338   191107237.293        -619.661          20.000  
E01  23771222.125   124918614.600         645.803          26.000  
G10  20313323.879   106747246.580       -1755.311          34.000  
G31  21344171.937   112164224.7341        284.471          24.000  
J01  37653027.352   197868018.839         441.749          30.000  
J02  38143776.513   200446859.836       -1463.237          28.000  
R02  20128273.386   107408345.943        1585.005          24.000  
R12  19488533.969   104104251.403       -2550.505          32.000  
> 2021  9 12 11  2 53.9990797  0 13
C09  37725189.795   196444752.0041       -727.117          18.000  
C16  37335509.365   194415886.5301       -582.844          20.000  
C23  23233482.894   120982835.4111        981.278          23.000  
E01  23770950.214   124917185.890         645.647          30.000  
G10  20313507.052   106748213.193       -1753.898          29.000  
G23  22116911.581   116225225.4411      -3736.780          19.000  
G25  20927234.677   109973398.1041      -1719.632          24.000  
G31  21343967.179   112163152.337         284.144          22.000  
G32  21412807.322   112525092.8731        429.211          29.000  
J01  37652795.612   197866789.456         441.039          32.000  
J02  38143902.126   200447535.145       -1464.338          28.000  
R02  20127828.494   107405961.640        1583.655          20.000  
R12  19488861.942   104106003.331       -2551.241          29.000  
> 2021  9 12 11  2 54.9990792  0  8
C23  23233145.928   120981073.087         982.141          25.000  
E01  23770678.602   124915758.180         643.412          27.000  
G10  20313690.225   106749179.798       -1753.979          31.000  
G25  20927413.353   109974331.355       -1720.500          26.000  
G32  21412577.681   112523875.500         429.663          29.000  
J01  37652565.072   197865560.608         441.223          35.000  
J02  38144029.838   200448212.208       -1465.381          30.000  
R12  19489188.416   104107747.218       -2552.110          33.000  
> 2021  9 12 11  2 55.9990787  0  8
C06  36700019.805   191106767.8861       -625.502          17.000  
C23  23232808.361   120979310.811         980.499          24.000  
E01  23770406.090   124914326.470         646.150          28.000  
G10  20313873.698   106750147.925       -1756.745          26.000  
G32  21412342.943   112522658.057         429.848          30.000  
J01  37652329.135   197864332.238         440.594          32.000  
J02  38144157.849   200448889.301       -1464.102          31.000  
R12  19489515.189   104109492.037       -2552.885          29.000  
> 2021  9 12 11  2 56.9990784  0  9
C09  37725214.378   196444903.2501       -727.532          25.000  
C16  37335453.903   194415592.5631       -578.973          19.000  
E01  23770192.338   124913202.844         642.659          31.000  
G10  20314118.029   106751432.754       -1757.534          35.000  
G25  20927835.161   109976516.2121      -1724.296          23.000  
G31  21343402.070   112160252.3111        283.761          21.000  
G32  21412172.661   112521755.511         429.154          26.000  
J01  37652156.454   197863418.743         440.892          33.000  
R12  19489901.622   104111556.729       -2553.341          32.000  
> 2021  9 12 11  2 57.9990779  0 11
C06  36700018.006   191106765.6541       -621.989          14.000  
C08  38503932.182   200500120.1941      -2562.935          23.000  
C16  37335418.827   194415391.495        -580.884          20.000  
C25  22011526.737   114619701.4191      -1635.227          27.000  
G10  20314306.598   106752402.683       -1757.836          24.000  
G25  20928012.938   109977452.460       -1724.441          28.000  
G31  21343196.712   112159181.628         283.267          21.000  
G32  21411943.320   112520538.774         428.633          29.000  
J01  37651925.015   197862189.552         442.095          33.000  
J02  38144476.229   200450557.0381      -1463.543          30.000  
R12  19490226.897   104113294.437       -2553.919          34.000  
> 2021  9 12 11  2 58.9990776  0  6
C08  38504336.303   200502215.459       -2562.921          24.000  
G10  20314552.728   106753688.602       -1759.286          31.000  
G25  20928250.374   109978706.382       -1727.475          24.000  
G32  21411772.139   112519638.200         428.232          32.000  
J01  37651751.135                         442.334          33.000  
J02  38144664.498   200451548.613       -1464.372          24.000  
> 2021  9 12 11  2 59.9990771  0 12
C03  36477413.112   189947435.2591       -729.160          31.000  
C06  36700020.105   191106760.9351       -622.104          14.000  
C08  38504678.366   200503998.387       -2563.676          21.000  
C09  37725237.162   196445057.7641       -725.753          19.000  
C16  37335401.739   194415305.6951       -580.464          18.000  
C25  22011914.369   114621728.2251      -1640.301          20.000  
G10  20314737.100   106754660.659       -1760.102          29.000  
G25  20928426.952   109979644.718       -1725.598          22.000  
G31  21342843.857   112157360.2911        280.737          26.000  
G32  21411538.600   112518421.560         429.461          30.000  
J02  38144791.910   200452225.363       -1464.767          31.000  
R12  19490935.606   104117080.2761      -2556.675          28.000  
> 2021  9 12 11  3  0.9990766  0  9
C03  36477405.318   189947385.069        -731.043          33.000  
C06  36699991.025   191106602.206        -619.912          14.000  
C16  37335365.764   194415107.823        -584.155          17.000  
C25  22012081.353   114622587.317       -1639.341          25.000  
G10  20314923.571   106755633.176       -1760.334          32.000  
G25  20928602.030   109980583.146       -1726.283          25.000  
G31  21342638.799   112156291.545         281.613          25.000  
G32  21411305.961   112517204.568         428.755          30.000  
R12  19491262.080   104118823.849       -2556.372          36.000  
> 2021  9 12 11  3  1.9990761  0 10
C03  36477396.924   189947334.251        -729.327          31.000  
C06  36699959.247   191106438.649        -615.411          13.000  
C25  22012245.040   114623445.467       -1637.351          26.000  
G10  20315110.042   106756606.277       -1762.714          34.000  
G25  20928779.208   109981521.987       -1726.707          25.000  
G31  21342434.940   112155222.580         280.875          24.000  
G32  21411074.821   112515988.108         428.507          30.000  
J01  37651047.222   197857599.2001        441.066          29.000  
J02  38145057.226   200453578.6241      -1462.624          32.000  
R12  19491588.854   104120569.465       -2556.718          37.000  
> 2021  9 12 11  3  2.9990756  0 10
C08  38505709.652   200509346.9271      -2563.825          19.000  
C16  37335293.214   194414716.5831       -584.615          15.000  
C25  22012409.626   114624300.829       -1634.415          22.000  
G10  20315293.215   106757579.464       -1759.809          33.000  
G25  20928956.385   109982460.865       -1726.502          25.000  
G31  21342233.779   112154153.775         280.721          25.000  
G32  21410843.981   112514771.916         428.414          31.000  
J01  37650811.885   197856370.932         440.403          29.000  
J02  38145184.039   200454254.764       -1464.463          24.000  
R12  19491916.827   104122321.723       -2557.500          34.000  
> 2021  9 12 11  3  3.9990751  0 10
C08  38506054.713   200511130.053       -2564.807          19.000  
C16  37335254.541   194414519.986        -582.533          24.000  
C25  22012573.013   114625155.372       -1635.835          22.000  
G10  20315477.288   106758552.144       -1761.178          32.000  
G25  20929127.866   109983396.131       -1720.916          18.000  
G31  21342033.817   112153085.567         280.214          27.000  
G32  21410613.741   112513555.686         428.507          34.000  
J01  37650575.349   197855142.816         440.269          27.000  
J02  38145312.350   200454932.025       -1465.040          19.000  
R12  19492244.800   104124073.569       -2557.914          31.000  
> 2021  9 12 11  3  4.9990748  0  9
C03  36477426.003   189947490.1211       -727.101          30.000  
C16  37335274.627   194414633.148        -581.038          26.000  
C25  22012796.058   114626324.958       -1639.008          20.000  
G10  20315722.818   106759842.081       -1762.515          33.000  
G25  20929362.904   109984646.286       -1724.804          16.000  
G31  21341891.416   112152333.159         279.580          27.000  
J01  37650401.170   197854230.495         439.477          29.000  
J02  38145499.720   200455925.379       -1466.712          24.000  
R12  19492633.031   104126147.339       -2558.615          31.000  
> 2021  9 12 11  3  5.9990746  0  9
C08  38506891.734   200515478.8321      -2564.463          20.000  
C09  37725334.894   196445517.2201       -728.264          27.000  
C16  37335324.992   194414901.068        -579.844          26.000  
C25  22013049.383   114627652.048       -1639.371          25.000  
G10  20316001.625                       -1762.829          35.000  
G31  21341778.694   112151738.598         279.246          26.000  
J01  37650258.468   197853475.697         439.622          31.000  
J02  38145718.269   200457076.632       -1466.125          26.000  
R12  19493052.441   104128387.919       -2559.616          33.000  
> 2021  9 12 11  3  6.9990740  0  9
C08  38507205.916   200517105.804       -2562.057          20.000  
C09  37725298.919   196445308.597        -727.149          25.000  
C16  37335255.740   194414543.683        -579.286          26.000  
C25  22013185.189   114628355.168       -1641.598          27.000  
G10  20316155.718   106762127.8311      -1765.277          35.000  
G31  21341547.554   112150514.198         279.686          23.000  
J01  37649996.750   197852090.762         440.185          31.000  
J02  38145818.100   200457596.860       -1464.459          27.000  
R12  19493350.434   104129979.763       -2560.327          32.000  
> 2021  9 12 11  3  7.9990735  0 10
C06  36699891.194   191106041.3481       -613.210          14.000  
C09  37725291.724   196445255.115        -727.207          24.000  
C16  37335216.467   194414342.521        -580.138          25.000  
C25  22013350.974   114629215.532       -1640.839          27.000  
G10  20316342.789   106763104.714       -1764.485          32.000  
G31  21341346.993   112149446.597         280.103          21.000  
G32  21409821.689   112509320.2331        429.611          29.000  
J01  37649764.111   197850862.123         440.983          31.000  
J02  38145946.711   200458273.573       -1464.748          27.000  
R12  19493679.007   104131734.501       -2561.022          31.000  
> 2021  9 12 11  3  8.9990730  0 11
C06  36699857.917   191105873.727        -613.036          13.000  
C08  38507891.541   200520670.6781      -2565.536          20.000  
C09  37725285.428   196445202.552        -728.244          27.000  
C16  37335176.295   194414142.496        -580.183          25.000  
C25  22013518.858   114630075.998       -1641.568          27.000  
G10  20316529.559   106764082.479       -1764.811          34.000  
G31  21341144.933   112148379.480         278.513          21.000  
G32  21409589.650   112508103.296         428.568          31.000  
J01  37649530.872   197849633.511         440.695          30.000  
J02  38146075.621   200458949.994       -1464.734          25.000  
R12  19494010.877   104133507.865       -2561.553          27.000  
> 2021  9 12 11  3  9.9990725  0 11
C09  37725277.334   196445418.431        -727.906          27.000  
C16  37335136.423   194413941.655        -580.511          27.000  
C23  23228310.875   120955949.2171        974.667          30.000  
C25  22013684.044   114630936.128       -1640.824          26.000  
C33  22477301.088   117045187.9011      -1717.416          22.000  
G10  20316719.628   106765060.345       -1762.754          34.000  
G25  20930333.332   109989669.4741      -1732.579          18.000  
G32  21409358.210   112506887.435         427.825          32.000  
J01  37649297.034   197848405.131         440.177          29.000  
J02  38146205.731   200459627.365       -1465.542          26.000  
R12  19494340.649   104135268.979       -2562.030          27.000  
> 2021  9 12 11  3 10.9990720  0 10
C09  37725265.042   196445366.994        -729.098          22.000  
C23  23227974.208   120954194.399         973.792          28.000  
C25  22013850.129   114631796.552       -1640.815          26.000  
C33  22477481.563   117046124.605       -1717.160          25.000  
G10  20316903.101   106766038.785       -1767.786          35.000  
G31  21340730.620   112146250.1391        276.146          25.000  
G32  21409125.871   112505671.889         427.409          33.000  
J01  37649061.697   197847177.901         438.668          29.000  
J02  38146336.441   200460305.352       -1465.544          31.000  
R12  19494672.519   104137042.400       -2562.701          31.000  
> 2021  9 12 11  3 11.9990717  0  9
C16  37335112.739   194413856.5121       -582.520          20.000  
C23  23227695.701   120952753.162         972.779          24.000  
C25  22014076.172   114632969.933       -1642.262          28.000  
G10  20317144.434   106767333.527       -1766.845          33.000  
G31  21340585.820   112145501.124         276.444          26.000  
G32  21408954.389   112504772.005         426.896          29.000  
J01  37648888.117   197846265.860         439.705          33.000  
J02  38146524.411   200461298.409       -1465.813          32.000  
R12  19495063.748   104139132.057       -2563.607          34.000  
> 2021  9 12 11  3 12.9990712  0  8
C08  38509321.851   200528118.5351      -2563.539          21.000  
C16  37335072.267   194413659.642        -584.594          20.000  
C23  23227356.935   120950999.983         972.110          19.000  
C25  22014243.157   114633831.215       -1642.957          28.000  
G10  20317335.401   106768313.922       -1769.114          34.000  
G32  21408717.553   112503557.538         426.695          20.000  
J01  37648654.879   197845037.926         440.411          33.000  
R12  19495393.520   104140893.331       -2564.463          31.000  
> 2021  9 12 11  3 13.9990710  0 12
C09  37725364.873   196445988.2001       -726.177          25.000  
C16  37335123.232   194413932.719        -587.349          19.000  
C23  23227109.906   120949716.189         971.006          22.000  
C25  22014499.779   114635161.807       -1642.765          27.000  
C33  22478176.182   117049714.3061      -1717.622          16.000  
G10  20317615.408   106769767.407       -1768.033          35.000  
G25  20931200.032   109994238.7441      -1733.995          15.000  
G31  21340271.038   112143846.2321        275.346          22.000  
G32  21408576.351   112502815.440         426.770          24.000  
J01  37648513.676   197844282.071         441.261          33.000  
J02  38146875.468                       -1467.845          31.000  
R12  19495814.429   104143141.668       -2565.046          31.000  
> 2021  9 12 11  3 14.9990705  0 12
C08  38510095.316   200532153.3921      -2566.173          21.000  
C09  37725350.783   196445935.115        -728.084          25.000  
C23  23226771.441   120947963.796         972.057          24.000  
C25  22014664.965   114636024.232       -1642.487          26.000  
C33  22478355.758   117050653.462       -1723.186          16.000  
G10  20317800.080   106770748.870       -1767.719          32.000  
G25  20931379.607   109995185.370       -1734.508          16.000  
G31  21340067.179   112142782.995         275.165          23.000  
G32  21408337.117   112501601.279         426.302          21.000  
J01  37648276.241                         442.294          31.000  
J02  38147006.177   200463860.3251      -1466.076          32.000  
R12  19496144.200   104144902.993       -2565.414          32.000  
> 2021  9 12 11  3 15.9990700  0 12
C09  37725339.391   196445882.821        -728.013          24.000  
C16  37335047.385   194413541.9711       -583.323          20.000  
C23  23226432.076   120946210.396         974.222          21.000  
C25  22014830.750   114636886.499       -1643.256          27.000  
C33  22478534.135   117051596.778       -1724.942          17.000  
E01  23765364.780   124887834.3161        634.145          29.000  
G10  20317985.951   106771731.233       -1767.660          35.000  
G31  21339869.616   112141720.708         273.638          22.000  
G32  21408101.780   112500387.007         426.961          27.000  
J01  37648043.002   197841798.7341        441.131          34.000  
J02  38147136.887   200464538.180       -1464.759          34.000  
R12  19496473.972   104146664.857       -2566.228          33.000  
> 2021  9 12 11  3 16.9990694  0 10
C09  37725300.718   196445674.197        -728.327          28.000  
C16  37334979.931   194413187.764        -582.097          21.000  
C23  23226063.631   120944299.484         973.048          21.000  
C25  22014967.155   114637592.655       -1642.194          28.000  
C33  22478683.431   117052384.903       -1724.160          18.000  
E01  23765065.288   124886260.064         635.937          30.000  
G10  20318139.445   106772554.263       -1769.267          31.000  
G32  21407840.960   112499014.671         427.102          25.000  
J01  37647779.185   197840412.783         441.129          37.000  
J02  38147236.418   200465058.663       -1463.599          33.000  
> 2021  9 12 11  3 17.9990689  0  6
C16  37334939.759   194412987.771        -580.459          21.000  
C25  22015134.739   114638455.043       -1644.013          27.000  
G10  20318331.612   106773537.537       -1771.749          33.000  
J01  37647544.747   197839184.076         440.521          31.000  
J02  38147357.234   200465736.146       -1463.971          29.000  
R12  19497111.331   104150069.4031      -2567.282          30.000  
> 2021  9 12 11  3 18.9990687  0  8
C25  22015390.762   114639786.281       -1642.922          24.000  
G10  20318609.220                       -1773.022          36.000  
G25  20932153.971   109999290.0851      -1735.868          18.000  
G31  21339338.383   112138858.5101        273.615          15.000  
G32  21407471.916   112497056.6111        427.441          30.000  
J01  37647405.044   197838428.113         440.657          31.000  
J02  38147576.083   200466885.568       -1464.807          27.000  
R12  19497528.642   104152298.622       -2567.958          28.000  
> 2021  9 12 11  3 19.9990682  0 10
C16  37334949.952   194413053.9131       -576.143          19.000  
C25  22015559.245   114640649.222       -1643.440          22.000  
C33  22479304.002   117055672.3431      -1718.389          19.000  
G10  20318795.091   106775995.7981      -1771.693          34.000  
G23  22132008.829   116304464.5691      -3750.365          20.000  
G31  21339137.223   112137795.006         279.485          14.000  
G32  21407241.375   112495841.900         426.762          28.000  
J01  37647167.608   197837199.409         440.966          31.000  
J02  38147703.195   200467563.323       -1466.083          30.000  
R12  19497858.713   104154061.891       -2568.538          27.000  
> 2021  9 12 11  3 20.9990679  0  8
C03  36477583.694   189948316.0961       -729.092          28.000  
C25  22015782.891   114641824.771       -1644.469          28.000  
G10  20319043.619   106777296.861       -1773.766          34.000  
G32  21407070.493   112494943.553         424.921          29.000  
J01  37646998.525   197836286.672         440.034          33.000  
J02  38147890.865   200468557.056       -1467.813          28.000  
R02  20116286.485   107344458.6901       1574.685          30.000  
R12  19498249.942   104156151.525       -2569.940          30.000  
> 2021  9 12 11  3 21.9990674  0  9
C09  37725393.354   196446188.3391       -725.931          23.000  
C23  23224546.981   120936327.8361        968.676          24.000  
C25  22015946.877   114642688.864       -1644.841          25.000  
E01  23763854.726   124879899.2241        633.036          29.000  
G10  20319229.190   106778284.165       -1775.874          37.000  
G32  21406840.852   112493732.200         422.818          28.000  
J01  37646765.886   197835059.855         439.042          25.000  
R02  20115841.593   107342084.681        1573.249          28.000  
R12  19498585.710   104157945.956       -2571.847          29.000  
> 2021  9 12 11  3 22.9990669  0  6
C09  37725384.660   196446133.839        -726.948          23.000  
C25  22016113.262   114643553.368       -1646.397          25.000  
G23  22133755.420   116313672.9851      -3751.753          20.000  
G32  21406611.511   112492521.369         423.587          25.000  
R02  20115398.200   107339713.500        1570.693          29.000  
R12  19498922.677   104159745.529       -2574.299          28.000  
> 2021  9 12 11  3 23.9990664  0  9
C09  37725374.467   196446080.129        -726.517          23.000  
C16  37334854.618   194412558.3911       -582.019          19.000  
C23  23223872.148   120932826.5261        968.719          30.000  
C33  22480087.060   117059755.0051      -1724.215          18.000  
G10  20319599.134   106780262.6711      -1777.028          23.000  
G25  20933127.697   110004348.9451      -1736.928          17.000  
G32  21406380.371   112491309.283         425.163          26.000  
R02  20114958.704   107337343.924        1569.601          26.000  
R12  19499262.042   104161558.797       -2573.858          24.000  
> 2021  9 12 11  3 24.9990659  0  8
C09  37725363.374   196446027.212        -728.607          21.000  
C23  23223536.081   120931077.647         967.296          34.000  
C25  22016444.832   114645288.0791      -1647.864          21.000  
G10  20319787.704   106781252.545       -1778.306          23.000  
G25  20933309.671   110005294.481       -1732.738          17.000  
G32  21406147.133   112490095.291         425.410          23.000  
R02  20114521.606   107334973.868        1567.855          20.000  
R12  19499592.713   104163324.250       -2576.890          20.000  
> 2021  9 12 11  3 25.9990656  0  3
C09  37725412.840   196446284.967        -725.350          19.000  
C23  23223260.271   120929642.659         966.015          26.000  
C33  22480508.568   117061950.3651      -1719.013          16.000  
> 2021  9 12 11  3 26.9990651  0  8
C09  37725402.947   196446229.611        -723.464          20.000  
C23  23222924.804   120927895.960         966.022          26.000  
C25  22016836.961   114647336.3831      -1648.273          19.000  
G10  20320227.799   106783551.3681      -1778.974          22.000  
G31  21337843.918   112131001.7431        265.404          18.000  
G32  21405748.409   112487986.2901        424.115          21.000  
R02  20113698.077   107330554.5491       1571.339          16.000  
R12  19500332.301   104167275.7811      -2574.135          16.000  
> 2021  9 12 11  3 27.9990646  0  6
C09  37725392.154   196446172.139        -723.532          21.000  
C23  23222588.736   120926149.689         966.117          20.000  
G10  20320414.270   106784542.119       -1778.759          20.000  
G25  20933922.447   110008458.8481      -1748.553          12.000  
R02  20113254.983   107328184.196        1570.286          16.000  
R12  19500656.077   104169004.548       -2576.335          17.000  
> 2021  9 12 11  3 28.9990643  0  5
C09  37725441.620   196446426.793        -722.720          21.000  
C23  23222313.827   120924715.126         965.703          18.000  
C25  22017223.993   114649379.5781      -1644.789          18.000  
G25  20934169.476   110009736.657       -1757.639          11.000  
G32  21405346.987   112485882.2221        419.581          22.000  
> 2021  9 12 11  3 29.9990638  0  4
C23  23221979.558   120922969.154         963.269          18.000  
C25  22017387.080   114650243.940       -1647.370          18.000  
G10  20320852.267   106786842.4201      -1781.286          23.000  
G25  20934358.045   110010710.136       -1765.761          11.000  
> 2021  9 12 11  3 30.9990633  0  7
C09  37725413.140   196446309.8811       -721.200          28.000  
C25  22017551.067   114651109.685       -1644.441          17.000  
G10  20321041.736   106787836.135       -1782.220          25.000  
G25  20934544.217   110011689.824       -1770.088          11.000  
G31  21337096.236   112127093.4561        272.499          17.000  
R02  20111985.362   107321404.3141       1565.755          16.000  
R12  19501716.143   104174668.1381      -2575.279          17.000  
> 2021  9 12 11  3 31.9990628  0  4
C25  22017715.053   114651974.349       -1645.985          18.000  
G10  20321231.204   106788830.725       -1782.710          29.000  
G25  20934732.186   110012672.403       -1770.437          10.000  
R12  19502055.208   104176478.681       -2577.400          17.000  
> 2021  9 12 11  3 32.9990625  0  7
C09  37725449.715   196446504.5721       -721.834          20.000  
C23  23221038.210   120918046.7551        962.483          18.000  
C25  22017938.398   114653152.455       -1646.873          24.000  
G10  20321481.531   106790140.830       -1782.957          33.000  
G31  21336750.575   112125296.0581        265.880          16.000  
G32  21404483.584   112481353.8881        426.926          17.000  
R12  19502443.140   104178551.436       -2580.768          17.000  
> 2021  9 12 11  3 33.9990620  0  5
C09  37725437.123   196446446.592        -722.838          26.000  
G10  20321671.599   106791136.628       -1784.477          36.000  
G32  21404252.744   112480140.385         424.541          18.000  
R02  20110716.641   107314611.0771       1569.627          18.000  
R12  19502772.911   104180313.085       -2579.377          18.000  
> 2021  9 12 11  3 34.9990615  0  6
C09  37725426.031   196446388.776        -722.499          24.000  
G10  20321860.469   106792133.625       -1784.842          32.000  
G31  21336342.258   112123189.8671        265.519          16.000  
G32  21404027.300   112478928.967         422.659          19.000  
R02  20110271.749   107312243.175        1565.495          18.000  
R12  19503104.182   104182082.712       -2581.275          19.000  
> 2021  9 12 11  3 35.9990610  0  3
C09  37725415.238   196446330.645        -722.946          22.000  
G10  20322050.237   106793130.332       -1785.787          35.000  
R02  20109828.356   107309877.277        1566.637          19.000  
> 2021  9 12 11  3 36.9990607  0  5
C09  37725464.404   196446586.464        -724.319          25.000  
G10  20322302.962                       -1787.844          36.000  
G32  21403634.272   112476824.0341        422.215          25.000  
R02  20109443.422   107307829.648        1568.955          19.000  
R12  19503817.388   104185892.3011      -2580.847          20.000  
> 2021  9 12 11  3 37.9990602  0  5
C09  37725453.312   196446530.467        -724.695          26.000  
E01  23759779.347   124858482.2001        622.789          34.000  
G10  20322493.930   106795417.9421      -1782.918          35.000  
G32  21403404.931   112475613.892         423.764          24.000  
R02  20108993.434   107305458.096        1573.226          20.000  
> 2021  9 12 11  3 38.9990597  0  5
E01  23759513.431   124857085.490         626.418          34.000  
G10  20322681.600   106796417.934       -1788.639          35.000  
G32  21403176.789   112474402.745         423.391          23.000  
R02  20108552.139   107303085.477        1572.492          19.000  
R12  19504482.927   104189447.1021      -2583.956          19.000  
> 2021  9 12 11  3 39.9990592  0  4
C07  37854051.086   197115977.4541        676.124          27.000  
C09  37725435.025   196446420.4341       -724.954          25.000  
E01  23759245.117   124855675.780         623.429          31.000  
G32  21402947.148   112473191.814         422.771          25.000  
> 2021  9 12 11  3 40.9990589  0  7
C07  37853831.937   197114833.137         675.906          27.000  
C09  37725486.889   196446677.140        -726.006          27.000  
E01  23759037.061   124854582.154         623.099          31.000  
G10  20323125.893   106798732.2421      -1786.088          32.000  
G32  21402778.365   112472296.533         421.927          24.000  
R02  20107716.318   107298670.9481       1564.655          20.000  
R12  19505219.218   104193380.5821      -2586.310          18.000  
> 2021  9 12 11  3 41.9990584  0  3
C07  37853552.531   197113376.918         676.091          25.000  
G10  20323316.561   106799731.586       -1787.949          30.000  
G32  21402546.325   112471086.637         422.383          26.000  
> 2021  9 12 11  3 42.9990579  0  4
C07  37853273.124   197111920.814         676.046          24.000  
G10  20323504.531   106800732.863       -1790.194          30.000  
G32  21402312.787   112469875.092         423.345          25.000  
R12  19505878.162   104196900.7771      -2587.089          19.000  
> 2021  9 12 11  3 43.9990574  0  4
C07  37852994.617   197110465.066         674.433          24.000  
C09  37725472.499   196446516.8781       -729.348          27.000  
G10  20323693.700   106801735.746       -1790.382          29.000  
G32  21402084.645   112468665.077         421.856          21.000  
> 2021  9 12 11  3 44.9990572  0  4
C07  37852804.249   197109478.105         675.136          24.000  
C09  37725554.042   196446932.927        -726.956          26.000  
G10  20323974.006   106803211.856       -1792.145          25.000  
G32  21401949.139   112467929.818         418.893          25.000  
> 2021  9 12 11  3 45.9990566  0  2
C07  37852494.563   197107867.570         673.436          27.000  
G10  20324131.397   106804059.597       -1792.895          22.000  
> 2021  9 12 11  3 46.9990561  0  1
C07  37852215.457   197106413.257         674.391          27.000  
> 2021  9 12 11  3 47.9990556  0  3
C07  37851936.050   197104958.283         674.834          23.000  
C09  37725479.694   196446602.5121       -719.718          28.000  
G10  20324520.227   106806068.8101      -1790.655          21.000  
> 2021  9 12 11  3 48.9990554  0  4
C07  37851746.881   197103970.439         676.120          24.000  
G10  20324800.833   106807545.358       -1792.643          25.000  
G32  21401065.950   112463400.6011        423.534          19.000  
R12  19508033.669   104208414.6171      -2583.232          16.000  
> 2021  9 12 11  3 49.9990548  0  2
G10  20324961.822   106808394.290       -1795.150          25.000  
G32  21400807.229   112462032.110         421.407          19.000  
> 2021  9 12 11  3 50.9990543  0  3
C07  37851158.988   197100898.9461        676.527          22.000  
C09  37725519.566   196446740.3041       -724.473          22.000  
G10  20325158.785   106809402.013       -1795.986          23.000  
> 2021  9 12 11  3 51.9990541  0  3
C07  37850970.119   197099910.871         675.531          20.000  
G10  20325440.590   106810882.333       -1796.149          22.000  
G32  21400428.292   112460083.7881        423.198          20.000  
> 2021  9 12 11  3 52.9990536  0  2
G10  20325632.158   106811889.581       -1794.645          23.000  
G32  21400197.452   112458872.745         422.113          20.000  
> 2021  9 12 11  3 53.9990531  0  3
C07  37850407.708   197096999.5851        675.799          19.000  
G10  20325822.226   106812896.919       -1796.299          24.000  
G31  21332876.957   112104943.0101        262.622          15.000  
> 2021  9 12 11  3 54.9990525  0  2
G31  21332645.817   112103737.147         258.525          16.000  
R12  19510058.168   104219229.6131      -2592.383          16.000  
> 2021  9 12 11  3 55.9990523  0  2
C07  37849905.855   197094398.4051        674.297          19.000  
G32  21399550.200   112455551.7221        425.763          19.000  
> 2021  9 12 11  3 56.9990518  0  2
C07  37849625.849   197092944.001         674.195          20.000  
G10  20326461.683   106816244.3581      -1800.877          22.000  
> 2021  9 12 11  3 57.9990513  0  0
> 2021  9 12 11  3 58.9990508  0  1
G10  20326844.219   106818268.6831      -1801.788          22.000  
> 2021  9 12 11  3 59.9990505  0  2
G10  20327097.843   106819597.474       -1801.040          24.000  
G31  21331801.001   112099317.8441        250.785          17.000  
> 2021  9 12 11  4  0.9990500  0  3
G10  20327291.209   106820611.015       -1802.305          21.000  
G31  21331604.338   112098279.268         251.080          17.000  
G32  21398443.066   112449815.4841        421.917          20.000  
> 2021  9 12 11  4  1.9990495  0  3
G10  20327484.875   106821626.406       -1803.079          24.000  
G31  21331402.577   112097240.074         252.321          18.000  
G32  21398211.327   112448605.553         422.238          20.000  
> 2021  9 12 11  4  2.9990492  0  0
> 2021  9 12 11  4  3.9990487  0  2
G10  20327934.864   106823971.7571      -1802.642          24.000  
G31  21331054.518   112095466.6521        258.248          23.000  
> 2021  9 12 11  4  4.9990482  0  2
G10  20328127.630   106824986.265       -1801.544          24.000  
G31  21330847.661   112094420.229         258.815          24.000  
> 2021  9 12 11  4  5.9990477  0  2
G10  20328322.195   106825999.491       -1802.483          22.000  
G31  21330642.903   112093374.148         257.579          26.000  
> 2021  9 12 11  4  6.9990472  0  2
G10  20328514.962   106827015.319       -1805.490          23.000  
G32  21397122.480   112442866.1231        423.482          18.000  
> 2021  9 12 11  4  7.9990469  0  3
G10  20328769.486   106828347.917       -1806.459          24.000  
G31  21330296.943   112091600.8671        255.818          31.000  
G32  21396948.001   112441971.014         422.160          18.000  
> 2021  9 12 11  4  8.9990464  0  3
G10  20328963.152   106829366.921       -1806.901          25.000  
G31  21330098.180   112090556.898         256.393          31.000  
G32  21396714.163   112440491.408         419.990          19.000  
> 2021  9 12 11  4  9.9990461  0  2
G10  20329213.478   106830701.254       -1807.826          25.000  
G31  21329959.976   112089828.861         254.811          31.000  
> 2021  9 12 11  4 10.9990456  0  2
G10  20329407.444   106831720.066       -1806.326          25.000  
G31  21329762.713   112088786.463         253.940          28.000  
> 2021  9 12 11  4 11.9990451  0  2
G10  20329601.410   106832739.597       -1807.792          27.000  
G31  21329566.648   112087745.942         252.144          30.000  
> 2021  9 12 11  4 12.9990446  0  3
G10  20329795.076   106833760.240       -1808.628          25.000  
G31  21329370.884   112086706.765         251.800          27.000  
G32  21395859.155   112435975.7641        420.557          21.000  
> 2021  9 12 11  4 13.9990441  0  2
G10  20329990.540   106834780.425       -1807.712          24.000  
G31  21329173.920   112085667.225         252.410          28.000  
> 2021  9 12 11  4 14.9990436  0  2
G10  20330183.007   106835801.828       -1811.253          24.000  
G31  21328976.357   112084627.227         251.255          30.000  
> 2021  9 12 11  4 15.9990436  0  3
G10  20330526.569   106837613.120       -1809.925          23.000  
G31  21328929.290   112084375.571         251.323          29.000  
G32  21395329.122   112433140.1711        419.016          20.000  
> 2021  9 12 11  4 16.9990431  0  2
G10  20330720.835   106838635.032       -1809.774          24.000  
G31  21328732.026   112083336.329         251.505          30.000  
> 2021  9 12 11  4 17.9990426  0  3
G10  20330913.901   106839658.023       -1811.716          23.000  
G31  21328534.463   112082297.036         251.452          29.000  
G32  21394855.150   112430721.2821        422.294          20.000  
> 2021  9 12 11  4 18.9990420  0  3
G10  20331076.389   106840523.586       -1810.640          22.000  
G31  21328304.822   112081100.228         251.946          29.000  
G32  21394586.536   112429352.655         424.205          25.000  
> 2021  9 12 11  4 19.9990415  0  3
G10  20331278.449   106841547.626       -1813.579          24.000  
G31  21328105.760   112080061.607         250.254          27.000  
G32  21394350.899   112428140.559         424.745          25.000  
> 2021  9 12 11  4 20.9990410  0  4
G10  20331473.913   106842574.144       -1814.566          19.000  
G31  21327907.297   112079024.195         248.520          31.000  
G32  21394114.363   112426927.365         425.898          21.000  
R12  19519235.115   104268250.9031      -2604.273          31.000  
> 2021  9 12 11  4 21.9990405  0  3
C23  23205447.803   120836804.8621        945.599          32.000  
G31  21327710.333   112077988.203         248.131          29.000  
R12  19519570.882   104270044.712       -2605.017          31.000  
> 2021  9 12 11  4 22.9990403  0  4
C23  23205206.770   120835547.438         945.284          27.000  
G10  20331957.779   106845101.2261      -1813.928          20.000  
G31  21327603.307   112077425.935         246.849          29.000  
G32  21393736.924   112424980.8911        419.667          22.000  
> 2021  9 12 11  4 23.9990400  0  4
C23  23204936.057   120834132.943         947.425          27.000  
G10  20332217.699   106846441.598       -1810.862          19.000  
G31  21327465.403   112076705.491         248.302          25.000  
G32  21393567.242   112424089.336         419.428          25.000  
> 2021  9 12 11  4 24.9990395  0  3
C23  23204602.688   120832405.012         947.939          25.000  
G10  20332412.264   106847464.858       -1812.626          20.000  
G31  21327267.540   112075668.955         249.646          26.000  
> 2021  9 12 11  4 25.9990390  0  4
C23  23204271.717   120830676.058         948.075          28.000  
G10  20332608.328   106848491.144       -1814.815          21.000  
G31  21327071.176   112074632.298         249.025          28.000  
G32  21393104.962   112421672.0031        420.747          23.000  
> 2021  9 12 11  4 26.9990385  0  4
C23  23203938.947   120828948.402         946.472          28.000  
G10  20332803.193   106849520.837       -1819.506          20.000  
G31  21326875.112   112073595.719         249.259          27.000  
G32  21392877.119   112420464.274         419.093          24.000  
> 2021  9 12 11  4 27.9990382  0  4
C23  23203666.736   120827534.349         944.344          28.000  
G10  20333059.516   106850867.924       -1819.096          25.000  
G31  21326737.507   112072874.776         245.574          24.000  
G32  21392707.737   112419572.445         419.765          27.000  
> 2021  9 12 11  4 28.9990377  0  4
C23  23203330.668   120825809.193         945.459          27.000  
G10  20333254.381   106851898.267       -1817.805          24.000  
G31  21326541.143   112071840.797         246.628          22.000  
G32  21392477.796   112418365.226         419.469          26.000  
> 2021  9 12 11  4 29.9990372  0  2
C23  23202996.400   120824084.252         943.570          27.000  
G32  21392247.555   112417158.841         417.802          31.000  
> 2021  9 12 11  4 30.9990367  0  2
G10  20333640.214   106853957.2121      -1818.684          28.000  
G32  21392017.315   112415952.681         418.373          30.000  
> 2021  9 12 11  4 31.9990364  0  3
G10  20333895.637   106855304.369       -1820.997          31.000  
G31  21326012.908   112069060.5711        244.212          19.000  
G32  21391846.733   112415061.991         417.309          33.000  
> 2021  9 12 11  4 32.9990359  0  2
C23  23202068.842   120819224.1121        943.962          30.000  
G32  21391617.092   112413856.640         419.025          33.000  
> 2021  9 12 11  4 33.9990356  0  4
C23  23201797.830   120817811.586         944.260          30.000  
G10  20334344.426   106857685.5181      -1820.007          35.000  
G31  21325685.235   112067318.3701        239.156          20.000  
G32  21391449.208   112412964.890         418.546          32.000  
> 2021  9 12 11  4 34.9990351  0  3
C23  23201467.159   120816086.717         943.820          29.000  
G10  20334538.092   106858717.853       -1820.609          33.000  
G32  21391221.965   112411759.061         417.863          30.000  
> 2021  9 12 11  4 35.9990346  0  4
C23  23201137.087   120814362.420         942.733          25.000  
G10  20334733.557   106859749.915       -1819.538          33.000  
G31  21325294.606   112065259.9731        241.393          20.000  
G32  21390993.823   112410553.971         417.122          31.000  
> 2021  9 12 11  4 36.9990341  0  3
C23  23200808.514   120812640.380         939.793          25.000  
G10  20334929.321   106860782.841       -1822.430          30.000  
G32  21390765.681   112409349.735         416.310          35.000  
> 2021  9 12 11  4 37.9990336  0  4
C23  23200477.843   120810922.142         938.217          22.000  
E01  23744812.209   124779830.0281        602.342          33.000  
G10  20335126.285   106861817.907       -1823.502          32.000  
G32  21390538.438   112408145.104         417.596          25.000  
> 2021  9 12 11  4 38.9990331  0  4
C23  23200149.571   120809203.672         936.757          20.000  
E01  23744545.993   124778431.318         601.117          32.000  
G10  20335325.047   106862853.818       -1825.508          32.000  
G32  21390308.498   112406940.157         417.511          28.000  
> 2021  9 12 11  4 39.9990328  0  3
E01  23744342.134   124777359.692         600.641          35.000  
G10  20335581.670   106864206.360       -1825.473          34.000  
G32  21390137.316   112406050.070         417.408          25.000  
> 2021  9 12 11  4 40.9990326  0  4
E01  23744168.554   124776447.608         602.757          34.000  
G10  20335867.072   106865716.921       -1824.825          33.000  
G31  21324471.376   112060900.0351        238.574          18.000  
G32  21389995.814   112405316.666         420.219          25.000  
> 2021  9 12 11  4 41.9990321  0  3
E01  23743905.336   124775063.898         598.368          34.000  
G10  20336063.436   106866752.674       -1823.803          31.000  
G32  21389763.175   112404108.096         421.254          23.000  
> 2021  9 12 11  4 42.9990316  0  2
E01  23743640.919   124773674.188         600.770          31.000  
G10  20336263.098   106867790.362       -1826.256          32.000  
> 2021  9 12 11  4 43.9990310  0  3
E01  23743348.322   124772136.936         599.645          34.000  
G10  20336434.280                       -1827.025          34.000  
G31  21323868.493   112057662.6731        236.957          19.000  
> 2021  9 12 11  4 44.9990305  0  2
E01  23743086.004   124770758.226         597.233          34.000  
G10  20336631.243   106869723.4461      -1828.029          34.000  
> 2021  9 12 11  4 45.9990300  0  3
E01  23742822.486   124769373.516         597.793          34.000  
G10  20336826.708   106870763.616       -1828.416          33.000  
G32  21388802.340   112399114.9701        421.649          20.000  
> 2021  9 12 11  4 46.9990298  0  2
E01  23742648.606   124768460.432         595.617          34.000  
G10  20337114.209   106872277.300       -1829.464          34.000  
> 2021  9 12 11  4 47.9990292  0  3
E01  23742355.409   124766919.180         597.558          33.000  
G10  20337281.193   106873161.500       -1829.192          33.000  
G32  21388400.918   112397009.7791        420.286          18.000  
> 2021  9 12 11  4 48.9990290  0  2
E01  23742180.930   124766002.096         598.454          34.000  
G31  21323035.969   112053314.7291        240.118          18.000  
> 2021  9 12 11  4 49.9990285  0  2
E01  23741918.012   124764620.386         595.676          34.000  
G32  21388027.677   112395070.3561        416.184          19.000  
> 2021  9 12 11  4 50.9990280  0  4
E01  23741654.195   124763234.676         596.933          33.000  
G10  20337971.915   106876761.1381      -1832.435          33.000  
G31  21322645.640   112051254.9041        242.119          19.000  
G32  21387798.036   112393865.618         416.784          20.000  
> 2021  9 12 11  4 51.9990275  0  2
G31  21322450.475   112050224.588         241.802          19.000  
G32  21387566.596   112392661.513         416.506          20.000  
> 2021  9 12 11  4 52.9990269  0  2
E01  23741100.478   124760324.7141        592.396          24.000  
G32  21387307.575   112391299.817         416.134          20.000  
> 2021  9 12 11  4 53.9990264  0  1
G10  20338538.523   106879735.7801      -1833.890          23.000  
> 2021  9 12 11  4 54.9990262  0  3
G10  20338829.321   106881256.438       -1836.978          23.000  
G31  21321925.238   112047455.5941        239.615          19.000  
G32  21386934.933   112389100.7841        416.283          20.000  
> 2021  9 12 11  4 55.9990259  0  1
G32  21386765.850   112388212.321         415.929          19.000  
> 2021  9 12 11  4 56.9990254  0  1
G10  20339287.105   106883664.5011      -1835.148          18.000  
> 2021  9 12 11  4 57.9990249  0  2
C10  38524100.720   200605101.1641        564.612          29.000  
G31  21321398.503   112044686.4061        240.609          17.000  
> 2021  9 12 11  4 58.9990244  0  3
C10  38523844.697   200603756.070         563.778          28.000  
G10  20339687.327   106885764.1861      -1838.539          22.000  
G32  21386077.527   112384594.9061        421.668          18.000  
> 2021  9 12 11  4 59.9990239  0  4
C10  38523586.876   200602410.118         565.169          26.000  
G10  20339885.190   106886815.165       -1839.375          24.000  
G31  21321011.471   112042638.1331        236.344          15.000  
G32  21385844.888   112383384.386         421.450          19.000  
> 2021  9 12 11  5  0.9990234  0  2
C10  38523330.253   200601065.275         564.287          27.000  
G10  20340087.550   106887867.064       -1840.206          22.000  
> 2021  9 12 11  5  1.9990228  0  4
C10  38523042.153   200599564.267         563.409          29.000  
G10  20340256.933   106888761.481       -1839.513          22.000  
G31  21320588.164   112040431.4791        234.320          15.000  
G32  21385355.327   112380812.6651        418.039          19.000  
> 2021  9 12 11  5  2.9990228  0  3
C10  38522933.028   200599000.317         564.265          29.000  
G10  20340606.791   106890600.382       -1838.712          24.000  
G32  21385274.083   112380394.601         420.231          19.000  
> 2021  9 12 11  5  3.9990223  0  2
C10  38522675.507   200597656.359         562.914          30.000  
G10  20340807.052   106891651.406       -1839.377          24.000  
> 2021  9 12 11  5  4.9990218  0  3
C10  38522417.685   200596313.134         563.482          29.000  
G10  20341005.515   106892703.554       -1839.968          25.000  
G32  21384810.604   112377982.7391        417.554          19.000  
> 2021  9 12 11  5  5.9990213  0  2
C10  38522158.964   200594968.582         564.743          27.000  
G10  20341203.378   106893756.102       -1840.566          25.000  
> 2021  9 12 11  5  6.9990208  0  2
C10  38521899.944   200593622.880         565.490          28.000  
G10  20341407.537   106894810.676       -1842.438          23.000  
> 2021  9 12 11  5  7.9990203  0  2
C10  38521642.122   200592277.500         564.122          30.000  
G10  20341610.496   106895865.234       -1840.768          22.000  
> 2021  9 12 11  5  8.9990198  0  2
C10  38521384.001   200590932.211         564.882          31.000  
G31  21319390.793   112034097.1001        230.188          15.000  
> 2021  9 12 11  5  9.9990195  0  2
C10  38521185.238   200589899.121         562.908          30.000  
G10  20342067.979   106898281.9571      -1840.294          21.000  
> 2021  9 12 11  5 10.9990193  0  3
C10  38521017.055   200589023.679         563.304          25.000  
G10  20342356.680   106899808.867       -1844.088          22.000  
G32  21383584.453   112371538.2411        420.093          20.000  
> 2021  9 12 11  5 11.9990188  0  2
C10  38520759.533   200587679.505         563.385          26.000  
G10  20342558.440   106900866.638       -1846.663          25.000  
> 2021  9 12 11  5 12.9990182  0  3
C10  38520470.833   200586179.235         563.638          27.000  
G10  20342734.718   106901769.188       -1848.156          24.000  
G32  21383087.696   112368962.3341        421.794          20.000  
> 2021  9 12 11  5 13.9990177  0  3
C10  38520212.712   200584835.851         562.711          26.000  
G10  20342941.575   106902828.607       -1847.151          23.000  
G32  21382854.158   112367753.128         421.862          21.000  
> 2021  9 12 11  5 14.9990175  0  3
C10  38520044.828   200583959.600         564.559          23.000  
G10  20343232.073   106904360.159       -1846.219          22.000  
G32  21382712.356   112367016.576         422.281          21.000  
> 2021  9 12 11  5 15.9990170  0  3
C10  38519788.805   200582613.979         564.665          26.000  
G10  20343437.431   106905417.885       -1846.932          22.000  
G31  21318235.393   112028060.6281        232.036          17.000  
> 2021  9 12 11  5 16.9990164  0  3
C10  38519501.304   200581112.564         563.565          26.000  
G10  20343608.013   106906319.119       -1846.955          23.000  
G32  21382220.996   112364446.2111        417.763          20.000  
> 2021  9 12 11  5 17.9990159  0  2
C10  38519243.183   200579768.305         563.282          30.000  
G32  21381993.154   112363239.721         419.020          19.000  
> 2021  9 12 11  5 18.9990157  0  2
C10  38519073.500   200578892.624         563.408          30.000  
G10  20344102.071   106908913.2671      -1849.249          24.000  
> 2021  9 12 11  5 19.9990152  0  4
C10  38518813.880   200577548.821         563.020          29.000  
G10  20344302.932   106909974.763       -1849.891          25.000  
G31  21317498.503   112024299.3671        232.853          17.000  
G32  21381625.309   112361301.3911        417.359          20.000  
> 2021  9 12 11  5 20.9990147  0  2
C10  38518554.560   200576205.212         564.097          27.000  
G10  20344503.793   106911036.145       -1849.206          28.000  
> 2021  9 12 11  5 21.9990144  0  3
C10  38518355.797   200575173.502         563.382          29.000  
G10  20344765.212   106912414.759       -1852.182          26.000  
G32  21381225.685   112359204.8911        419.233          21.000  
> 2021  9 12 11  5 22.9990139  0  3
C10  38518095.877   200573829.143         563.748          28.000  
G10  20344967.872   106913479.058       -1853.259          25.000  
G32  21380996.644   112357997.474         419.949          24.000  
> 2021  9 12 11  5 23.9990134  0  3
C10  38517839.255   200572485.361         562.722          28.000  
G10  20345170.232   106914544.277       -1854.108          22.000  
G32  21380767.303   112356791.069         417.036          21.000  
> 2021  9 12 11  5 24.9990129  0  3
C10  38517580.234   200571141.484         563.660          30.000  
G31  21316580.538   112019522.1601        226.707          19.000  
G32  21380537.662   112355588.071         414.987          22.000  
> 2021  9 12 11  5 25.9990124  0  3
C10  38517320.314   200569797.193         562.667          26.000  
G10  20345578.549   106916674.9741      -1852.564          23.000  
G32  21380311.318   112354384.143         416.757          21.000  
> 2021  9 12 11  5 26.9990121  0  3
C10  38517121.851   200568765.512         563.345          28.000  
G10  20345840.568   106918056.424       -1854.700          22.000  
G32  21380141.636   112353494.533         417.267          21.000  
> 2021  9 12 11  5 27.9990118  0  2
C10  38516924.288   200567732.961         564.508          30.000  
G10  20346103.486   106919439.666       -1857.368          24.000  
> 2021  9 12 11  5 28.9990113  0  3
C10  38516666.467   200566388.044         563.739          31.000  
G10  20346306.145   106920509.167       -1857.589          26.000  
G32  21379745.011   112351398.8351        417.219          23.000  
> 2021  9 12 11  5 29.9990108  0  4
C10  38516408.945   200565045.102         561.917          29.000  
G10  20346508.505   106921578.344       -1856.015          24.000  
G31  21315730.027   112015097.0881        224.836          26.000  
G32  21379515.669   112350193.608         417.635          25.000  
> 2021  9 12 11  5 30.9990103  0  2
C10  38516149.624   200563703.378         561.328          26.000  
G32  21379281.531   112348988.723         417.167          25.000  
> 2021  9 12 11  5 31.9990098  0  4
C10  38515890.304   200562361.150         562.103          25.000  
G10  20346921.319   106923716.3761      -1857.520          24.000  
G31  21315337.299   112013074.5151        221.871          26.000  
G32  21379051.890   112347783.851         416.216          25.000  
> 2021  9 12 11  5 32.9990093  0  4
C10  38515632.782   200561016.690         564.202          26.000  
G10  20347123.380   106924785.827       -1857.807          23.000  
G31  21315141.535   112012064.852         222.146          28.000  
G32  21378820.151   112346580.950         415.273          26.000  
> 2021  9 12 11  5 33.9990090  0  4
C10  38515435.519   200559983.907         564.647          25.000  
G10  20347385.998   106926171.516       -1858.916          25.000  
G31  21315005.729   112011369.957         222.433          27.000  
G32  21378647.470   112345693.805         414.621          24.000  
> 2021  9 12 11  5 34.9990088  0  4
C10  38515268.534   200559107.923         561.598          27.000  
G10  20347678.895   106927716.285       -1861.266          24.000  
G31  21314902.600   112010568.284         222.238          24.000  
G32  21378507.167   112344963.622         415.709          27.000  
> 2021  9 12 11  5 35.9990083  0  3
C10  38515011.013   200557765.248         562.643          28.000  
G10  20347883.054   106928788.942       -1859.837          20.000  
G31  21314709.534   112009558.694         221.418          27.000  
> 2021  9 12 11  5 36.9990077  0  2
C10  38514724.411   200556265.232         563.965          23.000  
G31  21314487.687   112008392.213         221.240          29.000  
> 2021  9 12 11  5 37.9990072  0  3
C10  38514466.889   200554921.911         562.622          26.000  
G31  21314297.019   112007384.418         220.099          27.000  
G32  21377792.762   112341197.4471        415.470          23.000  
> 2021  9 12 11  5 38.9990067  0  4
C10  38514208.468   200553577.832         562.708          18.000  
G10  20348460.154   106931844.3651      -1860.975          23.000  
G31  21314106.351   112006377.899         218.575          25.000  
G32  21377563.421   112339995.328         414.179          24.000  
> 2021  9 12 11  5 39.9990062  0  3
G10  20348664.613   106932918.100       -1861.693          22.000  
G31  21313914.184   112005371.906         216.002          24.000  
G32  21377334.080   112338793.769         413.300          27.000  
> 2021  9 12 11  5 40.9990060  0  3
G10  20348961.107   106934465.062       -1862.890          25.000  
G31  21313809.856   112004840.163         217.879          23.000  
G32  21377192.278   112338065.365         412.970          22.000  
> 2021  9 12 11  5 41.9990054  0  3
G10  20349137.086   106935383.042       -1863.442          25.000  
G31  21313584.113   112003675.931         219.794          19.000  
G32  21376931.458   112336708.014         413.278          23.000  
> 2021  9 12 11  5 42.9990052  0  3
G10  20349432.981   106936931.690       -1863.855          28.000  
G31  21313483.982   112003141.581         218.966          20.000  
G32  21376791.155   112335978.425         414.979          25.000  
> 2021  9 12 11  5 43.9990047  0  2
G10  20349635.640   106938008.161       -1864.343          28.000  
G32  21376560.615   112334777.023         412.814          24.000  
> 2021  9 12 11  5 44.9990042  0  4
G10  20349840.099   106939085.796       -1865.028          27.000  
G31  21313103.246   112001129.4371        220.076          21.000  
G32  21376331.574   112333575.910         413.761          22.000  
J01  37615854.886   197672703.5131        440.481          31.000  
> 2021  9 12 11  5 45.9990036  0  4
G10  20350013.379   106940005.767       -1864.680          28.000  
G31  21312883.198   111999962.699         220.764          21.000  
G32  21376071.054   112332217.170         413.663          25.000  
J01  37615591.068   197671318.204         439.248          30.000  
> 2021  9 12 11  5 46.9990034  0  3
G10  20350307.475   106941557.092       -1867.910          33.000  
G32  21375930.751   112331488.734         412.632          26.000  
J01  37615446.868   197670564.344         437.861          31.000  
> 2021  9 12 11  5 47.9990029  0  3
G10  20350510.435   106942637.408       -1868.691          33.000  
G32  21375702.009   112330289.211         410.998          27.000  
J01  37615213.629   197669338.202         438.334          30.000  
> 2021  9 12 11  5 48.9990024  0  3
G10  20350716.092   106943718.534       -1868.727          35.000  
G32  21375470.869   112329090.367         411.912          26.000  
J01  37614980.091   197668112.460         437.882          31.000  
> 2021  9 12 11  5 49.9990019  0  3
G10  20350921.450   106944798.619       -1868.170          32.000  
G31  21312220.956   111996425.5291        211.458          25.000  
G32  21375240.629   112327891.053         410.988          24.000  
> 2021  9 12 11  5 50.9990016  0  2
G10  20351186.167   106946194.389       -1868.578          32.000  
G32  21375070.347   112327005.856         413.585          21.000  
> 2021  9 12 11  5 51.9990011  0  2
G10  20351392.724   106947275.613       -1871.115          33.000  
G32  21374841.605   112325805.837         411.917          24.000  
> 2021  9 12 11  5 52.9990006  0  2
G10  20351598.082   106948357.171       -1869.564          33.000  
G32  21374612.264   112324606.779         411.002          24.000  
> 2021  9 12 11  5 53.9990001  0  1
G10  20351801.941   106949438.774       -1868.793          32.000  
> 2021  9 12 11  5 54.9989998  0  3
G10  20352067.857   106950836.010       -1870.797          27.000  
G31  21311412.116   111992056.0451        213.269          19.000  
G32  21374214.439   112322254.3851        410.979          23.000  
> 2021  9 12 11  5 55.9989993  0  2
G10  20352273.514   106951920.068       -1872.692          29.000  
G32  21373982.700   112321056.341         409.515          28.000  
> 2021  9 12 11  5 56.9989988  0  2
G10  20352479.172   106953005.527       -1874.281          30.000  
G32  21373746.763   112319858.915         409.714          25.000  
> 2021  9 12 11  5 57.9989985  0  2
G31  21310902.169   111989372.8361        210.790          19.000  
G32  21373580.678   112318975.367         411.206          20.000  
> 2021  9 12 11  5 58.9989980  0  1
G32  21373351.337   112317775.767         413.527          19.000  
> 2021  9 12 11  5 59.9989975  0  1
G10  20353165.397                       -1876.390          36.000  
> 2021  9 12 11  6  0.9989972  0  2
G10  20353434.610   106958009.2441      -1880.352          36.000  
G31  21310383.828   111986696.0781        210.392          19.000  
> 2021  9 12 11  6  1.9989967  0  2
G10  20353639.668   106959098.074       -1874.974          38.000  
G32  21372736.762   112314502.6351        405.686          19.000  
> 2021  9 12 11  6  2.9989962  0  3
G10  20353844.427   106960185.551       -1876.228          32.000  
G31  21310000.694   111984699.7191        209.409          20.000  
G32  21372512.218   112313307.495         407.748          19.000  
> 2021  9 12 11  6  3.9989957  0  3
G10  20354053.682   106961275.751       -1878.925          33.000  
G31  21309810.925   111983703.766         206.703          20.000  
G32  21372289.472   112312111.215         408.389          21.000  
> 2021  9 12 11  6  4.9989952  0  3
G10  20354261.738   106962366.967       -1879.091          38.000  
G31  21309620.856   111982708.101         208.872          21.000  
G32  21372061.929   112310914.312         409.941          17.000  
> 2021  9 12 11  6  5.9989949  0  2
G10  20354531.551   106963773.889       -1881.191          34.000  
G32  21371893.146   112310030.187         411.769          19.000  
> 2021  9 12 11  6  6.9989944  0  1
G10  20354738.708   106964867.388       -1880.817          35.000  
> 2021  9 12 11  6  7.9989942  0  2
G10  20355037.001   106966433.288       -1881.771          30.000  
G31  21309196.650   111980507.3051        208.270          21.000  
> 2021  9 12 11  6  8.9989937  0  2
G10  20355244.158   106967527.467       -1882.193          32.000  
G31  21309000.586   111979512.667         206.337          20.000  
> 2021  9 12 11  6  9.9989932  0  1
G10  20355451.914   106968621.902       -1880.127          34.000  
> 2021  9 12 11  6 10.9989926  0  1
G10  20355628.791   106969557.274       -1881.664          33.000  
> 2021  9 12 11  6 11.9989921  0  2
G10  20355836.548   106970652.258       -1884.194          34.000  
G31  21308407.896   111976377.1451        206.225          20.000  
> 2021  9 12 11  6 12.9989916  0  3
G10  20356044.903   106971748.481       -1883.820          31.000  
G31  21308219.926   111975383.641         204.688          20.000  
G32  21370335.724   112301943.4721        412.365          20.000  
> 2021  9 12 11  6 13.9989914  0  2
G10  20356341.998   106973317.796       -1884.570          33.000  
G31  21308118.297   111974863.294         205.905          20.000  
> 2021  9 12 11  6 14.9989911  0  2
G10  20356614.209   106974730.070       -1884.590          32.000  
G32  21370022.441   112300336.4811        411.012          20.000  
> 2021  9 12 11  6 15.9989906  0  3
G10  20356822.265   106975827.105       -1886.422          32.000  
G31  21307806.812   111973198.2541        200.108          20.000  
G32  21369790.102   112299137.977         409.738          21.000  
> 2021  9 12 11  6 16.9989901  0  2
G10  20357029.722   106976926.709       -1888.548          28.000  
G32  21369560.761   112297939.790         410.337          21.000  
> 2021  9 12 11  6 17.9989896  0  2
G10  20357240.176   106978027.494       -1889.143          29.000  
G32  21369331.420   112296741.772         411.008          21.000  
> 2021  9 12 11  6 18.9989891  0  2
G10  20357450.930   106979129.977       -1891.096          24.000  
G32  21369099.680   112295543.410         411.814          21.000  
> 2021  9 12 11  6 19.9989885  0  3
G10  20357633.204   106980075.324       -1890.171          26.000  
G31  21307021.656   111969078.9901        203.741          23.000  
G32  21368837.961   112294184.830         414.876          25.000  
> 2021  9 12 11  6 20.9989880  0  3
G10  20357841.560   106981177.550       -1890.293          28.000  
G31  21306836.684   111968086.297         205.722          18.000  
G32  21368608.320   112292981.255         416.310          24.000  
> 2021  9 12 11  6 21.9989880  0  2
G10  20358203.109   106983067.729       -1890.545          24.000  
G32  21368528.575   112292566.552         412.409          25.000  
> 2021  9 12 11  6 22.9989875  0  2
G10  20358413.264   106984171.357       -1891.782          24.000  
G32  21368296.836   112291366.270         412.672          26.000  
> 2021  9 12 11  6 23.9989870  0  2
G10  20358624.018   106985275.658       -1891.887          26.000  
G32  21368065.096   112290166.266         412.832          25.000  
> 2021  9 12 11  6 24.9989865  0  3
G10  20358835.372   106986380.480       -1894.315          24.000  
G31  21306226.906   111964908.9811        202.535          18.000  
G32  21367836.055   112288965.506         413.339          25.000  
> 2021  9 12 11  6 25.9989860  0  2
G10  20359045.226   106987488.035       -1895.776          25.000  
G32  21367604.615   112287764.277         413.134          25.000  
> 2021  9 12 11  6 26.9989855  0  3
G10  20359255.681   106988596.052       -1896.107          26.000  
G31  21305847.669   111962923.9641        205.536          18.000  
G32  21367375.574   112286564.439         411.708          25.000  
> 2021  9 12 11  6 27.9989850  0  2
C06  36696616.561   191088912.2611       -599.665          28.000  
G10  20359468.833   106989703.957       -1895.410          25.000  
> 2021  9 12 11  6 28.9989847  0  4
C06  36696641.444   191089042.632        -598.264          29.000  
G10  20359743.743   106991126.831       -1895.450          24.000  
G31  21305527.190   111961256.9131        202.512          19.000  
G32  21366978.049   112284479.9821        412.636          28.000  
> 2021  9 12 11  6 29.9989844  0  3
C06  36696666.626   191089173.302        -599.801          27.000  
G10  20360012.956   106992549.880       -1895.500          28.000  
G32  21366808.067   112283593.947         413.205          30.000  
> 2021  9 12 11  6 30.9989839  0  4
C06  36696632.150   191088992.245        -599.772          28.000  
G10  20360222.211   106993657.699       -1895.897          31.000  
G31  21305210.310   111959592.6631        201.312          18.000  
G32  21366579.325   112282392.931         413.246          32.000  
> 2021  9 12 11  6 31.9989834  0  4
C06  36696597.374   191088810.573        -597.592          27.000  
G10  20360431.766   106994766.419       -1897.214          33.000  
G31  21305029.835   111958605.541         198.990          19.000  
G32  21366353.281   112281192.209         413.775          31.000  
> 2021  9 12 11  6 32.9989829  0  2
C06  36696563.198   191088627.046        -596.246          28.000  
G32  21366125.439   112279991.301         413.381          35.000  
> 2021  9 12 11  6 33.9989824  0  4
C06  36696529.621   191088442.379        -595.527          26.000  
G10  20360849.077   106996982.4761      -1897.428          31.000  
G31  21304648.799   111956631.3691        198.955          25.000  
G32  21365897.297   112278790.347         413.201          36.000  
> 2021  9 12 11  6 34.9989821  0  4
C06  36696554.204   191088570.988        -597.219          26.000  
G10  20361117.991   106998408.161       -1899.786          33.000  
G31  21304516.590   111955960.387         199.178          25.000  
G32  21365729.713   112277903.926         413.245          35.000  
> 2021  9 12 11  6 35.9989816  0  4
C06  36696517.030   191088386.668        -595.787          27.000  
G10  20361326.947   106999518.296       -1898.162          33.000  
G31  21304329.220   111954973.618         199.333          26.000  
G32  21365502.470   112276703.062         413.133          33.000  
> 2021  9 12 11  6 36.9989811  0  3
C06  36696481.654   191088201.768        -596.096          25.000  
G31  21304140.051   111953986.692         199.024          25.000  
G32  21365273.129   112275501.403         413.672          34.000  
> 2021  9 12 11  6 37.9989809  0  4
C06  36696536.816   191088486.020        -596.984          27.000  
G10  20361845.588   107002213.4401      -1899.824          31.000  
G31  21304041.719   111953473.290         197.168          25.000  
G32  21365134.925   112274773.074         414.041          34.000  
> 2021  9 12 11  6 38.9989804  0  4
C06  36696500.841   191088301.997        -595.746          27.000  
G10  20362054.243   107003325.726       -1900.955          32.000  
G31  21303850.451   111952488.468         197.406          24.000  
G32  21364906.783   112273572.032         412.366          32.000  
> 2021  9 12 11  6 39.9989798  0  5
C06  36696435.486   191087960.939        -595.511          26.000  
C07  37807032.536   196871139.5501        667.196          30.000  
G10  20362234.418   107004283.385       -1903.531          33.000  
G31  21303631.303   111951346.082         196.094          26.000  
G32  21364648.362   112272215.478         410.612          35.000  
> 2021  9 12 11  6 40.9989793  0  5
C06  36696399.211   191087775.894        -595.754          27.000  
C07  37806753.429   196869691.022         668.000          30.000  
G10  20362446.672   107005398.346       -1901.760          32.000  
G31  21303442.434   111950362.751         195.605          28.000  
G32  21364416.922                         419.459          34.000  
> 2021  9 12 11  6 41.9989791  0  5
C06  36696453.474   191088059.240        -596.176          28.000  
C07  37806563.960   196868710.234         668.819          27.000  
G10  20362753.659   107006986.251       -1904.379          35.000  
G31  21303345.601   111949852.950         195.051          24.000  
G32  21364280.217   112270037.7881        415.286          36.000  
> 2021  9 12 11  6 42.9989786  0  5
C06  36696416.599   191087874.994        -596.674          27.000  
C07  37806283.954   196867261.148         667.909          29.000  
G10  20362965.013   107008102.586       -1903.578          34.000  
G31  21303157.331   111948869.082         197.147          24.000  
G32  21364051.775   112268839.869         404.337          36.000  
> 2021  9 12 11  6 43.9989780  0  5
C06  36696350.645   191087534.190        -595.852          26.000  
C07  37805975.468   196865656.405         668.528          32.000  
G10  20363150.584   107009061.053       -1903.878          33.000  
G31  21302938.183   111947726.903         196.416          29.000  
G32  21363795.752   112267487.236         408.896          33.000  
> 2021  9 12 11  6 44.9989775  0  5
C06  36696313.771   191087349.082        -595.838          26.000  
C07  37805696.961   196864207.793         666.861          30.000  
G10  20363361.638   107010176.965       -1904.106          32.000  
G31  21302751.412   111946742.914         195.441          28.000  
G32  21363560.415   112266288.435         411.754          33.000  
> 2021  9 12 11  6 45.9989773  0  5
C06  36696368.333   191087632.378        -595.809          27.000  
C07  37805508.991   196863229.106         665.696          27.000  
G10  20363663.229   107011765.802       -1902.839          32.000  
G31  21302653.380   111946232.423         195.647          28.000  
G32  21363422.510   112265560.587         414.479          33.000  
> 2021  9 12 11  6 46.9989768  0  5
C06  36696333.557   191087446.967        -594.836          28.000  
C07  37805231.683   196861782.331         666.871          23.000  
G10  20363874.883   107012882.194       -1905.344          33.000  
G31  21302466.609   111945249.921         192.968          26.000  
G32  21363202.163   112264363.117         408.249          35.000  
> 2021  9 12 11  6 47.9989765  0  5
C06  36696359.939   191087573.269        -594.261          28.000  
C07  37805012.834   196860646.974         667.043          25.000  
G10  20364149.493   107014313.661       -1903.943          32.000  
G31  21302336.200   111944584.284         192.152          24.000  
G32  21363034.279   112263480.544         410.571          34.000  
> 2021  9 12 11  6 48.9989760  0  5
C06  36696325.463   191087386.459        -593.908          28.000  
C07  37804734.027   196859199.537         666.806          27.000  
G10  20364361.146   107015430.818       -1906.131          32.000  
G31  21302150.028   111943603.244         193.395          23.000  
G32  21362805.837   112262280.697         412.974          34.000  
> 2021  9 12 11  6 49.9989755  0  5
C06  36696289.487   191087199.385        -593.464          28.000  
C07  37804456.120   196857752.883         666.164          28.000  
G10  20364572.500   107016550.327       -1907.585          32.000  
G31  21301963.258   111942621.596         193.217          23.000  
G32  21362577.096   112261079.977         412.565          36.000  
> 2021  9 12 11  6 50.9989750  0  4
C06  36696257.110   191087012.774        -593.938          26.000  
C07  37804177.013   196856305.480         667.561          29.000  
G10  20364784.153   107017670.187       -1907.896          32.000  
G31  21301775.887   111941640.599         190.635          24.000  
> 2021  9 12 11  6 51.9989745  0  5
C06  36696222.334   191086826.335        -594.883          26.000  
C07  37803898.805   196854858.382         665.359          27.000  
G10  20364998.805   107018790.969       -1908.755          31.000  
G31  21301589.117   111940661.839         191.492          23.000  
G32  21362120.212   112258680.5621        411.335          33.000  
> 2021  9 12 11  6 52.9989742  0  5
C06  36696245.118   191086953.269        -595.314          28.000  
C07  37803681.156   196853724.342         665.889          28.000  
G10  20365270.417   107020227.127       -1909.736          32.000  
G31  21301462.305   111939997.758         191.935          25.000  
G32  21361947.831                         411.917          35.000  
> 2021  9 12 11  6 53.9989740  0  4
C06  36696299.381   191087236.489        -595.308          30.000  
C07  37803494.685   196852745.958         665.820          26.000  
G31  21301360.075   111939490.086         192.764          29.000  
G32  21361806.029   112257066.5351        415.238          35.000  
> 2021  9 12 11  6 54.9989734  0  3
C06  36696233.726   191086894.679        -594.523          28.000  
C07  37803187.398   196851143.407         666.241          29.000  
G31  21301140.927   111938352.099         193.040          26.000  
> 2021  9 12 11  6 55.9989729  0  3
C06  36696199.550   191086707.732        -593.219          28.000  
C07  37802909.490   196849696.228         667.213          30.000  
G31  21300957.154   111937372.378         191.851          25.000  
> 2021  9 12 11  6 56.9989724  0  2
C07  37802631.583   196848247.759         668.274          30.000  
G31  21300770.683   111936392.644         191.656          30.000  
> 2021  9 12 11  6 57.9989719  0  3
C06  36696132.396   191086337.3341       -596.304          25.000  
C07  37802353.076   196846799.398         667.456          29.000  
G31  21300585.711   111935412.590         191.977          27.000  
> 2021  9 12 11  6 58.9989714  0  4
C06  36696100.318   191086152.377        -595.562          25.000  
C07  37802074.868   196845351.723         667.675          30.000  
G31  21300400.440   111934433.692         190.497          28.000  
G32  21360647.931   112250921.2901        408.637          30.000  
> 2021  9 12 11  6 59.9989709  0  2
C06  36696065.842   191085968.136        -596.204          25.000  
C07  37801796.661   196843903.200         667.216          28.000  
> 2021  9 12 11  7  0.9989706  0  4
C06  36696090.425   191086095.967        -596.992          23.000  
C07  37801578.412   196842767.803         667.100          28.000  
G10  20367107.245   107029848.6861      -1913.841          32.000  
G31  21300089.855   111932793.9681        188.519          26.000  
> 2021  9 12 11  7  1.9989704  0  6
C06  36696150.983   191086381.181        -598.704          23.000  
C07  37801389.842   196841787.541         667.846          27.000  
G10  20367406.738   107031446.641       -1913.225          33.000  
G31  21299994.820   111932290.010         189.201          30.000  
G32  21360142.481                         407.038          36.000  
J02  38180456.420   200639831.8271      -1471.973          30.000  
> 2021  9 12 11  7  2.9989699  0  6
C06  36696118.306   191086197.718        -596.719          24.000  
C07  37801110.736   196840339.718         667.483          25.000  
G10  20367620.490   107032572.550       -1914.061          31.000  
G31  21299808.649   111931313.615         187.947          28.000  
G32  21359911.041   112247113.1051        404.793          37.000  
J02  38180585.930   200640516.413       -1472.253          31.000  
> 2021  9 12 11  7  3.9989693  0  3
C07  37800801.949   196838735.593         667.483          29.000  
C16  37329618.443   194385118.2701       -558.614          30.000  
G10  20367804.562   107033541.580       -1914.220          34.000  
> 2021  9 12 11  7  4.9989688  0  5
C07  37800524.342   196837287.857         667.081          29.000  
C16  37329579.170   194384895.523        -556.124          30.000  
G10  20368018.914   107034668.810       -1916.815          31.000  
G32  21359428.675   112244569.3691        407.230          36.000  
J02  38180815.571   200641726.2321      -1471.799          25.000  
> 2021  9 12 11  7  5.9989683  0  4
C07  37800247.333   196835839.943         667.269          28.000  
G10  20368234.764   107035798.139       -1916.347          33.000  
G31  21299220.457   111928229.5561        186.425          23.000  
J02  38180949.279   200642409.209       -1470.816          19.000  
> 2021  9 12 11  7  6.9989678  0  4
C07  37799968.526   196834391.476         668.299          28.000  
G10  20368448.217   107036926.763       -1916.719          30.000  
G31  21299037.283   111927256.240         186.418          21.000  
G32  21358969.093   112242140.0241        403.840          35.000  
> 2021  9 12 11  7  7.9989673  0  4
C07  37799689.719   196832942.695         668.045          28.000  
G10  20368662.868   107038055.832       -1915.966          33.000  
G31  21298852.611   111926282.302         186.783          26.000  
G32  21358741.851   112240947.229         406.664          36.000  
> 2021  9 12 11  7  8.9989673  0  3
C07  37799563.207   196832274.066         668.285          23.000  
G10  20369028.915   107039972.620       -1917.195          30.000  
G31  21298816.636   111926095.686         186.321          27.000  
> 2021  9 12 11  7  9.9989668  0  3
C07  37799285.299   196830824.303         670.337          26.000  
G10  20369245.065   107041102.329       -1917.640          30.000  
G31  21298630.765   111925121.658         186.015          26.000  
> 2021  9 12 11  7 10.9989663  0  3
C07  37799009.190   196829372.688         671.759          23.000  
G10  20369460.016   107042232.592       -1918.476          33.000  
G31  21298446.392   111924148.365         184.891          21.000  
> 2021  9 12 11  7 11.9989658  0  3
C07  37798730.983   196827920.171         672.271          22.000  
G10  20369676.766   107043363.905       -1919.316          36.000  
G31  21298260.521   111923174.869         186.038          25.000  
> 2021  9 12 11  7 12.9989652  0  5
C07  37798422.497   196826312.086         671.558          26.000  
C16  37329319.250   194383701.3401       -550.624          32.000  
G10  20369864.436                       -1920.030          40.000  
G31  21298046.469   111922043.803         185.719          24.000  
G32  21357679.686   112235587.6101        412.257          34.000  
> 2021  9 12 11  7 13.9989647  0  5
C07  37798144.889   196824860.883         669.710          25.000  
C16  37329269.484   194383471.250        -550.456          31.000  
G10  20370081.786   107045492.8431      -1923.225          37.000  
G31  21297861.497   111921071.360         184.241          27.000  
G32  21357448.246   112234387.281         411.968          35.000  
> 2021  9 12 11  7 14.9989645  0  4
C07  37797958.418   196823877.804         671.361          22.000  
G10  20370386.375   107047098.477       -1920.931          36.000  
G31  21297764.664   111920572.980         183.607          25.000  
G32  21357310.342   112233660.813         410.513          29.000  
> 2021  9 12 11  7 15.9989640  0  5
C07  37797680.210   196822427.477         668.555          23.000  
E01  23706846.791   124580319.7961        539.304          29.000  
G10  20370600.427   107048232.126       -1921.739          34.000  
G31  21297576.095   111919601.573         184.096          27.000  
G32  21357083.998   112232462.898         409.844          28.000  
> 2021  9 12 11  7 16.9989637  0  5
C07  37797460.762   196821291.186         667.753          29.000  
E01  23706654.325   124579309.170         535.605          32.000  
G10  20370875.336   107049681.545       -1922.435          33.000  
G31  21297446.884   111918944.159         184.962          24.000  
G32  21356915.815   112231580.297         409.768          29.000  
> 2021  9 12 11  7 17.9989632  0  5
C07  37797179.857   196819843.341         667.919          25.000  
E01  23706401.899   124577982.460         534.336          29.000  
G10  20371089.988   107050816.451       -1923.169          32.000  
G31  21297264.011   111917972.865         182.690          23.000  
G32  21356687.973   112230382.434         410.476          30.000  
> 2021  9 12 11  7 18.9989627  0  4
C07  37796902.849   196818396.498         665.965          25.000  
C16  37329201.432   194383114.7461       -551.612          30.000  
E01  23706149.474   124576655.750         534.848          28.000  
G10  20371303.440   107051953.026       -1925.378          31.000  
> 2021  9 12 11  7 19.9989622  0  4
C07  37796625.241   196816948.783         667.291          28.000  
C16  37329155.264   194382884.986        -549.826          30.000  
G10  20371518.091   107053090.084       -1925.057          31.000  
G32  21356230.189   112227985.4521        410.666          34.000  
> 2021  9 12 11  7 20.9989619  0  5
C07  37796406.992   196815812.296         668.459          24.000  
C16  37329168.454   194382966.309        -549.124          33.000  
G31  21296769.653   111915379.7451        183.121          21.000  
G32  21356058.708   112227100.716         412.478          34.000  
R12  19585193.952   104620591.4481      -2715.756          30.000  
> 2021  9 12 11  7 21.9989614  0  5
C16  37329121.987   194382734.958        -549.740          33.000  
C25  22061817.522                       -1721.583          35.000  
G31  21296581.084   111914410.237         181.373          22.000  
G32  21355832.065   112225900.926         412.008          36.000  
R12  19585549.806   104622492.356       -2715.573          30.000  
> 2021  9 12 11  7 22.9989609  0  5
C16  37329072.521   194382503.044        -549.281          32.000  
C25  22061995.598                       -1723.951          34.000  
G10  20372228.600   107056817.6041      -1926.005          34.000  
G31  21296395.212   111913442.360         178.996          22.000  
G32  21355604.523   112224701.203         411.530          33.000  
> 2021  9 12 11  7 23.9989604  0  4
C16  37329027.252   194382271.854        -549.769          32.000  
C25  22062178.771   114883561.6961      -1730.125          34.000  
G31  21296212.639   111912475.568         178.485          24.000  
G32  21355376.980   112223502.566         410.328          30.000  
> 2021  9 12 11  7 24.9989601  0  3
C16  37329040.743   194382352.808        -550.012          30.000  
C25  22062419.805   114884818.273       -1724.538          32.000  
G31  21296087.925   111911824.036         180.065          22.000  
> 2021  9 12 11  7 25.9989596  0  3
C25  22062599.380   114885762.101       -1724.233          33.000  
G10  20372944.504   107060551.3161      -1928.908          32.000  
G32  21354983.053   112221422.3781        409.651          30.000  
> 2021  9 12 11  7 26.9989594  0  2
C25  22062870.093   114887174.482       -1725.121          32.000  
G10  20373251.491   107062163.052       -1927.078          33.000  
> 2021  9 12 11  7 27.9989588  0  5
C06  36695590.072   191083628.6101       -587.958          28.000  
C25  22063022.387   114887963.028       -1725.175          32.000  
G10  20373440.061   107063146.153       -1929.981          34.000  
G31  21295600.163   111909230.0731        182.931          18.000  
G32  21354587.926   112219342.5501        411.064          23.000  
> 2021  9 12 11  7 28.9989583  0  4
C06  36695552.897   191083436.384        -589.186          30.000  
C16  37328929.820   194381746.9991       -550.718          23.000  
C25  22063203.162   114888908.026       -1726.183          34.000  
G10  20373656.211   107064287.698       -1929.181          32.000  
> 2021  9 12 11  7 29.9989578  0  5
C06  36695516.023   191083244.592        -587.801          30.000  
C16  37328886.350   194381516.393        -549.884          24.000  
C25  22063383.637   114889854.421       -1727.176          34.000  
G10  20373872.362   107065429.611       -1929.807          30.000  
G32  21354134.041   112216944.5951        410.101          24.000  
> 2021  9 12 11  7 30.9989573  0  5
C06  36695478.849   191083051.012        -586.743          26.000  
C25  22063565.312   114890799.989       -1724.182          33.000  
G10  20374088.512   107066572.653       -1932.343          33.000  
G31  21295049.744   111906321.2161        183.302          19.000  
G32  21353906.198   112215747.775         407.241          23.000  
> 2021  9 12 11  7 31.9989568  0  6
C06  36695441.375   191082857.013        -587.147          27.000  
C16  37328796.412   194381051.1981       -547.546          19.000  
C25  22063747.585   114891744.864       -1726.825          33.000  
G10  20374305.562   107067715.649       -1930.317          34.000  
G23  22280611.454   117085402.5511      -3834.262          25.000  
G32  21353683.453   112214554.336         404.273          26.000  
> 2021  9 12 11  7 32.9989565  0  4
C06  36695463.559   191082975.397        -587.791          24.000  
C25  22063992.516   114893003.332       -1727.620          32.000  
G10  20374582.270   107069173.801       -1931.671          31.000  
G23  22281251.511   117088763.189       -3831.143          25.000  
> 2021  9 12 11  7 33.9989563  0  1
C25  22064263.228   114894420.479       -1729.333          33.000  
> 2021  9 12 11  7 34.9989558  0  3
C16  37328821.595   194381135.5571       -550.550          15.000  
C25  22064444.303   114895369.307       -1730.366          26.000  
G23  22282506.742   117095321.1321      -3829.797          22.000  
> 2021  9 12 11  7 35.9989553  0  4
C06  36695449.469   191082871.0971       -585.987          24.000  
C16  37328778.724   194380905.667        -550.764          16.000  
G10  20375327.554   107073078.8261      -1933.900          33.000  
G23  22283087.440   117098363.529       -3829.675          22.000  
> 2021  9 12 11  7 36.9989548  0  4
C06  36695411.695   191082676.392        -585.805          27.000  
C16  37328733.755   194380675.425        -550.471          15.000  
G10  20375542.805   107074225.513       -1933.702          32.000  
G31  21294094.305   111901307.2941        177.934          20.000  
> 2021  9 12 11  7 37.9989542  0  6
C06  36695343.342   191082325.486        -586.095          30.000  
C25  22064966.242   114898067.1811      -1732.088          25.000  
E01  23701671.774   124553125.6801        530.143          28.000  
G10  20375728.377   107075213.655       -1933.554          29.000  
G31  21293876.356   111900182.733         179.591          28.000  
G32  21352465.096   112208036.0811        409.474          19.000  
> 2021  9 12 11  7 38.9989537  0  5
C06  36695305.269   191082131.132        -587.359          29.000  
C25  22065147.916   114899017.143       -1729.817          30.000  
E01  23701421.747   124551810.970         531.935          27.000  
G10  20375945.127   107076360.498       -1935.405          29.000  
G31  21293687.187   111899215.350         179.524          29.000  
> 2021  9 12 11  7 39.9989532  0  4
C06  36695267.795   191081937.268        -586.395          27.000  
C07  37791363.284   196789535.5151        666.472          28.000  
C25  22065328.691   114899965.361       -1728.362          33.000  
G31  21293498.618   111898248.517         177.987          26.000  
> 2021  9 12 11  7 40.9989532  0  4
C06  36695379.617   191082522.642        -584.571          27.000  
C07  37791234.073   196788869.151         666.923          27.000  
C25  22065659.662   114901693.416       -1727.876          33.000  
G31  21293466.840   111898070.149         178.789          25.000  
> 2021  9 12 11  7 41.9989527  0  6
C06  36695341.544   191082326.912        -585.307          27.000  
C07  37790957.065   196787421.929         666.370          26.000  
C25  22065838.338   114902641.759       -1729.760          30.000  
G10  20376751.868   107080595.2831      -1937.178          25.000  
G31  21293278.870   111897103.866         176.892          25.000  
G32  21351700.325   112204034.3661        408.050          20.000  
> 2021  9 12 11  7 42.9989522  0  5
C06  36695304.369   191082132.361        -587.184          26.000  
C07  37790679.157   196785974.395         667.273          28.000  
C25  22066020.312   114903591.559       -1730.887          29.000  
G10  20376971.916   107081744.742       -1937.557          31.000  
G31  21293091.200   111896138.829         177.475          27.000  
> 2021  9 12 11  7 43.9989517  0  6
C06  36695265.396   191081938.598        -586.836          28.000  
C07  37790403.048   196784524.618         670.571          21.000  
C25  22066202.886   114904541.328       -1729.806          33.000  
G10  20377191.364   107082895.608       -1939.444          32.000  
G31  21292904.729   111895173.715         176.544          29.000  
G32  21351248.538   112201646.5871        405.379          21.000  
> 2021  9 12 11  7 44.9989512  0  4
C06  36695229.421   191081744.382        -585.871          25.000  
C07  37790125.740   196783072.775         670.533          23.000  
C25  22066386.059   114905490.940       -1730.608          31.000  
G31  21292718.857   111894209.279         176.533          29.000  
> 2021  9 12 11  7 45.9989507  0  5
C07  37789848.432   196781622.063         670.169          27.000  
C10  38483716.577   200394810.1371        564.766          29.000  
C25  22066568.632   114906440.680       -1731.024          31.000  
G31  21292533.586   111893245.135         176.107          28.000  
G32  21350792.854   112199257.3211        408.415          20.000  
> 2021  9 12 11  7 46.9989504  0  5
C07  37789630.183   196780484.919         668.221          25.000  
C10  38483513.318   200393777.179         564.833          29.000  
C25  22066812.963   114907703.566       -1731.599          32.000  
G10  20377915.962   107086663.8271      -1939.507          38.000  
G31  21292408.272   111892596.638         174.348          26.000  
> 2021  9 12 11  7 47.9989499  0  5
C07  37789350.777   196779036.904         666.574          29.000  
C10  38483252.499   200392432.632         563.621          27.000  
C25  22066995.537   114908654.726       -1732.001          31.000  
G10  20378136.909   107087816.311       -1942.147          38.000  
G31  21292224.799   111891634.222         175.353          25.000  
> 2021  9 12 11  7 48.9989496  0  4
C07  37789132.228   196777901.988         666.704          27.000  
C10  38483050.439   200391400.478         564.100          26.000  
C25  22067238.369   114909918.402       -1731.985          32.000  
G10  20378416.016   107089285.197       -1941.306          36.000  
> 2021  9 12 11  7 49.9989491  0  5
C07  37788853.421   196776454.537         667.197          30.000  
C10  38482791.418   200390055.775         563.820          29.000  
C25  22067420.043   114910869.905       -1732.095          32.000  
G10  20378633.965   107090439.426       -1942.753          34.000  
G32  21349986.412   112195098.0541        410.808          20.000  
> 2021  9 12 11  7 50.9989486  0  5
C07  37788574.614   196775006.478         667.769          30.000  
C10  38482532.997   200388710.840         564.267          28.000  
C25  22067602.916   114911822.731       -1733.393          33.000  
G10  20378853.114   107091593.911       -1941.966          33.000  
G32  21349754.373   112193900.190         409.317          20.000  
> 2021  9 12 11  7 51.9989481  0  5
C07  37788297.006   196773556.960         670.623          28.000  
C10  38482275.775   200387366.078         562.826          26.000  
C25  22067785.190   114912774.888       -1731.186          33.000  
G10  20379072.861   107092747.928       -1942.004          36.000  
G32  21349526.530   112192704.455         405.888          20.000  
> 2021  9 12 11  7 52.9989476  0  4
C07  37788020.598   196772107.132         668.692          24.000  
C10  38482018.253   200386022.586         563.097          27.000  
C25  22067969.563                       -1730.364          32.000  
G31  21291388.978   111887143.5851        172.004          23.000  
> 2021  9 12 11  7 53.9989473  0  6
C07  37787802.948   196770970.157         668.318          26.000  
C10  38481820.390   200384991.400         562.748          27.000  
C25  22068212.394   114914971.9251      -1732.945          32.000  
G10  20379572.915   107095372.4161      -1943.281          33.000  
G31  21291268.462   111886498.028         172.639          25.000  
G32  21349130.504   112190631.3651        404.977          21.000  
> 2021  9 12 11  7 54.9989468  0  5
C07  37787525.041   196769520.355         670.188          25.000  
C10  38481564.967   200383646.887         564.025          27.000  
C25  22068393.469   114915924.337       -1733.562          28.000  
G10  20379790.864   107096527.967       -1943.492          33.000  
G32  21348901.463   112189439.063         405.357          22.000  
> 2021  9 12 11  7 55.9989463  0  6
C07  37787245.934   196768070.226         668.718          29.000  
C10  38481307.445   200382301.769         564.622          28.000  
C25  22068574.244   114916877.052       -1733.786          23.000  
G10  20380011.512   107097684.253       -1945.189          32.000  
G25  20991775.796   110312526.0931      -1915.881          29.000  
G31  21290906.912   111884576.6921        172.560          23.000  
> 2021  9 12 11  7 56.9989460  0  5
C07  37787026.186   196766934.032         666.285          25.000  
C10  38481106.884   200381268.824         564.198          28.000  
G25  20992051.305   110313969.158       -1916.729          30.000  
G31  21290784.896   111883931.892         171.461          23.000  
G32  21348504.238   112187369.9741        402.956          19.000  
> 2021  9 12 11  7 57.9989455  0  3
C07  37786747.679   196765486.196         668.746          28.000  
C10  38480846.964   200379923.319         565.001          27.000  
G25  20992265.657   110315098.290       -1917.014          29.000  
> 2021  9 12 11  7 58.9989450  0  3
C07  37786468.572   196764036.978         668.735          30.000  
C10  38480587.943   200378577.019         565.919          27.000  
G10  20380728.915   107101470.8251      -1944.981          30.000  
> 2021  9 12 11  7 59.9989445  0  4
C07  37786190.665   196762586.933         670.232          27.000  
C10  38480329.822   200377230.223         566.133          27.000  
G10  20380948.363   107102628.245       -1945.625          31.000  
G25  20992699.457   110317358.0071      -1916.937          23.000  
> 2021  9 12 11  8  0.9989443  0  5
C07  37786001.495   196761604.725         669.637          24.000  
C10  38480161.638   200376352.188         565.583          27.000  
C25  22069653.497   114922434.7181      -1737.870          15.000  
G31  21290154.733   111880572.2371        169.877          22.000  
G32  21347684.006   112183063.3141        407.585          18.000  
> 2021  9 12 11  8  1.9989437  0  2
C07  37785693.009   196759998.343         669.679          30.000  
C10  38479872.638   200374848.698         566.631          22.000  
> 2021  9 12 11  8  2.9989432  0  2
C07  37785413.902   196758548.870         668.990          25.000  
G10  20381674.760   107106418.3961      -1946.497          23.000  
> 2021  9 12 11  8  3.9989430  0  4
C07  37785225.033   196757568.304         668.405          23.000  
C23  23137556.203   120483209.6051        870.242          29.000  
G10  20381985.645   107108049.422       -1946.454          22.000  
G32  21347071.230   112179793.6221        409.796          20.000  
> 2021  9 12 11  8  4.9989425  0  3
C07  37784944.127   196756118.192         670.119          24.000  
C23  23137239.023   120481558.405         870.646          29.000  
G10  20382207.791   107109208.731       -1947.745          22.000  
> 2021  9 12 11  8  5.9989420  0  5
C07  37784664.421   196754666.473         671.836          16.000  
C23  23136921.543   120479907.019         870.294          29.000  
G10  20382433.235   107110370.484       -1949.263          24.000  
G31  21289269.146   111876093.4251        169.859          24.000  
G32  21346612.548   112177395.8961        410.163          20.000  
> 2021  9 12 11  8  6.9989417  0  4
C23  23136664.321   120478568.890         869.731          31.000  
G10  20382713.541   107111848.023       -1950.393          25.000  
G31  21289144.732   111875451.486         168.013          22.000  
G32  21346444.664   112176513.410         410.368          20.000  
> 2021  9 12 11  8  7.9989412  0  5
C07  37784168.265   196752068.1071        673.738          17.000  
C23  23136346.840   120476918.034         870.280          25.000  
G10  20382939.585   107113011.878       -1952.885          24.000  
G31  21288960.659   111874495.969         167.545          21.000  
G32  21346218.920   112175317.138         407.569          20.000  
> 2021  9 12 11  8  8.9989407  0  3
C07  37783890.957   196750616.160         670.128          25.000  
C25  22071249.292   114930715.6851      -1739.786          16.000  
G10  20383167.427   107114177.308       -1953.680          24.000  
> 2021  9 12 11  8  9.9989402  0  3
C07  37783612.449   196749166.195         667.912          22.000  
C23  23135713.379   120473617.5671        869.564          20.000  
G10  20383386.575   107115342.332       -1951.165          23.000  
> 2021  9 12 11  8 10.9989396  0  2
G10  20383578.142   107116349.041       -1953.018          23.000  
G31  21288394.651   111871477.1121        164.697          14.000  
> 2021  9 12 11  8 11.9989394  0  2
G10  20383888.428   107117987.085       -1953.385          25.000  
G32  21345358.816   112170852.1141        405.938          23.000  
> 2021  9 12 11  8 12.9989391  0  3
C23  23134893.746   120469298.5691        862.891          17.000  
G10  20384170.832   107119467.964       -1953.488          24.000  
G32  21345192.731   112169974.118         405.786          20.000  
> 2021  9 12 11  8 13.9989386  0  3
C23  23134575.367   120467655.262         861.382          17.000  
G10  20384392.679   107120633.047       -1953.208          23.000  
G32  21344966.687   112168780.069         406.881          20.000  
> 2021  9 12 11  8 14.9989381  0  2
C07  37782346.726   196742541.3851        670.250          18.000  
G10  20384613.326   107121799.229       -1954.608          26.000  
> 2021  9 12 11  8 15.9989376  0  3
G10  20384833.374   107122965.545       -1954.366          23.000  
G31  21287635.277   111867483.7561        166.755          17.000  
G32  21344513.101   112166386.3711        407.954          19.000  
> 2021  9 12 11  8 16.9989371  0  3
C07  37781792.110   196739644.5041        666.099          19.000  
C23  23133633.419   120462723.7431        864.286          16.000  
G10  20385056.419   107124132.945       -1956.998          24.000  
> 2021  9 12 11  8 17.9989366  0  3
C07  37781514.202   196738197.288         666.595          20.000  
G10  20385280.364   107125300.411       -1956.088          23.000  
G31  21287283.620   111865576.5541        165.257          18.000  
> 2021  9 12 11  8 18.9989363  0  2
G10  20385562.769   107126785.024       -1958.406          23.000  
G32  21343889.533   112163118.2101        404.731          19.000  
> 2021  9 12 11  8 19.9989361  0  2
C23  23132844.365   120458574.2431        862.582          17.000  
G10  20385873.054   107128428.276       -1959.087          20.000  
> 2021  9 12 11  8 20.9989356  0  2
G10  20386096.699   107129598.603       -1957.404          23.000  
G32  21343516.591   112160936.5961        408.351          19.000  
> 2021  9 12 11  8 21.9989350  0  1
G10  20386290.365   107130610.394       -1958.164          22.000  
> 2021  9 12 11  8 22.9989345  0  2
G10  20386515.809   107131781.551       -1960.541          23.000  
G32  21343025.831   112158387.7501        409.652          20.000  
> 2021  9 12 11  8 23.9989340  0  1
G10  20386738.854   107132954.216       -1959.857          22.000  
> 2021  9 12 11  8 24.9989338  0  0
> 2021  9 12 11  8 25.9989332  0  2
G10  20387246.703   107135611.9001      -1958.880          21.000  
G31  21286028.389   111858920.8851        160.098          16.000  
> 2021  9 12 11  8 26.9989327  0  0
> 2021  9 12 11  8 27.9989325  0  0
> 2021  9 12 11  8 28.9989320  0  1
G32  21341806.275   112152000.6991        408.119          18.000  
> 2021  9 12 11  8 29.9989315  0  1
G31  21285393.429   111855582.7591        167.479          15.000  
> 2021  9 12 11  8 30.9989312  0  1
G10  20388513.026   107142265.2801      -1964.537          19.000  
> 2021  9 12 11  8 31.9989307  0  2
G10  20388739.669   107143442.665       -1965.222          18.000  
G32  21341186.604   112148727.9261        407.326          18.000  
> 2021  9 12 11  8 32.9989302  0  1
G31  21284906.866   111853031.4861        164.715          23.000  
> 2021  9 12 11  8 33.9989297  0  2
G10  20389191.756   107145793.3641      -1962.902          19.000  
G31  21284724.592   111852079.673         163.090          19.000  
> 2021  9 12 11  8 34.9989292  0  1
G32  21340499.480   112145142.7921        409.688          18.000  
> 2021  9 12 11  8 35.9989289  0  1
G31  21284415.206   111850496.6021        160.630          21.000  
> 2021  9 12 11  8 36.9989286  0  2
G31  21284292.291   111849863.567         160.311          21.000  
G32  21340162.213   112143380.2381        407.442          18.000  
> 2021  9 12 11  8 37.9989281  0  3
G10  20390233.835   107151401.2531      -1966.729          21.000  
G31  21284109.717   111848915.750         160.489          22.000  
G32  21339933.471   112142185.171         407.089          18.000  
> 2021  9 12 11  8 38.9989276  0  2
G10  20390457.180   107152581.955       -1968.459          21.000  
G32  21339701.732   112140991.418         404.837          19.000  
> 2021  9 12 11  8 39.9989271  0  2
G31  21283736.776   111847019.8671        159.415          28.000  
G32  21339476.288   112139800.113         399.716          18.000  
> 2021  9 12 11  8 40.9989266  0  0
> 2021  9 12 11  8 41.9989261  0  1
G31  21283368.930   111844857.6411        159.658          28.000  
> 2021  9 12 11  8 42.9989258  0  1
G31  21283242.418   111844226.337         158.879          25.000  
> 2021  9 12 11  8 43.9989256  0  2
G10  20391707.015   107159274.1161      -1969.956          20.000  
G31  21283151.281   111843752.036         159.315          29.000  
> 2021  9 12 11  8 44.9989251  0  2
G10  20391929.161   107160457.040       -1972.140          21.000  
G31  21282969.907   111842805.721         157.903          26.000  
> 2021  9 12 11  8 45.9989245  0  2
G10  20392118.630   107161483.681       -1972.340          21.000  
G31  21282758.553   111841702.463         157.843          28.000  
> 2021  9 12 11  8 46.9989240  0  2
G10  20392341.076   107162669.162       -1974.027          26.000  
G31  21282577.478   111840756.832         157.692          27.000  
> 2021  9 12 11  8 47.9989235  0  2
G10  20392566.220   107163855.690       -1974.928          29.000  
G31  21282397.003   111839811.746         156.776          29.000  
> 2021  9 12 11  8 48.9989233  0  2
G10  20392881.002   107165515.716       -1974.496          28.000  
G31  21282305.866   111839339.023         157.342          31.000  
> 2021  9 12 11  8 49.9989228  0  2
G10  20393104.947   107166702.944       -1975.431          26.000  
G31  21282124.492   111838394.252         156.860          31.000  
> 2021  9 12 11  8 50.9989222  0  1
G31  21281914.337   111837292.312         156.405          34.000  
> 2021  9 12 11  8 51.9989220  0  2
G10  20393618.492   107169397.2791      -1977.726          20.000  
G31  21281823.200   111836822.265         154.132          31.000  
> 2021  9 12 11  8 52.9989215  0  2
G31  21281646.023   111835879.472         156.253          32.000  
G32  21336797.043   112125722.8071        407.842          21.000  
> 2021  9 12 11  8 53.9989212  0  2
G10  20394132.636   107172092.1441      -1977.081          21.000  
G31  21281525.506   111835250.541         156.183          31.000  
> 2021  9 12 11  8 54.9989207  0  3
G10  20394363.176   107173284.121       -1980.525          22.000  
G31  21281346.231   111834307.199         155.092          28.000  
G32  21336394.721   112123647.7331        406.042          21.000  
> 2021  9 12 11  8 55.9989202  0  3
G10  20394588.320   107174475.246       -1978.179          23.000  
G31  21281169.353   111833364.913         154.307          31.000  
G32  21336164.481   112122454.180         405.374          21.000  
> 2021  9 12 11  8 56.9989197  0  2
G31  21280993.375   111832422.685         154.244          27.000  
G32  21335938.737   112121261.160         404.520          21.000  
> 2021  9 12 11  8 57.9989192  0  2
G10  20395036.510   107176859.4451      -1979.940          20.000  
G31  21280816.497   111831480.969         153.788          30.000  
> 2021  9 12 11  8 58.9989187  0  1
G31  21280638.421   111830539.449         152.910          29.000  
> 2021  9 12 11  8 59.9989187  0  2
G31  21280610.540   111830386.868         151.915          29.000  
G32  21335402.708   112118468.3251        408.118          21.000  
> 2021  9 12 11  9  0.9989181  0  1
G31  21280401.585   111829289.417         152.299          28.000  
> 2021  9 12 11  9  1.9989176  0  2
G31  21280220.810   111828350.701         150.937          29.000  
G32  21334913.747   112115921.4611        403.530          21.000  
> 2021  9 12 11  9  2.9989171  0  1
G31  21280040.035   111827411.094         152.284          28.000  
> 2021  9 12 11  9  3.9989166  0  2
G31  21279859.860   111826471.399         151.253          28.000  
G32  21334450.567   112113538.4351        403.734          21.000  
> 2021  9 12 11  9  4.9989161  0  2
G31  21279679.385   111825532.067         152.018          31.000  
G32  21334219.427   112112079.394         405.983          21.000  
> 2021  9 12 11  9  5.9989158  0  3
G10  20397045.419   107187348.3951      -1984.910          20.000  
G31  21279560.667   111824908.236         149.834          29.000  
G32  21334048.246   112111199.988         407.610          21.000  
> 2021  9 12 11  9  6.9989153  0  3
G10  20397272.362   107188544.927       -1983.191          21.000  
G31  21279382.290   111823972.020         146.848          28.000  
G32  21333820.104   112110005.247         404.732          21.000  
> 2021  9 12 11  9  7.9989151  0  1
G31  21279292.352   111823509.922         146.900          26.000  
> 2021  9 12 11  9  8.9989146  0  1
G10  20397817.984   107191411.9461      -1985.044          22.000  
> 2021  9 12 11  9  9.9989140  0  2
G10  20398014.049   107192452.218       -1985.787          25.000  
G32  21333198.634   112106741.8481        405.361          20.000  
> 2021  9 12 11  9 10.9989138  0  3
G10  20398330.030   107194124.012       -1988.042          26.000  
G31  21278823.177   111821023.6641        144.137          20.000  
G32  21333062.528   112106022.673         404.433          20.000  
> 2021  9 12 11  9 11.9989133  0  2
G10  20398557.273   107195324.377       -1988.156          30.000  
G32  21332831.688   112104828.770         405.593          21.000  
> 2021  9 12 11  9 12.9989128  0  2
G10  20398784.815   107196525.223       -1989.232          32.000  
G32  21332603.546   112103635.635         405.219          21.000  
> 2021  9 12 11  9 13.9989123  0  2
G10  20399011.158   107197726.792       -1989.636          34.000  
G32  21332372.706   112102443.829         404.484          24.000  
> 2021  9 12 11  9 14.9989117  0  2
G10  20399208.422   107198770.210       -1988.872          34.000  
G32  21332115.184   112101094.737         403.490          22.000  
> 2021  9 12 11  9 15.9989115  0  3
G10  20399525.902   107200444.750       -1990.959          33.000  
G31  21278025.130   111816674.9891        151.680          18.000  
G32  21331976.680   112100375.688         404.106          22.000  
> 2021  9 12 11  9 16.9989112  0  2
G10  20399814.602   107201963.009       -1991.238          32.000  
G32  21331811.494   112099497.991         404.536          21.000  
> 2021  9 12 11  9 17.9989107  0  2
G10  20400042.444   107203166.965       -1992.019          31.000  
G32  21331584.551   112098305.411         405.146          25.000  
> 2021  9 12 11  9 18.9989102  0  1
G10  20400270.287   107204371.731       -1992.543          31.000  
> 2021  9 12 11  9 19.9989097  0  1
G32  21331124.070   112095920.6881        404.183          26.000  
> 2021  9 12 11  9 20.9989092  0  2
G10  20400737.663   107206782.7301      -1994.598          36.000  
G32  21330896.827   112094728.915         404.222          28.000  
> 2021  9 12 11  9 21.9989089  0  3
C25  22086187.950   115008795.1821      -1758.358          31.000  
G10  20401027.563                       -1992.864          36.000  
G32  21330728.044   112093853.013         403.173          26.000  
> 2021  9 12 11  9 22.9989084  0  4
C25  22086374.421   115009772.550       -1757.891          30.000  
G10  20401250.608   107209330.2141      -1994.519          35.000  
G31  21276869.430   111810759.8181        144.693          24.000  
G32  21330499.902   112092661.655         403.769          25.000  
> 2021  9 12 11  9 23.9989082  0  3
C25  22086651.130   115011218.769       -1759.841          32.000  
G10  20401572.285   107211009.413       -1994.553          33.000  
G32  21330363.197   112091942.734         404.025          27.000  
> 2021  9 12 11  9 24.9989076  0  3
C25  22086809.420   115012041.919       -1759.855          32.000  
G10  20401769.849   107212059.212       -1995.416          29.000  
G32  21330105.675   112090593.032         404.652          29.000  
> 2021  9 12 11  9 25.9989071  0  2
C25  22086997.690   115013021.661       -1761.066          33.000  
G32  21329876.334   112089400.352         404.877          30.000  
> 2021  9 12 11  9 26.9989066  0  3
C25  22087186.859   115014001.628       -1760.868          31.000  
G10  20402230.929   107214476.0361      -1996.254          33.000  
G31  21276218.580   111807354.2101        139.267          22.000  
> 2021  9 12 11  9 27.9989064  0  3
C25  22087464.467   115015449.851       -1760.821          31.000  
G31  21276130.441   111806898.271         141.801          22.000  
G32  21329509.088   112087485.5011        405.321          32.000  
> 2021  9 12 11  9 28.9989059  0  4
C25  22087653.036   115016431.139       -1762.300          27.000  
G10  20402781.648   107217367.3061      -1998.153          29.000  
G31  21275951.465   111805968.372         142.811          25.000  
G32  21329283.344   112086293.094         403.905          31.000  
> 2021  9 12 11  9 29.9989053  0  4
C25  22087811.626   115017257.251       -1762.519          30.000  
G10  20402981.610   107218420.474       -1998.831          32.000  
G31  21275744.309   111804880.356         142.529          29.000  
G32  21329026.722   112084944.598         403.839          34.000  
> 2021  9 12 11  9 30.9989048  0  2
C25  22088000.495   115018239.275       -1763.105          35.000  
G10  20403210.951   107219631.490       -1998.183          35.000  
> 2021  9 12 11  9 31.9989046  0  5
C03  36480085.762   189961379.1541       -713.168          27.000  
C25  22088277.803   115019690.154       -1760.897          33.000  
G25  21014762.982   110433324.8291      -1972.539          25.000  
G31  21275476.594   111803492.6651        141.777          25.000  
G32  21328665.172   112083035.0921        402.330          29.000  
> 2021  9 12 11  9 32.9989043  0  4
C03  36480135.827   189961623.806        -713.191          31.000  
C25  22088526.331   115020983.459       -1763.252          30.000  
G10  20403820.429   107222841.0701      -2000.647          34.000  
G31  21275359.375   111802879.133         140.219          28.000  
> 2021  9 12 11  9 33.9989038  0 10
C03  36480126.234   189961556.325        -713.271          34.000  
C06  36693074.813   191070705.6151       -573.678          25.000  
C07  37761902.679   196636033.9611        668.339          32.000  
C16  37325485.804   194363598.9551       -532.039          32.000  
C23  23111032.365   120344991.8431        840.995          33.000  
C25  22088713.702   115021966.651       -1764.218          33.000  
C33  22559350.387   117472457.2581      -1871.601          27.000  
G10  20404055.466   107224053.532       -2001.338          33.000  
G25  21015260.338   110436011.0751      -1973.942          27.000  
G31  21275183.397   111801951.556         139.999          27.000  
> 2021  9 12 11  9 34.9989033  0 10
C06  36693035.540   191070498.756        -573.622          24.000  
C07  37761624.172   196634582.928         671.180          27.000  
C09  37726457.317   196451562.7011       -679.202          21.000  
C16  37325436.638   194363353.297        -533.430          31.000  
C23  23110720.281   120343370.455         841.079          33.000  
C25  22088903.470   115022950.629       -1765.076          34.000  
G10  20404286.007                       -2003.382          35.000  
G23  22354719.550   117474843.3951      -3862.330          25.000  
G25  21015486.981   110437197.683       -1974.929          27.000  
G31  21275008.018   111801024.223         139.402          28.000  
> 2021  9 12 11  9 35.9989028  0 11
C02  37169614.112                        -683.560          26.000  
C06  36692997.167   191070291.657        -572.638          30.000  
C07  37761348.962   196633130.138         673.636          29.000  
C16  37325389.271   194363104.638        -531.295          28.000  
C23  23110408.797   120341748.608         841.107          29.000  
C25  22089093.839   115023935.229       -1765.167          33.000  
C33  22559757.505   117474640.8291      -1873.950          23.000  
G10  20404519.845   107226460.2481      -2000.180          34.000  
G23  22355306.843   117477918.170       -3862.408          29.000  
G31  21274829.942   111800097.155         139.220          28.000  
G32  21327817.659   112078591.1831        402.538          27.000  
> 2021  9 12 11  9 36.9989023  0 10
C06  36692958.194   191070083.507        -572.586          30.000  
C07  37761070.155   196631676.110         673.056          31.000  
C09  37726414.447   196451359.2261       -677.574          13.000  
C16  37325339.805   194362855.044        -531.335          30.000  
C23  23110095.214   120340127.352         840.087          26.000  
C25  22089284.207   115024919.450       -1764.919          37.000  
G10  20404750.985   107227674.466       -2003.405          37.000  
G25  21015939.068   110439568.7921      -1974.867          25.000  
G31  21274648.567   111799169.935         139.485          20.000  
G32  21327592.215   112077400.720         401.967          31.000  
> 2021  9 12 11  9 37.9989018  0 10
C06  36692919.221   191069875.291        -572.581          31.000  
C07  37760792.547   196630223.312         670.916          32.000  
C09  37726392.262   196451255.897        -676.671          13.000  
C16  37325291.838   194362606.453        -532.131          30.000  
C23  23109783.130   120338507.186         839.321          23.000  
C25  22089479.072   115025904.161       -1766.691          36.000  
G10  20404981.825   107228889.306       -2002.415          36.000  
G23  22356482.629   117484074.5681      -3865.922          20.000  
G31  21274464.495   111798243.371         138.465          21.000  
G32  21327367.071   112076210.787         401.862          21.000  
> 2021  9 12 11  9 38.9989015  0 10
C06  36692939.906   191069979.248        -572.808          30.000  
C07  37760576.397   196629084.570         670.414          31.000  
C09  37726433.034   196451467.492        -682.521          12.000  
C16  37325304.429   194362669.418        -531.049          28.000  
C25  22089728.499                       -1764.528          37.000  
C33  22560442.531   117478227.6091      -1873.652          18.000  
G10  20405273.523   107230419.951       -2002.438          38.000  
G23  22357131.380   117487473.034       -3873.335          19.000  
G25  21016460.107   110442261.1191      -1977.214          23.000  
G32  21327200.087   112075335.964         401.973          28.000  
> 2021  9 12 11  9 39.9989012  0  5
C06  36692962.691   191070083.807        -572.406          27.000  
C07  37760358.748   196627944.863         671.664          30.000  
C25  22089977.627   115028309.8651      -1766.536          32.000  
G10  20405564.921   107231951.254       -2004.360          36.000  
G32  21327035.201   112074461.532         401.572          31.000  
> 2021  9 12 11  9 40.9989007  0  4
C06  36692921.919   191069874.957        -571.841          29.000  
C07  37760079.341   196626492.569         672.253          29.000  
C25  22090159.601   115029295.755       -1768.383          34.000  
G10  20405798.160   107233168.289       -2005.107          39.000  
> 2021  9 12 11  9 41.9989002  0  8
C06  36692880.847   191069665.922        -571.767          31.000  
C07  37759798.435   196625040.352         672.012          27.000  
C16  37325227.383   194362233.3131       -531.136          31.000  
C23  23108664.904   120332663.9531        832.730          20.000  
C25  22090345.172   115030282.023       -1766.336          37.000  
C33  22561123.060   117481822.8881      -1873.826          25.000  
G10  20406031.698   107234385.858       -2005.025          39.000  
G32  21326584.613                         402.286          34.000  
> 2021  9 12 11  9 42.9988997  0  8
C06  36692839.476   191069457.537        -572.792          31.000  
C07  37759519.029   196623587.664         672.497          28.000  
C16  37325179.416   194361983.560        -530.530          30.000  
C23  23108357.617   120331050.548         833.353          19.000  
C25  22090536.740   115031268.609       -1766.643          36.000  
C33  22561329.916   117482917.380       -1875.562          24.000  
G10  20406263.438   107235604.010       -2006.795          38.000  
G32  21326364.265   112070768.5691        399.901          34.000  
> 2021  9 12 11  9 43.9988992  0 12
C02  37169617.110   193551950.0661       -697.711          30.000  
C06  36692798.704   191069249.290        -572.272          31.000  
C07  37759240.222   196622135.712         671.014          31.000  
C16  37325129.650   194361733.670        -530.941          28.000  
C25  22090728.607   115032255.608       -1767.119          37.000  
C33  22561541.570   117484012.825       -1876.631          24.000  
E01  23672992.129   124402412.5801        485.622          34.000  
G10  20406492.479   107236822.887       -2007.917          38.000  
G25  21017646.086   110448532.9801      -1980.661          27.000  
G31  21273537.536   111793324.1341        135.830          26.000  
G32  21326137.922                         401.471          33.000  
J02  38204412.536   200765542.6761      -1469.030          28.000  
> 2021  9 12 11  9 44.9988989  0 11
C06  36692817.891   191069353.180        -572.823          31.000  
C07  37759021.074   196620996.638         670.590          30.000  
C16  37325139.843   194361796.163        -530.936          28.000  
C25  22090977.734   115033555.188       -1767.332          36.000  
C33  22561812.282   117485420.207       -1877.067          24.000  
E01  23672810.155   124401456.954         483.026          32.000  
G10  20406785.976   107238357.531       -2007.411          37.000  
G25  21017932.388   110450041.219       -1981.339          28.000  
G31  21273421.817   111792715.924         135.467          24.000  
G32  21325963.443   112068706.7011        400.173          31.000  
J02  38204603.204   200766539.465       -1469.847          29.000  
> 2021  9 12 11  9 45.9988984  0 12
C02  37169646.189   193552093.7311       -695.414          31.000  
C06  36692778.318   191069144.847        -572.057          31.000  
C07  37758741.367   196619545.422         670.823          32.000  
C10  38455046.225   200245516.9681        571.739          24.000  
C16  37325090.078   194361545.563        -530.973          28.000  
C25  22091167.803   115034542.752       -1767.788          37.000  
E01  23672567.622   124400182.244         485.231          33.000  
G10  20407016.516   107239577.650       -2008.831          37.000  
G25  21018160.530   110451235.046       -1981.838          29.000  
G31  21273247.937   111791792.914         134.937          24.000  
G32  21325736.500   112067518.454         401.267          30.000  
J02  38204734.812   200767221.915       -1470.379          29.000  
> 2021  9 12 11  9 46.9988979  0 12
C02  37169630.001   193552008.256        -694.685          31.000  
C06  36692736.647   191068936.037        -571.366          32.000  
C07  37758462.560   196618093.910         670.918          31.000  
C09  37726409.950   196451336.8181       -685.977          17.000  
C10  38454787.505   200244163.945         572.554          22.000  
C16  37325041.511   194361296.318        -530.895          29.000  
C23  23107149.753   120324898.1921        836.510          26.000  
C25  22091356.672   115035530.838       -1769.659          37.000  
G10  20407244.958   107240798.478       -2008.037          37.000  
G25  21018386.574   110452429.192       -1982.295          28.000  
G32  21325509.557   112066329.677         401.202          27.000  
J02  38204864.323   200767904.782       -1470.297          29.000  
> 2021  9 12 11  9 47.9988977  0 13
C02  37169702.251   193552390.386        -694.079          33.000  
C06  36692784.314   191069195.271        -571.745          31.000  
C07  37758272.792   196617111.389         669.989          31.000  
C10  38454616.023   200243279.374         571.708          23.000  
C16  37325080.484   194361515.850        -532.401          27.000  
C23  23106928.806   120323749.743         836.291          27.000  
C25  22091636.678   115036987.647       -1768.550          36.000  
C33  22562545.575   117489177.5961      -1878.453          26.000  
E01  23672177.293   124398130.4501        482.612          32.000  
G10  20407568.135   107242492.585       -2009.580          36.000  
G25  21018703.155   110454096.704       -1983.005          27.000  
G31  21272987.117   111790420.4981        134.746          21.000  
J02  38205083.471   200769059.509       -1469.516          30.000  
> 2021  9 12 11  9 48.9988972  0 13
C02  37169683.963   193552303.606        -693.720          32.000  
C06  36692745.041   191068985.316        -570.530          32.000  
C07  37757993.985   196615660.695         670.548          31.000  
C10  38454356.403   200241927.502         570.885          23.000  
C16  37325030.119   194361267.399        -532.466          28.000  
C23  23106616.422   120322133.144         835.805          27.000  
C25  22091828.845   115037976.431       -1769.509          37.000  
E01  23671935.360   124396859.740         483.615          33.000  
G10  20407801.673   107243714.793       -2010.283          37.000  
G25  21018930.097   110455292.400       -1983.916          26.000  
G31  21272812.638   111789499.046         133.409          24.000  
G32  21325150.106   112064424.7551        399.658          25.000  
J02  38205213.281   200769741.493       -1469.524          29.000  
> 2021  9 12 11  9 49.9988969  0 12
C02  37169725.934   193552528.792        -693.470          31.000  
C06  36692764.528   191069088.049        -570.219          32.000  
C07  37757775.436   196614521.840         671.277          31.000  
C10  38454157.641   200240888.452         570.705          22.000  
C16  37325042.711   194361331.758        -532.304          29.000  
C25  22092078.272   115039278.000       -1770.571          37.000  
C33  22563028.540   117491681.9801      -1876.781          23.000  
E01  23671751.887   124395895.114         483.912          33.000  
G10  20408093.671   107245252.329       -2010.995          37.000  
G31  21272701.115   111788893.352         132.400          24.000  
G32  21324981.323   112063551.897         400.217          28.000  
J02  38205403.350   200770738.339       -1469.214          30.000  
> 2021  9 12 11  9 50.9988964  0 10
C02  37169707.647   193552441.760        -693.704          30.000  
C06  36692719.859   191068877.970        -572.103          27.000  
C07  37757497.828   196613070.421         670.164          31.000  
C16  37324996.842   194361083.093        -531.959          28.000  
C23  23106056.110   120319212.8561        834.770          29.000  
C25  22092266.242   115040267.612       -1770.095          32.000  
E01  23671502.460   124394584.404         482.762          32.000  
G10  20408326.010   107246475.999       -2012.022          37.000  
G31  21272528.735   111787973.791         131.517          26.000  
G32  21324755.579   112062363.974         400.004          31.000  
> 2021  9 12 11  9 51.9988959  0 12
C06  36692678.787   191068406.407        -571.419          25.000  
C07  37757219.021   196611620.566         669.219          28.000  
C10  38453641.098   200238190.9901        568.344          14.000  
C16  37324950.375   194360834.162        -530.944          33.000  
C23  23105746.125   120317597.803         834.433          30.000  
C25  22092455.711   115041257.461       -1770.322          30.000  
G10  20408565.844   107247699.591       -2013.009          34.000  
G25  21019676.581   110459200.3621      -1987.402          26.000  
G31  21272353.956   111787054.386         131.911          30.000  
G32  21324527.437   112061176.303         400.004          29.000  
J02  38205665.068   200772099.4681      -1467.292          24.000  
R12  19643362.083   104931313.6721      -2804.597          26.000  
> 2021  9 12 11  9 52.9988954  0 11
C06  36692639.214   191068197.428        -571.714          27.000  
C07  37756941.413   196610170.270         669.905          30.000  
C16  37324901.808   194360584.332        -530.709          33.000  
C25  22092645.180   115042247.715       -1770.990          31.000  
C33  22563667.098   117494971.6791      -1879.247          22.000  
G10  20408799.682   107248924.426       -2010.728          37.000  
G25  21019906.222   110460400.157       -1987.639          29.000  
G31  21272180.076   111786133.877         132.949          24.000  
G32  21324301.693   112059988.545         399.671          31.000  
J02  38205792.780   200772779.665       -1468.723          27.000  
R12  19643739.822   104933331.898       -2803.940          26.000  
> 2021  9 12 11  9 53.9988948  0  8
C06  36692569.663   191067832.439        -571.275          28.000  
C07  37756633.826   196608563.280         671.492          30.000  
C10  38453095.176   200235335.1971        571.959          17.000  
C16  37324822.363   194360178.349        -531.110          35.000  
C25  22092807.068   115043082.329       -1770.732          35.000  
C33  22563846.374   117495914.977       -1879.911          28.000  
G31  21271976.217   111785055.451         132.537          22.000  
J02  38205892.311   200773304.154       -1470.129          30.000  
> 2021  9 12 11  9 54.9988943  0 11
C06  36692530.390   191067622.978        -572.223          28.000  
C07  37756353.520   196607112.336         670.047          22.000  
C10  38452835.256   200233983.267         570.569          17.000  
C16  37324784.589   194359928.602        -529.556          32.000  
C23  23104796.682   120312601.7921        831.363          27.000  
C25  22093000.134   115044073.085       -1772.593          35.000  
C33  22564056.529   117497015.014       -1882.304          24.000  
G10  20409238.278   107251219.3071      -2013.232          29.000  
G32  21323829.520   112057457.7211        393.133          38.000  
J02  38206022.121   200773986.221       -1469.926          31.000  
R12  19644449.131   104937120.6111      -2807.640          25.000  
> 2021  9 12 11  9 55.9988943  0  8
C06  36692641.013   191068195.038        -572.960          27.000  
C07  37756227.308   196606441.884         670.545          22.000  
C16  37324887.118   194360459.363        -531.145          26.000  
C25  22093340.699   115045845.720       -1772.340          27.000  
G10  20409620.514   107253232.646       -2013.705          33.000  
G32  21323754.272   112057059.513         399.461          31.000  
J02  38206302.127   200775457.082       -1471.232          29.000  
R12  19644970.170   104939903.523       -2805.055          21.000  
> 2021  9 12 11  9 56.9988938  0  8
C06  36692600.541   191067986.630        -572.231          24.000  
C07  37755951.199   196604991.507         670.219          23.000  
C16  37324834.655   194360209.734        -530.708          23.000  
C25  22093530.767   115046837.753       -1772.964          30.000  
G10  20409852.553   107254459.089       -2015.347          40.000  
G32  21323526.730   112055872.271         399.510          36.000  
J02  38206431.938   200776140.735       -1471.744          30.000  
R12  19645348.508   104941925.168       -2807.952          21.000  
> 2021  9 12 11  9 57.9988933  0 13
C06  36692559.769   191067777.931        -571.766          26.000  
C07  37755671.193   196603540.187         671.654          24.000  
C09  37726471.108   196451624.1351       -676.039          24.000  
C10  38452199.696   200230708.4121        571.653          19.000  
C13  37661396.658   196112774.4781      -2426.745          26.000  
C16  37324784.889   194359959.924        -531.002          29.000  
C23  23104023.517   120308551.5691        830.097          25.000  
C25  22093719.336   115047829.063       -1771.861          28.000  
G10  20410083.993   107255686.526       -2014.382          40.000  
G25  21021181.239   110467037.3491      -1990.033          27.000  
G32  21323300.986   112054683.907         404.047          36.000  
J02  38206562.047   200776824.600       -1471.633          29.000  
R12  19645727.146   104943947.534       -2804.677          21.000  
> 2021  9 12 11  9 58.9988928  0 11
C06  36692521.396   191067568.216        -570.397          26.000  
C07  37755392.386   196602088.635         670.190          24.000  
C09  37726450.722   196451519.933        -677.353          28.000  
C13  37661709.341   196114419.245       -2424.791          22.000  
C16  37324736.323   194359710.478        -530.876          29.000  
C23  23103714.132   120306940.751         830.141          30.000  
C25  22093909.405   115048821.141       -1773.085          29.000  
C33  22565053.039   117502210.0731      -1884.113          25.000  
G32  21323074.643   112053492.886         402.930          28.000  
J02  38206692.457   200777508.043       -1470.474          31.000  
R12  19646097.390   104945925.109       -2802.719          22.000  
> 2021  9 12 11  9 59.9988923  0  9
C07  37755117.476   196600638.209         669.783          22.000  
C09  37726429.436   196451417.611        -678.637          27.000  
C13  37662020.826   196116062.687       -2423.296          23.000  
C16  37324687.157   194359460.664        -530.977          28.000  
C25  22094103.670   115049814.047       -1774.111          30.000  
G10  20410551.369   107258142.7281      -2017.135          31.000  
G32  21322850.398   112052303.106         401.422          23.000  
J02  38206822.567   200778190.856       -1471.822          34.000  
R12  19646465.235   104947889.885       -2801.930          20.000  
> 2021  9 12 11 10  0.9988918  0 13
C06  36692438.054   191067147.4121       -569.939          25.000  
C09  37726408.451   196451315.876        -678.670          28.000  
C10  38451417.238   200226650.1951        572.971          18.000  
C13  37662334.408   196117705.722       -2423.862          23.000  
C16  37324637.991   194359211.448        -531.627          26.000  
C23  23103102.855   120303718.3261        831.198          31.000  
C25  22094295.238   115050807.651       -1774.634          32.000  
C33  22565470.950   117504415.8961      -1882.798          23.000  
G10  20410784.608   107259372.339       -2017.992          31.000  
G25  21021860.569   110470645.5541      -1991.520          28.000  
G32  21322624.654   112051114.042         400.002          27.000  
J02  38206950.878   200778874.361       -1470.965          32.000  
R12  19646835.479   104949868.388       -2805.846          21.000  
> 2021  9 12 11 10  1.9988915  0 12
C07  37754627.315   196598052.3931        667.308          23.000  
C09  37726447.724   196451525.891        -678.160          27.000  
C10  38451218.176   200225610.509         569.560          18.000  
C13  37662708.250   196119661.385       -2424.931          22.000  
C16  37324647.884   194359274.281        -530.708          28.000  
C23  23102853.427   120302419.221         830.625          30.000  
C25  22094544.665   115052113.942       -1774.146          31.000  
C33  22565740.463   117505829.711       -1883.197          23.000  
G25  21022148.969   110472164.742       -1992.402          32.000  
G32  21322456.770   112050242.137         399.555          24.000  
J02  38207142.745   200779872.560       -1471.823          36.000  
R12  19647271.677   104952198.422       -2808.887          24.000  
> 2021  9 12 11 10  2.9988910  0 10
C07  37754346.410   196596603.464         669.913          25.000  
C09  37726426.438   196451423.537        -677.938          26.000  
C16  37324599.318   194359024.075        -530.714          29.000  
C23  23102544.341   120300808.267         830.297          27.000  
C25  22094734.134   115053107.102       -1774.219          29.000  
C33  22565953.915   117506932.462       -1883.255          25.000  
G25  21022377.411   110473369.782       -1993.292          32.000  
G31  21270621.455   111777894.8811        128.506          27.000  
J02  38207272.855   200780556.143       -1470.479          34.000  
R12  19647658.709   104954266.085       -2810.128          21.000  
> 2021  9 12 11 10  3.9988908  0  9
C06  36692476.127   191067296.5391       -569.169          21.000  
C09  37726494.791   196451788.105        -676.737          25.000  
C13  37663425.053   196123421.6251      -2427.820          19.000  
C25  22095012.941   115054568.361       -1772.693          28.000  
C33  22566258.804   117508503.831       -1883.968          28.000  
G10  20411641.714   107263853.0851      -2020.213          36.000  
G25  21022695.191   110475047.600       -1993.902          31.000  
J02  38207491.704                       -1470.952          34.000  
R12  19648122.488   104956743.324       -2811.242          21.000  
> 2021  9 12 11 10  4.9988902  0 11
C06  36692404.777   191066928.418        -568.879          23.000  
C07  37753846.656   196594014.7331        669.546          26.000  
C09  37726444.426   196451527.828        -675.807          25.000  
C25  22095169.432   115055404.372       -1773.567          27.000  
C33  22566446.174   117509452.097       -1885.546          24.000  
G10  20411848.571                       -2020.651          38.000  
G23  22372853.096   117570276.0331      -3871.130          20.000  
G31  21270335.753   111776377.9921        127.614          28.000  
G32  21321834.401   112046995.7261        399.195          26.000  
J02  38207592.434   200782249.6691      -1472.248          35.000  
R12  19648457.056   104958530.571       -2802.458          18.000  
> 2021  9 12 11 10  5.9988897  0 11
C06  36692363.405   191066715.931        -568.362          19.000  
C07  37753566.350   196592565.242         668.731          21.000  
C09  37726424.640   196451422.616        -675.333          26.000  
C16  37324521.671   194358586.0151       -530.300          28.000  
C23  23101684.537   120296291.7391        827.978          26.000  
C25  22095360.100   115056398.254       -1775.252          28.000  
C33  22566658.727   117510557.371       -1886.688          25.000  
G10  20412079.711   107266220.5031      -2022.100          39.000  
G31  21270162.773   111775462.782         127.375          29.000  
G32  21321608.358   112045808.782         398.944          24.000  
J02  38207722.844   200782932.771       -1471.279          35.000  
> 2021  9 12 11 10  6.9988892  0 12
C06  36692323.533   191066504.172        -569.280          27.000  
C09  37726405.453   196451317.617        -675.680          29.000  
C16  37324472.805   194358335.597        -530.461          25.000  
C23  23101370.654   120294683.010         828.200          30.000  
C25  22095552.267   115057393.510       -1776.467          31.000  
C33  22566873.079   117511663.899       -1887.744          27.000  
G10  20412317.147   107267454.088       -2022.379          39.000  
G23  22374029.781   117576443.9541      -3873.315          22.000  
G25  21023348.139   110478439.3161      -1997.155          30.000  
G32  21321382.614   112044622.397         398.095          29.000  
J02  38207853.553   200783615.839       -1471.644          34.000  
R12  19649224.225   104962628.1811      -2811.994          26.000  
> 2021  9 12 11 10  7.9988887  0 13
C06  36692283.061   191066293.137        -569.981          27.000  
C09  37726387.166   196451212.286        -675.837          28.000  
C16  37324424.239   194358085.743        -530.618          25.000  
C23  23101058.870   120293074.717         827.655          29.000  
C25  22095744.135   115058389.146       -1776.415          32.000  
C33  22567088.630   117512771.329       -1888.024          22.000  
E01  23667641.133   124374292.6701        474.004          29.000  
G10  20412549.786   107268688.192       -2022.278          38.000  
G25  21023567.887   110479647.714       -1993.770          27.000  
G31  21269810.816   111773633.7581        126.523          28.000  
G32  21321157.770   112043436.899         397.553          30.000  
J02  38207982.464   200784298.944       -1471.239          34.000  
R12  19649602.863   104964651.010       -2813.699          28.000  
> 2021  9 12 11 10  8.9988884  0 12
C06  36692302.847   191066394.374        -569.097          26.000  
C07  37752785.091   196588532.5781        666.050          18.000  
C09  37726426.738   196451419.877        -675.784          26.000  
C16  37324435.331   194358146.330        -528.265          23.000  
C23  23100806.444   120291778.666         827.534          28.000  
C25  22095995.061   115059696.819       -1776.116          30.000  
C33  22567358.443   117514190.765       -1887.664          27.000  
E01  23667461.557   124373349.044         474.494          27.000  
G10  20412844.482   107270237.869       -2020.963          36.000  
G31  21269696.895   111773034.788         126.344          30.000  
J02  38208176.130   200785297.192       -1470.759          31.000  
R12  19650037.262   104966971.967       -2812.171          24.000  
> 2021  9 12 11 10  9.9988879  0 12
C07  37752507.783   196587085.451         666.514          25.000  
C09  37726406.352   196451315.406        -676.206          25.000  
C13  37665358.715   196133455.1441      -2426.495          21.000  
C16  37324390.062   194357894.744        -529.217          30.000  
C23  23100495.859   120290170.702         826.251          28.000  
C25  22096186.628   115060692.582       -1776.693          31.000  
C33  22567572.195   117515297.850       -1888.108          22.000  
E01  23667222.323   124372092.334         473.371          29.000  
G10  20413076.221   107271473.431       -2023.969          36.000  
G31  21269523.915   111772120.935         125.654          30.000  
J02  38208305.940   200785980.279       -1468.482          37.000  
R12  19650412.303   104968975.395       -2814.324          20.000  
> 2021  9 12 11 10 10.9988874  0 14
C06  36692224.901   191065972.0441       -568.636          22.000  
C07  37752231.074   196585637.797         667.974          24.000  
C09  37726387.465   196451210.635        -675.747          28.000  
C13  37665673.197   196135100.864       -2426.021          23.000  
C16  37324343.595   194357643.016        -528.836          29.000  
C23  23100187.073   120288563.288         827.274          33.000  
C25  22096378.196   115061688.646       -1776.410          29.000  
C33  22567784.448   117516405.302       -1887.456          23.000  
E01  23666984.887   124370844.624         475.565          30.000  
G10  20413316.655   107272709.336       -2025.707          35.000  
G25  21024324.563   110483590.6641      -1998.109          22.000  
G32  21320543.495   112040199.5881        395.512          25.000  
J02  38208433.052   200786663.098       -1470.432          32.000  
R12  19650791.540   104971001.025       -2814.495          24.000  
> 2021  9 12 11 10 11.9988872  0 15
C03  36480349.280   189962751.7381       -711.316          33.000  
C06  36692276.166   191066228.598        -568.997          25.000  
C07  37752041.905   196584657.434         668.857          27.000  
C09  37726459.116   196451575.101        -676.989          27.000  
C13  37666080.015   196137213.742       -2425.113          25.000  
C16  37324384.366   194357859.370        -528.237          31.000  
C23  23099967.325   120287424.058         826.661          33.000  
C25  22096658.801   115063152.997       -1776.797          30.000  
C33  22568086.939   117517980.961       -1887.950          26.000  
E01  23666840.088   124370083.540         474.599          28.000  
G10  20413642.829   107274415.148       -2021.694          30.000  
G25  21024647.739   110485273.976       -1998.507          23.000  
G31  21269259.798   111770767.4931        124.903          25.000  
G32  21320409.188   112039488.545         396.358          28.000  
J02  38208653.100   200787818.354       -1472.002          34.000  
> 2021  9 12 11 10 12.9988867  0 14
C03  36480337.588   189962682.161        -710.997          33.000  
C06  36692236.293   191066016.984        -569.082          26.000  
C07  37751764.897   196583205.813         672.478          25.000  
C09  37726439.030   196451471.244        -675.773          28.000  
C13  37666397.196   196138858.801       -2426.822          28.000  
C16  37324336.100   194357607.271        -528.700          30.000  
C23  23099657.040   120285816.640         827.677          34.000  
C25  22096851.568   115064149.225       -1777.027          31.000  
C33  22568299.491   117519088.471       -1888.627          27.000  
E01  23666599.954   124368821.830         472.085          33.000  
G25  21024881.877   110486485.213       -1999.624          20.000  
G31  21269083.520   111769855.064         124.498          25.000  
J02  38208784.409   200788501.414       -1471.217          34.000  
R12  19651650.445   104975588.8321      -2815.948          23.000  
> 2021  9 12 11 10 13.9988864  0 16
C03  36480385.854   189962924.606        -710.831          36.000  
C06  36692254.581   191066117.768        -569.608          30.000  
C07  37751548.147   196582066.399         669.438          24.000  
C09  37726479.802   196451678.502        -676.087          29.000  
C13  37666775.234   196140817.329       -2427.453          27.000  
C16  37324348.991   194357667.732        -529.946          29.000  
C23  23099409.711                         824.856          32.000  
C25  22097104.893   115065458.031       -1777.423          35.000  
C33  22568572.303   117520508.047       -1887.805          28.000  
E01  23666419.179   124367871.204         470.326          32.000  
G10  20414168.365   107277203.5121      -2026.264          36.000  
G25  21025176.873   110488012.294       -1999.974          24.000  
G31  21268966.601   111769257.697         124.659          27.000  
G32  21320015.860   112037432.9031        399.102          29.000  
J01  37557965.861   197368442.6651        443.971          25.000  
J02  38208967.582   200789499.659       -1470.035          32.000  
> 2021  9 12 11 10 14.9988859  0 17
C03  36480374.762   189962854.625        -710.655          35.000  
C06  36692213.509   191065905.915        -568.031          28.000  
C07  37751270.239   196580616.512         669.223          26.000  
C09  37726459.715   196451573.683        -675.223          28.000  
C13  37667094.213   196142463.947       -2426.935          27.000  
C16  37324301.923   194357416.941        -529.916          30.000  
C23  23099103.623   120283080.9711        823.438          32.000  
C25  22097297.659   115066455.004       -1778.363          35.000  
C33  22568786.354   117521616.250       -1889.138          30.000  
E01  23666178.446   124366606.494         472.695          32.000  
G10  20414401.304   107278441.843       -2026.148          37.000  
G25  21025411.610   110489225.113       -2000.776          23.000  
G31  21268792.122   111768345.294         124.748          29.000  
G32  21319791.915   112036245.490         400.186          29.000  
J01  37557732.023   197367211.499         442.934          25.000  
J02  38209099.491   200790182.796       -1470.228          31.000  
R12  19652479.372   104980017.0921      -2814.319          24.000  
> 2021  9 12 11 10 15.9988854  0 16
C03  36480361.871   189962784.649        -711.006          32.000  
C06  36692171.538   191065693.041        -568.757          27.000  
C07  37750992.332   196579167.393         667.717          27.000  
C09  37726440.229   196451468.689        -675.528          28.000  
C13  37667411.094   196144110.066       -2425.191          22.000  
C16  37324254.556   194357165.905        -528.945          32.000  
C23  23098789.741   120281474.894         826.186          33.000  
C25  22097490.725   115067452.187       -1777.576          32.000  
C33  22568999.807   117522726.079       -1891.150          28.000  
G10  20414634.842   107279679.944       -2025.446          37.000  
G25  21025643.050   110490438.783       -2001.736          25.000  
G31  21268618.842   111767432.534         125.119          27.000  
G32  21319567.371   112035058.514         398.306          27.000  
J01  37557495.787   197365981.071         442.693          24.000  
J02  38209229.601   200790866.208       -1471.037          34.000  
R12  19652857.710   104982037.970       -2813.301          23.000  
> 2021  9 12 11 10 16.9988849  0 15
C03  36480349.280   189962715.266        -711.341          31.000  
C06  36692132.265   191065480.195        -567.220          21.000  
C07  37750715.024   196577719.227         667.812          24.000  
C09  37726419.843   196451362.508        -674.163          28.000  
C13  37667728.274   196145754.552       -2425.074          25.000  
C16  37324206.290   194356914.184        -529.098          29.000  
C23  23098485.751   120279868.817         824.958          29.000  
C25  22097681.693   115068449.687       -1778.076          29.000  
C33  22569214.158   117523836.491       -1891.614          24.000  
E01  23665703.874   124364113.0741        471.843          29.000  
G10  20414871.678   107280917.954       -2026.062          32.000  
G25  21025872.691   110491652.867       -2001.911          28.000  
G31  21268444.362   111766520.020         124.249          28.000  
G32  21319342.526   112033872.514         398.663          30.000  
J02  38209365.707   200791549.306       -1470.332          33.000  
> 2021  9 12 11 10 17.9988844  0 13
C03  36480336.688   189962646.066        -707.055          29.000  
C06  36692092.693   191065267.209        -568.335          25.000  
C07  37750434.418   196576270.796         667.258          25.000  
C09  37726400.656   196451254.869        -672.504          25.000  
C13  37668043.356   196147400.655       -2427.029          21.000  
C16  37324161.920   194356661.480        -527.189          28.000  
C23  23098177.864   120278263.174         824.484          30.000  
C25  22097874.760   115069447.742       -1777.308          31.000  
E01  23665464.340   124362854.364         470.875          33.000  
G10  20415114.211                       -2027.653          36.000  
G31  21268269.883   111765608.350         123.589          27.000  
G32  21319114.684   112032685.565         398.292          30.000  
J02  38209490.120   200792232.201       -1471.570          34.000  
> 2021  9 12 11 10 18.9988838  0 12
C06  36692022.541   191064897.498        -567.494          20.000  
C09  37726350.591   196450991.424        -673.446          27.000  
C13  37668329.058   196148890.418       -2426.100          25.000  
C16  37324086.672   194356252.345        -527.970          29.000  
C23  23097839.399   120276501.722         824.004          29.000  
C25  22098035.448   115070288.008       -1777.538          25.000  
E01  23665195.126   124361439.112         470.958          29.000  
G10  20415321.067                       -2027.282          36.000  
G25  21026293.600   110493924.6511      -2003.053          29.000  
G31  21268065.125   111764539.653         123.449          27.000  
G32  21318858.062   112031341.292         398.723          24.000  
J02  38209592.649   200792757.681       -1471.661          31.000  
> 2021  9 12 11 10 19.9988838  0 12
C06  36692132.865   191065465.205        -568.911          26.000  
C07  37749994.623   196573994.9291        670.651          23.000  
C09  37726480.101   196451665.483        -674.107          29.000  
C13  37668795.236   196151315.938       -2424.772          28.000  
C23  23097678.110   120275677.606         824.062          29.000  
C25  22098376.312   115072066.067       -1778.750          33.000  
C33  22569973.832   117527787.1681      -1888.929          23.000  
G10  20415702.403                       -2028.954          36.000  
G25  21026674.936   110495928.021       -2003.632          28.000  
G31  21268041.441   111764416.402         123.002          30.000  
G32  21318781.315   112030943.161         397.435          34.000  
J02  38209875.054   200794228.287       -1469.277          32.000  
> 2021  9 12 11 10 20.9988833  0 10
C02  37169785.293   193552824.6211       -691.806          30.000  
C07  37749717.015   196572544.271         669.228          24.000  
C09  37726460.315   196451559.217        -674.449          28.000  
C13  37669110.617   196152960.845       -2426.141          28.000  
C23  23097369.024   120274073.322         823.506          31.000  
C25  22098564.882   115073064.114       -1778.366          28.000  
C33  22570190.882   117528897.065       -1891.477          25.000  
G10  20415940.738   107286502.0261      -2029.830          35.000  
G25  21026905.476   110497144.187       -2004.749          27.000  
G31  21267865.163   111763506.371         122.085          30.000  
> 2021  9 12 11 10 21.9988828  0 13
C03  36480405.041   189962986.9971       -712.219          32.000  
C06  36692050.422   191065044.1261       -569.252          22.000  
C07  37749437.908   196571094.278         670.555          23.000  
C09  37726439.629   196451453.803        -676.337          28.000  
C13  37669426.599   196154606.236       -2425.769          27.000  
C16  37324093.268   194356274.4591       -527.633          24.000  
C23  23097060.238   120272468.774         824.398          30.000  
C25  22098755.850   115074062.927       -1779.732          28.000  
G10  20416179.373   107287743.990       -2031.183          38.000  
G25  21027136.316   110498361.877       -2005.580          28.000  
G31  21267690.085   111762596.719         122.168          28.000  
G32  21318331.027   112028571.9291        397.503          29.000  
J02  38210132.875   200795593.9951      -1470.428          34.000  
> 2021  9 12 11 10 22.9988823  0 12
C03  36480393.349   189962918.784        -712.697          32.000  
C06  36692008.751   191064832.877        -569.118          23.000  
C09  37726421.042   196451350.040        -677.398          24.000  
C13  37669744.079   196156251.809       -2425.869          25.000  
C16  37324045.901   194356021.811        -527.677          28.000  
C23  23096752.651   120270864.529         823.312          30.000  
C25  22098948.316   115075062.203       -1780.421          28.000  
G10  20416415.909   107288986.655       -2030.607          36.000  
G25  21027364.758   110499580.753       -2006.778          26.000  
G31  21267516.804   111761686.602         122.420          29.000  
G32  21318104.383   112027386.494         398.146          29.000  
J02  38210261.187   200796276.707       -1469.630          36.000  
> 2021  9 12 11 10 23.9988818  0 11
C03  36480381.358   189962851.133        -713.362          29.000  
C06  36691967.380   191064620.344        -567.325          25.000  
C09  37726400.956   196451246.260        -676.089          27.000  
C13  37670063.358   196157897.794       -2427.363          25.000  
C16  37324000.932   194355768.729        -527.355          27.000  
C23  23096446.263   120269261.371         822.491          29.000  
C25  22099139.884   115076063.052       -1782.220          29.000  
G10  20416650.647   107290230.579       -2031.462          38.000  
G25  21027595.598   110500800.692       -2007.808          26.000  
G31  21267344.424   111760776.542         122.322          27.000  
J02  38210392.496   200796959.423       -1468.606          33.000  
> 2021  9 12 11 10 24.9988813  0 10
C06  36691923.910   191064406.638        -566.857          26.000  
C07  37748599.988   196566742.6701        667.017          23.000  
C09  37726380.270   196451141.336        -675.158          29.000  
C16  37323951.166   194355514.309        -525.323          29.000  
C23  23096140.175   120267659.062         821.479          32.000  
C25  22099332.351   115077063.743       -1780.971          27.000  
G10  20416885.684   107291474.655       -2031.942          36.000  
G31  21267172.343   111759865.918         121.351          26.000  
G32  21317648.999   112025015.3511        396.954          28.000  
J02  38210522.606   200797641.424       -1470.862          32.000  
> 2021  9 12 11 10 25.9988810  0  7
C06  36691941.597   191064504.963        -566.447          30.000  
C07  37748382.638   196565607.115         668.461          22.000  
C09  37726419.843   196451348.123        -674.430          29.000  
C13  37670751.082   196161501.8911      -2425.047          22.000  
C25  22099586.275   115078375.848       -1780.938          34.000  
G10  20417181.579   107293033.796       -2031.956          35.000  
J02  38210711.775   200798639.594       -1471.148          25.000  
> 2021  9 12 11 10 26.9988805  0  9
C06  36691899.027   191064290.773        -567.031          25.000  
C09  37726398.558   196451242.704        -675.186          29.000  
C13  37671066.463   196163147.775       -2427.849          25.000  
C23  23095593.953   120264765.9611        821.176          31.000  
C25  22099779.341   115079376.296       -1780.708          33.000  
G10  20417415.417   107294278.104       -2032.572          36.000  
G31  21266886.641   111758361.3021        121.587          27.000  
G32  21317258.369   112022959.6351        398.073          31.000  
J02  38210840.985   200799323.295       -1471.195          32.000  
> 2021  9 12 11 10 27.9988803  0 11
C06  36691948.493   191064544.887        -566.725          23.000  
C07  37747919.159   196563177.8431        667.585          23.000  
C09  37726466.311   196451604.829        -673.844          28.000  
C13  37671470.883   196165263.257       -2426.538          23.000  
C16  37323951.166   194355532.9471       -526.859          27.000  
C23  23095375.404   120263632.991         820.880          29.000  
C25  22100061.746   115080845.140       -1781.460          30.000  
G10  20417742.191   107295995.960       -2033.794          32.000  
G25  21028683.246   110506466.7361      -2008.539          29.000  
G31  21266802.999   111757925.504         119.644          28.000  
J02  38211060.134   200800479.454       -1471.382          29.000  
> 2021  9 12 11 10 28.9988797  0 10
C06  36691878.941   191064175.393        -567.159          26.000  
C07  37747611.272   196561573.256         668.327          30.000  
C09  37726414.147   196451342.346        -674.123          27.000  
C13  37671759.883   196166753.300       -2427.012          25.000  
C16  37323870.822   194355123.270        -526.858          28.000  
C23  23095036.039   120261875.733         820.270          32.000  
C25  22100223.634   115081689.853       -1781.782          32.000  
G10  20417950.547   107297084.567       -2033.853          36.000  
G25  21028883.507   110507529.978       -2008.497          32.000  
J02  38211159.964   200801005.400       -1471.211          30.000  
> 2021  9 12 11 10 29.9988792  0 11
C06  36691837.869   191063961.894        -567.490          25.000  
C07  37747330.067   196560123.564         668.561          28.000  
C09  37726393.161   196451234.735        -672.164          28.000  
C13  37672079.762   196168401.094       -2428.571          24.000  
C16  37323823.155   194354869.560        -527.469          25.000  
C23  23094726.354   120260274.008         821.814          32.000  
C25  22100414.901   115082690.563       -1781.248          30.000  
G10  20418187.983   107298330.957       -2035.340          35.000  
G25  21029116.745   110508750.762       -2009.229          29.000  
G31  21266429.157   111755953.9841        118.365          26.000  
J02  38211288.875   200801689.050       -1471.716          31.000  
> 2021  9 12 11 10 30.9988787  0 11
C06  36691799.196   191063749.054        -568.399          28.000  
C07  37747052.459   196558674.670         668.683          26.000  
C09  37726371.876   196451125.825        -671.214          29.000  
C13  37672393.645   196170049.206       -2428.684          22.000  
C16  37323770.991   194354616.498        -527.846          27.000  
C23  23094416.068   120258672.969         818.942          33.000  
C25  22100606.469   115083691.468       -1782.245          29.000  
G10  20418426.318   107299577.993       -2034.623          31.000  
G25  21029352.982   110509972.273       -2009.625          28.000  
G31  21266258.875   111755047.486         118.168          28.000  
J02  38211418.985   200802373.005       -1471.702          30.000  
> 2021  9 12 11 10 31.9988785  0  9
C06  36691849.561   191064004.296        -568.179          25.000  
C07  37746865.089   196557693.255         668.015          26.000  
C09  37726442.327   196451485.217        -671.769          28.000  
C23  23094199.318   120257541.234         820.057          34.000  
G10  20418753.091   107301297.699       -2035.195          33.000  
G25  21029676.458   110511666.915       -2010.166          31.000  
G31  21266175.233   111754614.069         118.384          24.000  
G32  21316284.943   112017820.6151        396.643          30.000  
J02  38211638.733   200803529.580       -1471.428          32.000  
> 2021  9 12 11 10 32.9988780  0 10
C06  36691808.789   191063791.160        -567.197          27.000  
C09  37726421.342   196451376.771        -672.360          29.000  
C13  37673125.138   196173811.4501      -2427.451          26.000  
C23  23093891.731   120255940.792         818.921          35.000  
C25  22101086.436   115086164.4541      -1783.787          30.000  
G10  20418989.328   107302545.855       -2036.982          37.000  
G25  21029911.195   110512890.084       -2011.288          25.000  
G31  21266001.054   111753707.851         118.629          26.000  
G32  21316059.499   112016635.674         397.315          30.000  
J02  38211770.941   200804213.001       -1471.591          30.000  
> 2021  9 12 11 10 33.9988774  0 11
C06  36691737.439   191063420.867        -566.412          30.000  
C09  37726370.677   196451112.135        -672.274          28.000  
C13  37673412.939   196175301.463       -2426.006          22.000  
C16  37323669.062   194354164.1991       -523.525          23.000  
C23  23093554.765                         817.737          34.000  
C25  22101250.723   115087011.323       -1783.392          34.000  
G10  20419193.786                       -2038.275          36.000  
G25  21030116.853   110513956.512       -2012.122          30.000  
G31  21265799.593   111752644.114         118.170          28.000  
G32  21315804.376   112015293.508         396.485          29.000  
J02  38211872.571   200804738.368       -1470.820          31.000  
> 2021  9 12 11 10 34.9988769  0 10
C06  36691696.667   191063206.047        -565.844          30.000  
C09  37726349.991   196451003.772        -672.689          29.000  
C13  37673730.119   196176946.754       -2425.501          24.000  
C16  37323615.099   194353906.807        -522.514          26.000  
C23  23093248.377   120252600.0791        819.589          34.000  
C25  22101443.789   115088014.177       -1783.766          33.000  
G10  20419432.121                       -2038.480          34.000  
G25  21030349.192   110515181.287       -2012.954          29.000  
G31  21265628.712   111751738.056         118.517          29.000  
J02  38212003.281   200805421.680       -1470.772          33.000  
> 2021  9 12 11 10 35.9988767  0 11
C06  36691744.934   191063457.845        -563.174          27.000  
C09  37726418.944   196451364.666        -673.159          29.000  
C13  37674139.636   196179059.621       -2424.995          23.000  
C16  37323652.573   194354116.281        -522.757          25.000  
C23  23093035.224   120251469.448         817.054          33.000  
C25  22101725.294   115089485.515       -1783.651          30.000  
G10  20419759.195   107306560.4991      -2040.091          34.000  
G25  21030674.467   110516879.357       -2013.761          27.000  
G31  21265546.269   111751304.828         117.679          28.000  
G32  21315442.826   112013396.2741        396.324          33.000  
J02  38212222.129   200806577.104       -1470.272          32.000  
> 2021  9 12 11 10 36.9988764  0 10
C06  36691762.322   191063553.700        -565.274          24.000  
C09  37726457.917   196451568.937        -672.340          30.000  
C13  37674517.974   196181016.497       -2426.098          22.000  
C16  37323663.965   194354170.496        -523.278          26.000  
C23  23092783.099   120250182.693         818.401          30.000  
C25  22101977.120   115090800.527       -1783.704          30.000  
G25  21030970.962   110518420.835       -2014.724          24.000  
G31  21265433.547   111750714.999         116.805          28.000  
G32  21315271.045                         395.363          34.000  
J02  38212410.399   200807574.179       -1467.928          33.000  
> 2021  9 12 11 10 37.9988759  0  9
C06  36691725.147   191063338.149        -565.426          23.000  
C09  37726437.831   196451460.447        -671.517          27.000  
C16  37323616.598   194353913.872        -524.810          31.000  
C23  23092469.516   120248584.165         819.699          32.000  
C25  22102169.586   115091803.972       -1784.397          28.000  
E01  23661131.739   124340086.2941        464.095          29.000  
G10  20420309.914   107309377.7661      -2040.000          34.000  
G31  21265262.665   111749810.461         116.937          29.000  
J02  38212542.907                       -1470.193          31.000  
> 2021  9 12 11 10 38.9988754  0 10
C06  36691681.977   191063122.841        -565.128          24.000  
C09  37726417.744   196451351.274        -671.745          28.000  
C13  37675150.836   196184307.8321      -2426.370          24.000  
C16  37323568.931   194353658.563        -525.881          25.000  
C23  23092161.629   120246986.023         816.610          31.000  
C25  22102361.753   115092807.967       -1784.906          34.000  
E01  23660888.907   124338809.584         464.558          27.000  
G25  21031442.236   110520875.5161      -2015.993          26.000  
G31  21265092.683   111748906.081         116.311          26.000  
G32  21314814.761   112010135.6471        397.154          30.000  
> 2021  9 12 11 10 39.9988749  0  9
C07  37744766.242   196546724.2931        668.556          25.000  
C09  37726397.059   196451242.498        -671.938          27.000  
C13  37675466.217   196185953.246       -2425.716          23.000  
C16  37323521.264   194353403.692        -525.805          29.000  
C23  23091861.237   120245388.155         818.584          31.000  
C25  22102554.220   115093812.484       -1785.451          31.000  
G25  21031675.774   110522103.627       -2015.951          27.000  
G31  21264914.906   111748001.773         116.792          25.000  
J02  38212797.431   200809633.0201      -1469.944          32.000  
> 2021  9 12 11 10 40.9988744  0 10
C06  36691598.635   191062696.0521       -568.060          24.000  
C07  37744485.636   196545276.177         667.452          20.000  
C09  37726376.073   196451133.121        -670.599          28.000  
C13  37675783.698   196187599.261       -2427.465          26.000  
C16  37323474.796   194353148.892        -526.345          26.000  
C23  23091557.847   120243790.722         817.003          31.000  
C25  22102747.586   115094817.693       -1785.857          30.000  
G25  21031905.715   110523331.696       -2016.001          26.000  
G31  21264744.024   111747097.456         116.116          28.000  
J02  38212930.539   200810315.844       -1471.571          32.000  
> 2021  9 12 11 10 41.9988739  0  8
C06  36691554.565   191062482.644        -566.252          26.000  
C09  37726354.488   196451022.897        -670.613          28.000  
C23  23091244.864   120242193.571         814.829          29.000  
C25  22102940.053   115095822.666       -1785.819          29.000  
G10  20421252.761                       -2042.318          36.000  
G25  21032138.653   110524560.287       -2016.477          21.000  
G31  21264574.042   111746193.915         115.455          28.000  
J02  38213058.850   200810998.700       -1469.775          31.000  
> 2021  9 12 11 10 42.9988736  0 11
C06  36691573.152   191062578.903        -563.703          25.000  
C07  37743993.377   196542691.7411        667.924          21.000  
C09  37726393.761   196451225.117        -670.565          28.000  
C16  37323428.928   194352949.8951       -524.433          23.000  
C23  23090995.736   120240908.802         814.488          29.000  
C25  22103192.178   115097140.149       -1785.735          30.000  
G10  20421552.254   107315976.4341      -2039.771          34.000  
G25  21032430.651   110526104.784       -2017.231          22.000  
G31  21264464.018   111745605.994         114.672          28.000  
G32  21313978.939   112005714.1271        396.247          31.000  
J02  38213248.918   200811996.255       -1470.814          32.000  
> 2021  9 12 11 10 43.9988733  0 10
C06  36691591.740   191062674.901        -565.005          26.000  
C07  37743770.631   196541555.143         668.476          23.000  
C09  37726433.633   196451427.813        -671.200          29.000  
C13  37676848.560   196193162.2521      -2428.687          20.000  
C16  37323442.119   194353005.866        -524.383          30.000  
C23  23090749.307   120239624.474         813.247          29.000  
C25  22103444.904   115098457.518       -1786.086          34.000  
G25  21032723.249   110527649.526       -2017.760          32.000  
G32  21313813.454   112004845.439         395.492          33.000  
J02  38213440.186   200812994.276       -1469.517          32.000  
> 2021  9 12 11 10 44.9988728  0  9
C06  36691550.368   191062459.175        -564.554          25.000  
C09  37726414.447   196451318.739        -671.851          27.000  
C16  37323392.353   194352749.331        -523.859          29.000  
C23  23090442.619   120238028.142         815.199          29.000  
C25  22103637.670   115099463.016       -1786.443          33.000  
G10  20422092.180   107318802.5341      -2043.407          25.000  
G25  21032956.187   110528879.747       -2018.295          29.000  
G31  21264170.221   111744115.3541        114.697          24.000  
G32  21313588.310                         395.958          33.000  
> 2021  9 12 11 10 45.9988723  0 11
C06  36691508.697   191062243.567        -565.239          25.000  
C07  37743216.615   196538653.4191        670.945          19.000  
C09  37726393.761   196451209.142        -671.105          28.000  
C13  37677479.624   196196457.2391      -2428.500          20.000  
C16  37323341.388   194352492.022        -524.308          26.000  
C23  23090141.328   120236431.925         815.020          30.000  
C25  22103834.034   115100468.431       -1786.576          34.000  
G10  20422329.316   107320058.161       -2043.383          32.000  
G25  21033190.625   110530110.619       -2018.824          28.000  
G31  21263997.241   111743213.017         114.424          25.000  
J02  38213694.410   200814358.0791      -1468.211          25.000  
> 2021  9 12 11 10 46.9988718  0 10
C06  36691467.626   191062027.247        -563.890          26.000  
C07  37742934.510   196537202.499         671.222          19.000  
C09  37726373.375   196451099.387        -671.186          27.000  
C16  37323291.623   194352236.095        -525.443          26.000  
C23  23089840.936   120234835.995         816.532          31.000  
C25  22104024.702                       -1786.886          33.000  
G25  21033425.063   110531341.894       -2019.347          31.000  
G31  21263826.359   111742310.972         114.304          26.000  
G32  21313134.124   112001293.6271        399.165          31.000  
J02  38213820.922   200815038.772       -1468.813          27.000  
> 2021  9 12 11 10 47.9988716  0 11
C06  36691517.991   191062278.605        -564.052          26.000  
C07  37742746.840   196536219.446         669.834          20.000  
C09  37726443.527   196451457.925        -669.928          27.000  
C13  37678197.027   196200222.2911      -2429.239          21.000  
C16  37323334.193   194352447.945        -523.863          28.000  
C23  23089619.389   120233708.727         815.880          32.000  
C25  22104311.903   115102931.1641      -1786.512          34.000  
G25  21033747.640   110533046.370       -2020.027          31.000  
G31  21263744.216   111741881.521         114.354          27.000  
G32  21313001.616   112000582.018         393.579          31.000  
J02  38214042.169   200816192.604       -1469.372          29.000  
> 2021  9 12 11 10 48.9988710  0 11
C06  36691445.741   191061906.021        -564.664          26.000  
C07  37742439.853   196534612.567         670.584          25.000  
C09  37726393.461   196451190.750        -669.553          28.000  
C13  37678481.230   196201713.340       -2426.659          21.000  
C16  37323252.650   194352034.608        -522.492          25.000  
C23  23089281.223   120231957.184         812.274          31.000  
C25  22104473.192   115103781.407       -1786.375          34.000  
G10  20423112.973   107324142.5981      -2045.094          23.000  
G25  21033951.199   110534121.301       -2020.506          31.000  
G31  21263543.355   111740821.831         114.386          26.000  
G32  21312750.990   111999240.248         396.965          31.000  
> 2021  9 12 11 10 49.9988705  0 10
C06  36691401.671   191061690.135        -564.751          27.000  
C07  37742162.545   196533161.049         671.332          23.000  
C09  37726372.776   196451079.135        -668.589          28.000  
C13  37678796.912   196203359.949       -2428.865          21.000  
C16  37323201.985   194351775.454        -521.415          27.000  
C23  23088966.141   120230362.046         813.473          31.000  
C25  22104665.958   115104788.149       -1786.482          33.000  
G25  21034183.238   110535353.457       -2019.535          30.000  
G32  21312525.845   111998055.412         395.943          31.000  
J02  38214273.609   200817399.3151      -1470.298          31.000  
> 2021  9 12 11 10 50.9988700  0 12
C03  36480517.163   189963656.5131       -711.465          30.000  
C06  36691358.501   191061473.754        -563.984          26.000  
C07  37741885.237   196531709.804         670.583          26.000  
C09  37726350.891   196450966.948        -668.011          28.000  
C13  37679109.595   196205007.445       -2426.978          22.000  
C16  37323148.322   194351515.702        -520.137          25.000  
C23  23088662.751   120228767.069         812.034          32.000  
C25  22104860.224   115105794.871       -1788.087          33.000  
G10  20423602.534   107326660.8461      -2046.472          29.000  
G31  21263203.091   111739018.4851        113.783          28.000  
G32  21312302.800   111996872.169         395.910          29.000  
J02  38214402.520   200818082.313       -1470.731          28.000  
> 2021  9 12 11 10 51.9988698  0  8
C06  36691407.067   191061724.383        -562.350          26.000  
C09  37726418.944   196451323.013        -667.679          28.000  
C16  37323190.893   194351723.922        -521.400          28.000  
C23  23088443.903   120227640.631         811.782          31.000  
C25  22105143.528   115107270.121       -1788.335          34.000  
G10  20423931.107   107328393.042       -2047.090          24.000  
G31  21263120.648   111738589.492         113.364          26.000  
G32  21312169.992   111996160.945         396.030          29.000  
> 2021  9 12 11 10 52.9988692  0  9
C06  36691335.117   191061349.164        -560.395          26.000  
C07  37741396.875   196529118.7161        669.738          23.000  
C09  37726366.480   196451054.423        -667.954          28.000  
C23  23088105.437   120225890.019         813.120          32.000  
C25  22105306.315   115108121.086       -1786.569          34.000  
G10  20424143.360   107329495.279       -2048.433          24.000  
G25  21034947.709   110539370.6291      -2023.039          28.000  
G31  21262919.787   111737530.467         113.564          26.000  
J02  38214724.797   200819761.4861      -1469.558          31.000  
> 2021  9 12 11 10 53.9988690  0  8
C06  36691383.384   191061597.783        -561.338          25.000  
C09  37726435.432   196451410.869        -668.453          28.000  
C16  37323161.513   194351517.8651       -521.217          30.000  
C23  23087886.889   120224764.206         814.179          29.000  
C25  22105589.619   115109596.734       -1786.710          33.000  
G25  21035272.384   110541078.268       -2022.830          27.000  
G32  21311773.966   111994107.9191        395.781          26.000  
J02  38214943.045   200820914.650       -1469.452          31.000  
> 2021  9 12 11 10 54.9988685  0 11
C06  36691342.912   191061378.566        -562.331          25.000  
C09  37726413.547   196451298.680        -668.614          26.000  
C13  37680531.511   196212366.2421      -2424.921          25.000  
C16  37323115.645   194351258.088        -520.652          32.000  
C23  23087587.096   120223170.214         812.999          32.000  
C25  22105785.683   115110604.288       -1787.698          34.000  
G10  20424710.567   107332489.5101      -2049.089          30.000  
G25  21035506.522   110542314.467       -2025.046          27.000  
G31  21262671.559   111736198.7051        117.323          22.000  
G32  21311544.924   111992923.557         396.602          27.000  
J02  38215076.153                       -1471.283          34.000  
> 2021  9 12 11 10 55.9988680  0  9
C06  36691301.840   191061159.354        -561.530          25.000  
C09  37726392.562   196451186.050        -668.210          27.000  
C13  37680843.595   196214011.048       -2427.109          17.000  
C16  37323066.779   194350997.815        -520.021          29.000  
C23  23087284.905   120221576.489         811.169          31.000  
C25  22105977.250   115111612.146       -1788.317          35.000  
G31  21262501.277   111735295.437         114.243          26.000  
G32  21311318.881   111991738.760         397.423          30.000  
J02  38215207.462   200822262.7221      -1469.313          29.000  
> 2021  9 12 11 10 56.9988675  0 10
C06  36691259.570   191060941.047        -562.865          26.000  
C09  37726369.178   196451073.547        -667.215          26.000  
C16  37323019.112   194350737.888        -520.810          29.000  
C23  23086977.918   120219983.227         809.897          32.000  
C25  22106172.115   115112620.240       -1788.122          33.000  
G10  20425186.638   107335012.7311      -2049.390          30.000  
G25  21035977.796   110544788.1511      -2026.329          20.000  
G31  21262326.797   111734393.759         114.153          20.000  
G32  21311090.439   111990553.802         397.111          30.000  
J02  38215336.673   200822944.049       -1469.017          33.000  
> 2021  9 12 11 10 57.9988669  0 10
C06  36691187.619   191060567.266        -562.369          24.000  
C09  37726316.415   196450803.492        -665.874          25.000  
C10  38437729.913   200155298.1811        570.656          21.000  
C13  37681450.675   196217147.8461      -2428.430          21.000  
C16  37322939.966   194350322.178        -520.739          30.000  
C23  23086640.651   120218234.099         811.712          32.000  
C25  22106336.702   115113472.488       -1790.275          32.000  
G31  21262124.737   111733335.354         111.538          22.000  
G32  21310835.316   111989212.336         396.675          28.000  
J02  38215435.305   200823467.880       -1469.281          33.000  
> 2021  9 12 11 10 58.9988664  0 12
C03  36480538.149   189963727.7341       -709.741          30.000  
C06  36691149.846   191060348.017        -560.239          24.000  
C09  37726293.331   196450688.224        -665.338          25.000  
C10  38437475.390   200153947.489         569.918          20.000  
C13  37681763.058   196218795.510       -2428.473          25.000  
C16  37322889.601   194350062.043        -519.819          30.000  
C23  23086335.463   120216641.581         812.147          32.000  
C25  22106525.871   115114480.756       -1789.380          33.000  
C33  22578965.507   117574649.1551      -1903.871          23.000  
G10  20425634.827   107337378.2331      -2049.986          27.000  
G32  21310608.972   111988027.936         396.602          30.000  
J02  38215566.914   200824148.398       -1468.809          30.000  
> 2021  9 12 11 10 59.9988664  0  9
C06  36691255.672   191060909.108        -561.522          25.000  
C09  37726420.143   196451354.734        -666.843          27.000  
C16  37322988.832   194350581.155        -519.192          26.000  
C23  23086181.369   120215829.394         814.476          32.000  
C25  22106875.129   115116270.451       -1788.133          31.000  
C33  22579329.755   117576553.001       -1904.085          21.000  
G10  20426023.058   107339428.180       -2050.830          34.000  
G32  21310533.724   111987631.058         396.490          30.000  
J02  38215844.521   200825617.275       -1469.523          31.000  
> 2021  9 12 11 11  0.9988659  0 10
C06  36691214.601   191060689.439        -561.164          25.000  
C09  37726398.258   196451240.689        -666.771          27.000  
C13  37682540.120   196222867.8241      -2426.231          22.000  
C16  37322937.268   194350320.342        -520.643          28.000  
C23  23085867.487   120214238.075         812.566          27.000  
C25  22107066.996   115117279.658       -1787.529          33.000  
G10  20426257.196   107340691.683       -2052.532          33.000  
G31  21261764.087   111731429.3051        108.840          23.000  
G32  21310308.880   111986445.981         397.471          28.000  
J02  38215973.732   200826299.245       -1469.434          30.000  
> 2021  9 12 11 11  1.9988654  0 13
C03  36480644.275   189964293.3201       -708.483          30.000  
C06  36691171.730   191060468.645        -559.259          25.000  
C09  37726376.373   196451126.462        -666.715          27.000  
C10  38436847.624   200150675.4361        573.493          20.000  
C13  37682855.202   196224512.115       -2425.119          21.000  
C16  37322886.004   194350060.114        -520.373          28.000  
C23  23085564.097   120212645.601         811.503          32.000  
C25  22107260.962   115118288.561       -1788.920          32.000  
C33  22579759.058   117578794.4191      -1901.294          17.000  
G10  20426495.531   107341956.233       -2052.340          31.000  
G25  21037284.291   110551609.6431      -2027.657          27.000  
G32  21310084.036   111985260.663         397.728          31.000  
J02  38216103.542   200826980.515       -1468.765          31.000  
> 2021  9 12 11 11  2.9988649  0  9
C06  36691129.460   191060247.724        -560.040          21.000  
C09  37726354.188   196451012.969        -666.990          28.000  
C16  37322837.138   194349799.596        -520.407          27.000  
C23  23085261.906   120211053.841         810.925          31.000  
C25  22107456.127   115119297.067       -1789.762          28.000  
C33  22579976.408   117579915.877       -1902.653          25.000  
G25  21037519.628   110552848.431       -2026.138          26.000  
G32  21309858.892   111984075.369         396.796          29.000  
J02  38216231.254   200827661.009       -1468.656          31.000  
