     3.03           OBSERVATION DATA    M: Mixed            RINEX VERSION / TYPE
Geo++ RINEX Logger  Geo++               20210930 115942 UTC PGM / RUN BY / DATE
************************************************************COMMENT
This file was generated by the Geo++ RINEX Logger App       COMMENT
for Android devices (Version 2.1.6). If you encounter       COMMENT
any issues, please send an email to android@geopp.de        COMMENT
Filtering Mode: MORE                                        COMMENT
************************************************************COMMENT
Geo++                                                       MARKER NAME
GEODETIC                                                    MARKER TYPE
Geo++               Geo++                                   OBSERVER / AGENCY
unknown             HUAWEI              ELS-AN00            REC # / TYPE / VERS
unknown             ELS-AN00                                ANT # / TYPE
 -2411123.9707  5386090.4759  2412221.0353                  APPROX POSITION XYZ
        0.0000        0.0000        0.0000                  ANTENNA: DELTA H/E/N
G    8 C1C L1C D1C S1C C5Q L5Q D5Q S5Q                      SYS / # / OBS TYPES
R    4 C1C L1C D1C S1C                                      SYS / # / OBS TYPES
E   12 C1B L1B D1B S1B C1C L1C D1C S1C C5Q L5Q D5Q S5Q      SYS / # / OBS TYPES
C    4 C2I L2I D2I S2I                                      SYS / # / OBS TYPES
J    8 C1C L1C D1C S1C C5Q L5Q D5Q S5Q                      SYS / # / OBS TYPES
  2021     9    30    12     0    0.9989274     GPS         TIME OF FIRST OBS
 24 R01  1 R02 -4 R03  5 R04  6 R05  1 R06 -4 R07  5 R08  6 GLONASS SLOT / FRQ #
    R09 -2 R10 -5 R11  0 R12 -1 R13 -2 R14 -7 R15  0 R16 -1 GLONASS SLOT / FRQ #
    R17  4 R18 -3 R19  3 R20  2 R21  4 R22 -3 R23  3 R24  2 GLONASS SLOT / FRQ #
G L1C                                                       SYS / PHASE SHIFT
G L5Q -0.25000                                              SYS / PHASE SHIFT
R L1C                                                       SYS / PHASE SHIFT
E L1B                                                       SYS / PHASE SHIFT
E L1C +0.50000                                              SYS / PHASE SHIFT
E L5Q -0.25000                                              SYS / PHASE SHIFT
C L2I                                                       SYS / PHASE SHIFT
J L1C                                                       SYS / PHASE SHIFT
J L5Q -0.25000                                              SYS / PHASE SHIFT
 C1C    0.000 C1P    0.000 C2C    0.000 C2P    0.000        GLONASS COD/PHS/BIS
                                                            END OF HEADER
> 2021  9 30 12  0  0.9989274  0 15
C07  36329557.271   189177504.199        -151.292          24.000  
C10  37074000.703   193054016.119         -72.556          32.000  
C16  36681687.196   191011128.966         -78.181          26.000  
C22  22166716.402   115427950.9631       -787.787          18.000  
E07  24067562.173   126475914.2961        742.480          27.000  
E08  22070888.642   115983285.358       -1717.488          32.000  
E30  22865653.138   120159833.486       -1850.135          33.000  
G16  21871183.994   114933855.9511       2082.382          17.000  
G22  23017265.978   120956622.2981       -261.790          21.000  
G29  23724512.062   124673083.6701      -1228.274          18.000  
G32  21111113.280   110939659.778       -2006.185          21.000  
J01  36252046.830   190505821.5361       -123.119          20.000  
J02  39266795.763   206348402.135       -1443.533          36.000  
R04  20461864.746   109572355.7311      -3736.439          25.000  
R05  19238283.713   102839651.6731        163.051          24.000  
> 2021  9 30 12  0  1.9989271  0 12
C07  36329495.514   189177186.716        -149.825          24.000  
C10  37073923.057   193053620.797         -73.198          32.000  
C16  36681614.047   191010738.373         -77.558          27.000  
E08  22071125.478   115984530.103       -1717.821          32.000  
E30  22865914.557   120161211.343       -1853.051          33.000  
G16  21870698.331   114931301.353        2080.402          16.000  
G26  20116273.594   105711742.3761       -454.814          24.000  
G31  21476823.804   112861501.2621      -1399.406          21.000  
J01  36251979.976   190505471.230        -123.113          24.000  
J02  39266981.634   206349372.130       -1442.064          36.000  
R04  20462470.327   109575598.704       -3737.164          26.000  
R05  19238164.096   102839012.310         161.373          26.000  
> 2021  9 30 12  0  2.9989266  0 13
C07  36329371.699   189176555.832        -149.286          25.000  
C10  37073786.052   193052913.462         -72.856          30.000  
C16  36681479.440   191010035.142         -77.255          26.000  
E08  22071301.156   115985460.222       -1715.721          31.000  
E30  22866113.619   120162274.380       -1850.096          30.000  
G16  21870155.107   114928434.431        2078.291          26.000  
G22  23017117.281   120955886.2221       -262.567          22.000  
G26  20116209.138   105711409.890        -455.784          23.000  
G31  21476941.023   112862112.153       -1398.182          21.000  
J01  36251852.864   190504807.756        -126.006          17.000  
J02  39267105.748   206350027.022       -1442.820          37.000  
R04  20463016.249   109578522.562       -3738.143          29.000  
R05  19237984.221   102838050.945         160.330          26.000  
> 2021  9 30 12  0  3.9989261  0 12
C07  36329246.986   189175924.042        -148.824          26.000  
C10  37073649.347   193052206.422         -74.015          29.000  
C16  36681343.634   191009331.831         -77.493          27.000  
E08  22071479.832   115986391.131       -1719.711          31.000  
E30  22866315.679   120163335.498       -1848.660          26.000  
G16  21869614.881   114925570.390        2075.207          29.000  
G26  20116145.582   105711077.999        -456.140          22.000  
G31  21477056.143   112862721.678       -1397.249          20.000  
J01  36251727.251   190504147.000        -127.211          23.000  
J02  39267232.860   206350682.035       -1443.716          37.000  
R04  20463558.873   109581428.155       -3738.676          29.000  
R05  19237803.746   102837085.769         160.686          28.000  
> 2021  9 30 12  0  4.9989256  0  7
C07  36329124.371   189175292.548        -149.200          27.000  
C10  37073515.939   193051499.638         -72.978          29.000  
C16  36681207.528   191008628.205         -76.930          26.000  
E08  22071654.911   115987322.438       -1721.810          32.000  
G16  21869071.057   114922707.429        2075.470          27.000  
J02  39267354.276   206351336.936       -1441.896          37.000  
R04  20464105.095   109584353.544       -3739.548          29.000  
> 2021  9 30 12  0  5.9989253  0 11
C07  36329065.311   189174974.489        -150.366          29.000  
C10  37073441.291   193051104.654         -75.013          28.000  
C16  36681132.580   191008236.440         -77.051          26.000  
E08  22071889.949   115988569.291       -1718.955          27.000  
G16  21868587.192   114920159.455        2075.488          30.000  
G26  20116080.827   105710728.1851       -454.727          26.000  
G31  21477345.743   112864253.8381      -1396.129          24.000  
G32  21112401.189   110946390.0471      -2009.455          28.000  
J01  36251535.084   190503138.4281       -124.445          28.000  
J02  39267544.944   206352307.106       -1442.733          35.000  
R05  19237495.559   102835438.4221        157.732          25.000  
> 2021  9 30 12  0  6.9989248  0 10
C07  36328943.596   189174343.507        -148.844          26.000  
C10  37073306.384   193050399.385         -74.907          23.000  
C16  36680996.475   191007533.604         -78.026          25.000  
G16  21868044.568   114917295.332        2076.640          22.000  
G26  20116017.871   105710396.243        -456.431          26.000  
G32  21112635.327   110947611.733       -2008.841          28.000  
J01  36251407.073   190502474.616        -123.279          32.000  
J02  39267663.662   206352962.838       -1443.093          30.000  
R04  20465259.596   109590535.3611      -3741.606          26.000  
R05  19237313.285   102834464.290         156.220          26.000  
> 2021  9 30 12  0  7.9989243  0 10
C07  36328823.079   189173712.185        -148.834          27.000  
C10  37073169.379   193049693.322         -73.877          30.000  
C16  36680859.170   191006832.060         -78.974          22.000  
G16  21867500.145   114914431.465        2074.959          22.000  
G26  20115952.516   105710065.442        -457.076          25.000  
G32  21112867.066   110948831.316       -2006.699          25.000  
J01  36251279.961   190501810.242        -123.519          29.000  
J02  39267793.772   206353618.791       -1443.742          34.000  
R04  20465806.117   109593462.161       -3741.708          33.000  
R05  19237131.311   102833491.456         158.493          29.000  
> 2021  9 30 12  0  8.9989238  0 11
C07  36328701.363   189173081.727        -150.208          25.000  
C10  37073033.273   193048986.665         -73.280          31.000  
C16  36680726.362   191006129.837         -79.413          21.000  
C22  22166863.899   115428645.8761       -789.917          19.000  
G16  21866957.520   114911567.859        2076.415          26.000  
G31  21477697.399   112866072.4141      -1396.857          18.000  
G32  21113097.906   110950050.997       -2008.417          33.000  
J01  36251152.549   190501146.317        -124.207          30.000  
J02  39267910.092   206354274.106       -1445.971          31.000  
R04  20466352.939   109596390.425       -3742.618          32.000  
R05  19236957.431   102832561.790         157.483          27.000  
> 2021  9 30 12  0  9.9989233  0  7
C07  36328581.147   189172452.208        -151.453          29.000  
C16  36680590.556   191005428.262         -78.156          19.000  
G31  21477815.518   112866681.524       -1397.823          19.000  
G32  21113329.046   110951272.287       -2009.993          37.000  
J02  39268036.604   206354929.794       -1443.619          28.000  
R04  20466897.961   109599308.595       -3743.370          31.000  
R05  19236770.061   102831560.515         156.857          26.000  
> 2021  9 30 12  0 10.9989230  0  8
C07  36328521.188   189172135.637        -151.914          30.000  
C10  37072819.821   193047889.0151        -76.415          20.000  
C16  36680517.106   191005037.943         -77.732          25.000  
G26  20115827.203   105709390.9451       -457.808          22.000  
G32  21113620.445   110952810.030       -2010.184          34.000  
J01  36250961.282   190500133.8971       -124.662          25.000  
J02  39268221.876   206355900.165       -1443.780          28.000  
R04  20467505.940   109602564.398       -3744.042          28.000  
> 2021  9 30 12  0 11.9989225  0  9
C07  36328402.171   189171507.118        -150.490          26.000  
C10  37072683.415   193047185.349         -77.534          27.000  
C16  36680383.099   191004336.151         -80.816          23.000  
G16  21865380.612   114903301.2641       2068.539          25.000  
G32  21113850.386   110954032.337       -2009.971          35.000  
J01  36250835.968   190499471.648        -126.597          27.000  
J02  39268342.992   206356557.071       -1445.010          29.000  
R04  20468052.462   109605490.971       -3745.142          26.000  
R05  19236466.371   102829936.8621        153.103          26.000  
> 2021  9 30 12  0 12.9989220  0 10
C07  36328278.056   189170876.631        -149.009          23.000  
C10  37072549.708   193046481.792         -76.827          22.000  
C16  36680249.092   191003635.842         -80.864          19.000  
G16  21864836.189   114900444.484        2070.116          23.000  
G26  20115707.885   105708733.9311       -460.630          25.000  
G31  21478231.630   112868826.4731      -1396.853          20.000  
J01  36250710.056   190498810.221        -125.835          31.000  
J02  39268462.309   206357213.057       -1442.594          24.000  
R04  20468605.879   109608454.481       -3745.567          27.000  
R05  19236287.096   102828978.892         149.396          25.000  
> 2021  9 30 12  0 13.9989217  0  9
C07  36328216.899   189170557.686        -149.755          23.000  
C10  37072473.261   193046089.537         -75.398          24.000  
C16  36680176.542   191003248.382         -80.291          21.000  
G16  21864352.024   114897901.197        2071.189          27.000  
G31  21478409.706   112869751.010       -1397.197          21.000  
G32  21114378.620   110956794.2981      -2012.549          32.000  
J01  36250643.802   190498464.277        -126.773          28.000  
R04  20469217.456   109611729.511       -3746.248          27.000  
R05  19236169.577   102828350.541         149.390          26.000  
> 2021  9 30 12  0 14.9989212  0 11
C07  36328097.581   189169927.582        -150.667          24.000  
C10  37072340.153   193045383.719         -74.216          26.000  
C16  36680039.537   191002547.971         -80.687          24.000  
G16  21863807.301   114895042.511        2069.044          24.000  
G26  20115653.623   105708400.9881       -466.513          15.000  
G31  21478528.424   112870359.852       -1397.360          21.000  
G32  21114610.060                       -2012.970          35.000  
J01  36250517.289   190497803.035        -126.470          32.000  
J02  39268774.393   206358837.8971      -1441.836          23.000  
R04  20469766.975   109614672.131       -3746.938          31.000  
R05  19235996.297   102827424.108         150.500          23.000  
> 2021  9 30 12  0 15.9989207  0 10
C07  36327977.365   189169298.751        -152.399          26.000  
C10  37072204.947   193044679.163         -78.303          27.000  
C16  36679907.029   191001847.558         -79.721          24.000  
G16  21863263.777   114892186.620        2067.564          26.000  
G22  23016037.729   120950064.1891       -272.517          22.000  
G32  21114843.298   110959250.3561      -2020.094          35.000  
J01  36250390.777   190497141.705        -126.296          32.000  
J02  39268897.308   206359492.819       -1443.570          22.000  
R04  20470313.497   109617598.672       -3747.967          29.000  
R05  19235809.526   102826425.908         147.833          19.000  
> 2021  9 30 12  0 16.9989202  0  9
C07  36327856.548   189168670.956        -153.225          22.000  
C10  37072073.937   193043979.021         -80.089          22.000  
G16  21862722.352   114889329.945        2070.121          25.000  
G22  23015938.797   120949549.113        -272.708          27.000  
G31  21478765.260   112871580.4481      -1399.383          23.000  
G32  21115074.138   110960477.196       -2012.019          27.000  
J01  36250267.262   190496480.460        -127.203          30.000  
J02  39269025.020   206360149.627       -1443.963          23.000  
R04  20470863.016   109620541.018       -3748.633          29.000  
> 2021  9 30 12  0 17.9989197  0 11
C07  36327738.430   189168043.235        -152.279          27.000  
C10  37071939.330   193043278.250         -79.060          25.000  
C16  36679637.815   191000443.4831        -78.301          24.000  
G22  23015838.966   120949034.936        -274.723          33.000  
G26  20115461.756   105707429.0401       -460.484          26.000  
G31  21478882.779   112872191.441       -1398.655          23.000  
G32  21115308.576   110961701.994       -2014.058          30.000  
J01  36250140.750   190495818.818        -129.237          32.000  
J02  39269149.434   206360805.382       -1442.764          26.000  
R04  20471414.035   109623492.543       -3750.310          33.000  
R05  19235468.063   102824599.9121        146.960          28.000  
> 2021  9 30 12  0 18.9989192  0  9
C07  36327621.211   189167414.818        -152.361          24.000  
C10  37071808.921   193042577.061         -78.858          23.000  
G16  21861637.703   114883613.3801       2069.963          32.000  
G22  23015737.337   120948521.400        -273.354          34.000  
G26  20115396.401   105707102.375        -462.327          27.000  
G31  21478998.499   112872801.066       -1397.320          24.000  
J01  36250012.738   190495159.017        -128.329          23.000  
R04  20471969.251   109626465.155       -3750.152          32.000  
R05  19235288.187   102823638.556         146.279          31.000  
> 2021  9 30 12  0 19.9989189  0 12
C07  36327560.053   189167098.792        -152.967          24.000  
C16  36679432.158   190999351.6281        -77.912          21.000  
E07  24062343.686   126448478.3541        736.122          33.000  
E08  22074557.502   116002605.7201      -1726.831          33.000  
G16  21861155.937   114881071.842        2068.319          31.000  
G22  23015701.961                        -275.929          32.000  
G26  20115392.504   105707092.511        -463.260          26.000  
G31  21479175.077   112873726.592       -1399.176          23.000  
G32  21115835.311   110964471.3591      -2015.062          32.000  
J01  36249945.585   190494814.271        -127.544          28.000  
R04  20472581.427   109629743.633       -3750.133          34.000  
R05  19235168.270   102822997.337         146.265          30.000  
> 2021  9 30 12  0 20.9989187  0 12
C07  36327529.774   189166939.750        -155.014          20.000  
C10  37071690.203   193041954.7851        -78.576          16.000  
E07  24062144.024   126447427.469         736.589          28.000  
E08  22074824.917   116004016.806       -1728.386          29.000  
G16  21860702.051   114878687.960        2069.096          30.000  
G22  23015691.169   120948290.7021       -275.970          32.000  
G26  20115419.785   105707240.910        -464.165          19.000  
G32  21116158.188   110966170.929       -2015.450          30.000  
J01  36249909.010   190494627.044        -127.655          29.000  
J02  39269674.070   206363557.7131      -1442.923          29.000  
R04  20473219.685   109633160.871       -3751.154          34.000  
R05  19235081.030   102822531.596         146.347          30.000  
> 2021  9 30 12  0 21.9989181  0  9
C10  37071526.516   193041098.447         -82.004          17.000  
C16  36679220.504   190998258.0921        -78.446          20.000  
G16  21860127.349   114875673.324        2069.537          30.000  
G22  23015561.658   120947621.186        -275.783          27.000  
G26  20115328.648   105706760.699        -466.680          23.000  
G32  21116361.747   110967242.735       -2018.749          28.000  
J02  39269768.205   206364055.619       -1443.387          22.000  
R04  20473740.724   109635951.319       -3754.278          32.000  
R05  19234875.972   102821435.224         145.084          28.000  
> 2021  9 30 12  0 22.9989176  0 10
C04  38367523.316   199789762.0911       -695.679          27.000  
C07  36327261.160   189165534.8531       -158.163          19.000  
C16  36679086.797   190997557.220         -82.025          19.000  
G16  21859585.324   114872816.714        2067.623          25.000  
G22  23015463.626   120947110.768        -278.236          23.000  
G26  20115265.392   105706440.194        -467.581          24.000  
J01  36249626.606   190493151.4791       -128.902          24.000  
J02  39269892.619   206364712.019       -1444.445          27.000  
R04  20474293.841   109638913.021       -3756.038          27.000  
R05  19234702.692   102820509.279         143.494          24.000  
> 2021  9 30 12  0 23.9989171  0  7
G16  21859043.899   114869961.845        2066.391          27.000  
G22  23015364.994   120946601.944        -278.016          27.000  
G26  20115201.536   105706119.308        -466.784          25.000  
J01  36249500.993   190492493.575        -130.288          28.000  
J02  39270017.333   206365368.080       -1443.261          26.000  
R04  20474844.260   109641860.672       -3753.061          31.000  
R05  19234531.211   102819591.749         142.126          26.000  
> 2021  9 30 12  0 24.9989166  0  7
C07  36327025.524   189164293.6901       -157.941          17.000  
C10  37071118.798   193038996.5571        -78.107          15.000  
G16  21858500.975   114867107.837        2065.751          30.000  
G22  23015267.562   120946093.138        -279.513          27.000  
G26  20115138.280   105705798.845        -467.426          26.000  
G31  21479810.936   112877106.9511      -1400.162          19.000  
R04  20475397.377   109644822.858       -3752.045          26.000  
> 2021  9 30 12  0 25.9989161  0  8
C16  36678684.775   190995473.3361        -87.434          17.000  
G16  21857957.451   114864254.388        2065.663          28.000  
G22  23015171.628   120945585.148        -281.550          26.000  
G31  21479924.857   112877720.024       -1400.487          20.000  
G32  21117302.795   110972176.7031      -2022.080          30.000  
J01  36249250.966   190491177.8151       -131.118          22.000  
R04  20475946.897   109647765.003       -3755.675          24.000  
R05  19234185.251   102817742.5761        143.011          26.000  
> 2021  9 30 12  0 26.9989156  0  7
C16  36678553.166   190994780.366         -87.088          15.000  
G16  21857414.527   114861401.474        2064.489          22.000  
G22  23015075.095   120945078.982        -282.416          26.000  
G26  20115016.864   105705158.6651       -469.153          25.000  
J01  36249124.753   190490521.519        -131.039          24.000  
R04  20476498.215   109650717.270       -3757.846          26.000  
R05  19234009.272   102816801.735         140.963          30.000  
> 2021  9 30 12  0 27.9989153  0  7
C07  36326728.129   189162736.5891       -159.225          18.000  
G16  21856931.561   114858864.969        2064.400          23.000  
G22  23015038.820   120944888.402        -281.095          26.000  
G26  20115011.767   105705155.149        -469.972          23.000  
G32  21117834.627   110974962.0631      -2024.049          30.000  
J01  36249059.698   190490178.972        -129.543          22.000  
R04  20477114.888   109654019.864       -3757.422          24.000  
> 2021  9 30 12  0 28.9989151  0  7
C07  36326699.349   189162584.546        -158.535          17.000  
G16  21856479.174   114856486.362        2063.245          28.000  
G26  20115041.147   105705308.224        -467.025          22.000  
G32  21118160.202   110976671.763       -2024.909          29.000  
J01  36249028.220   190489993.451        -130.411          20.000  
R04  20477770.534   109657531.135       -3760.346          25.000  
R05  19233806.313   102815717.2011        137.491          24.000  
> 2021  9 30 12  0 29.9989146  0  9
C16  36678295.944   190993471.9311        -80.717          19.000  
G16  21855937.449   114853635.726        2062.413          25.000  
G22  23014929.396   120944343.0161       -277.607          22.000  
G26  20114981.488   105704987.922        -467.880          23.000  
G31  21480529.239   112880967.9361      -1407.117          19.000  
G32  21118398.537   110977908.899       -2024.097          31.000  
J02  39270936.496   206370110.7011      -1447.629          18.000  
R04  20478325.150   109660500.668       -3759.447          24.000  
R05  19233629.136   102814769.584         135.560          26.000  
> 2021  9 30 12  0 30.9989140  0  8
C16  36678129.559   190992615.686         -79.990          24.000  
G16  21855365.745   114850627.259        2063.641          24.000  
G22  23014802.584   120943676.125        -279.316          22.000  
G26  20114887.653   105704510.774        -468.504          22.000  
G32  21118604.494   110978988.248       -2024.521          27.000  
J02  39271030.032   206370611.152       -1445.501          19.000  
R04  20478863.878   109663385.560       -3757.705          22.000  
R05  19233419.581   102813650.240         136.076          27.000  
> 2021  9 30 12  0 31.9989135  0  8
C16  36677993.154   190991916.072         -82.248          21.000  
G16  21854824.320   114847775.539        2063.097          22.000  
G22  23014707.250   120943170.706        -281.751          19.000  
G31  21480728.601   112882045.7971      -1401.543          18.000  
G32  21118840.731   110980224.997       -2024.883          31.000  
J02  39271150.548   206371267.922       -1443.739          24.000  
R04  20479421.192   109666370.337       -3757.313          22.000  
R05  19233243.603   102812708.824         135.110          28.000  
> 2021  9 30 12  0 32.9989130  0  7
G16  21854278.997   114844927.413        2058.877          22.000  
G22  23014605.620   120942663.514        -280.554          21.000  
G26  20114770.434   105703876.4031       -472.879          22.000  
G31  21480844.921   112882658.546       -1399.051          19.000  
G32  21119076.068   110981462.001       -2024.718          27.000  
J02  39271273.463   206371924.668       -1444.561          22.000  
R05  19233064.926   102811754.377         135.157          28.000  
> 2021  9 30 12  0 33.9989125  0  7
G16  21853735.774   114842080.582        2058.828          29.000  
G22  23014506.689   120942156.900        -281.537          21.000  
G26  20114710.775   105703561.802        -473.691          26.000  
G32  21119310.506   110982700.057       -2026.886          29.000  
J02  39271399.676   206372581.588       -1445.739          20.000  
R04  20480519.931   109672253.3851      -3758.759          27.000  
R05  19232889.847   102810818.269         132.594          27.000  
> 2021  9 30 12  0 34.9989120  0  7
G16  21853193.449   114839234.428        2057.989          26.000  
G22  23014407.157   120941650.389        -281.260          22.000  
G26  20114652.316   105703248.629        -475.285          26.000  
G31  21481073.962   112883876.1381      -1396.704          27.000  
G32  21119545.843   110983939.630       -2027.581          35.000  
R04  20481075.746   109675229.723       -3760.360          22.000  
R05  19232713.869   102809877.893         130.393          26.000  
> 2021  9 30 12  0 35.9989117  0  5
G16  21852712.282   114836704.173        2056.934          25.000  
G26  20114654.115   105703251.305        -475.767          28.000  
G31  21481246.043   112884799.811       -1396.204          30.000  
G32  21119840.539   110985494.706       -2028.364          33.000  
R05  19232598.449   102809260.599         132.881          27.000  
> 2021  9 30 12  0 36.9989115  0  7
G16  21852258.396   114834331.827        2057.147          25.000  
G22  23014362.788   120941425.3061       -282.494          21.000  
G26  20114684.394   105703410.959        -474.097          29.000  
G31  21481447.803   112885881.080       -1397.030          26.000  
G32  21120168.212                       -2025.926          33.000  
R04  20482326.480   109681928.1181      -3764.117          26.000  
R05  19232509.711   102808786.594         131.901          28.000  
> 2021  9 30 12  0 37.9989110  0  7
G16  21851716.072   114831486.781        2056.936          22.000  
G22  23014259.660   120940919.753        -281.514          21.000  
G26  20114625.335   105703097.786        -474.885          26.000  
G31  21481560.525   112886491.118       -1398.309          21.000  
G32  21120405.348   110988472.2921      -2027.575          33.000  
R04  20482873.602   109684857.761       -3765.980          25.000  
R05  19232335.231   102807853.166         131.932          28.000  
> 2021  9 30 12  0 38.9989105  0  7
G16  21851174.347   114828641.952        2057.902          23.000  
G22  23014162.527   120940415.032        -284.149          24.000  
G26  20114564.777   105702785.369        -475.351          25.000  
G31  21481675.945   112887102.042       -1400.232          20.000  
G32  21120639.785   110989712.084       -2027.580          31.000  
R04  20483426.119   109687816.428       -3766.117          26.000  
R05  19232157.754   102806904.864         130.650          30.000  
> 2021  9 30 12  0 39.9989100  0  6
G16  21850632.322   114825794.622        2059.370          23.000  
G26  20114504.518   105702473.158        -475.922          23.000  
G31  21481793.764   112887714.656       -1400.737          25.000  
G32  21120874.523   110990950.736       -2026.243          31.000  
R04  20483975.339   109690756.844       -3766.468          23.000  
R05  19231984.774   102805980.435         130.186          31.000  
> 2021  9 30 12  0 40.9989094  0  6
G16  21850060.018   114822791.130        2058.074          22.000  
G26  20114419.077   105702004.325        -477.884          22.000  
G31  21481881.303   112888171.087       -1402.159          25.000  
G32  21121079.881   110992032.760       -2028.408          32.000  
R04  20484495.479   109693542.489       -3767.556          27.000  
R05  19231778.517   102804877.165         128.325          26.000  
> 2021  9 30 12  0 41.9989089  0  5
G16  21849517.094   114819946.289        2055.806          25.000  
G22  23013851.342   120938751.6001       -287.238          21.000  
G31  21481994.625   112888785.394       -1402.322          22.000  
R04  20485046.497   109696493.640       -3767.752          27.000  
R05  19231604.937   102803949.954         130.042          25.000  
> 2021  9 30 12  0 42.9989084  0  3
G32  21121554.452   110994516.7011      -2030.490          32.000  
R04  20485595.717   109699433.936       -3768.282          25.000  
R05  19231432.856   102803029.215         127.108          27.000  
> 2021  9 30 12  0 43.9989082  0  5
G16  21848523.282   114814730.6961       2056.652          20.000  
G22  23013741.918   120938221.6431       -286.003          21.000  
G32  21121881.825   110996230.070       -2029.183          31.000  
R04  20486241.770   109702893.617       -3769.738          27.000  
R05  19231347.415   102802572.924         124.581          28.000  
> 2021  9 30 12  0 44.9989076  0  6
G16  21847951.578   114811727.984        2057.922          22.000  
G22  23013614.806   120937563.899        -288.623          24.000  
G26  20114243.999   105701082.2051       -479.687          21.000  
G32  21122088.083   110997313.950       -2029.333          30.000  
R04  20486766.107   109705701.882       -3769.798          28.000  
R05  19231138.760   102801457.521         125.410          26.000  
> 2021  9 30 12  0 45.9989071  0  6
G16  21847409.253   114808883.654        2055.123          21.000  
G22  23013515.275   120937065.019        -290.348          22.000  
G26  20114184.940   105700774.533        -480.907          20.000  
G32  21122323.720   110998556.390       -2031.092          30.000  
R04  20487317.125   109708651.966       -3770.314          27.000  
R05  19230962.182   102800513.364         126.414          29.000  
> 2021  9 30 12  0 46.9989069  0  6
G16  21846960.164   114806512.287        2055.689          22.000  
G22  23013509.579   120937040.227        -288.997          20.000  
G26  20114216.418   105700939.180        -478.924          18.000  
G32  21122648.095   111000273.422       -2032.749          30.000  
R04  20487966.476   109712129.919       -3770.370          26.000  
R05  19230880.339   102800076.411         124.576          28.000  
> 2021  9 30 12  0 47.9989064  0  4
G16  21846420.238   114803669.425        2054.969          21.000  
G22  23013412.746   120936540.785        -287.594          18.000  
R04  20488523.490   109715112.612       -3767.921          20.000  
R05  19230705.859   102799143.804         122.618          29.000  
> 2021  9 30 12  0 48.9989059  0  5
G16  21845880.612   114800828.579        2051.029          22.000  
G22  23013316.512   120936040.130        -286.897          21.000  
G31  21482968.051   112893857.4081      -1399.928          18.000  
R04  20489078.406   109718083.920       -3767.528          23.000  
R05  19230537.976   102798246.045         120.391          28.000  
> 2021  9 30 12  0 49.9989053  0  5
G26  20114012.259   105699861.8661       -484.115          19.000  
G31  21483056.489   112894312.018       -1400.047          18.000  
G32  21123331.322   111003854.9771      -2034.658          33.000  
R04  20489603.043   109720893.335       -3771.362          24.000  
R05  19230339.213   102797183.459         118.206          27.000  
> 2021  9 30 12  0 50.9989048  0  4
G16  21844770.480   114794992.2761       2051.562          18.000  
G26  20113956.198   105699557.699        -481.559          19.000  
G32  21123569.657   111005102.263       -2036.232          33.000  
R04  20490156.460   109723857.032       -3774.320          26.000  
> 2021  9 30 12  0 51.9989046  0  6
G16  21844319.592   114792625.585        2052.971          20.000  
G22  23013085.672   120934581.0681       -287.971          21.000  
G26  20113988.276   105699723.680        -481.262          20.000  
G31  21483380.865   112896013.4381      -1402.561          18.000  
G32  21123895.531   111006822.507       -2035.633          32.000  
R04  20490800.114   109727303.391       -3774.716          27.000  
> 2021  9 30 12  0 52.9989041  0  3
G26  20113930.416   105699417.618        -481.896          21.000  
G32  21124131.768   111008070.062       -2032.987          31.000  
R04  20491352.932   109730263.712       -3773.742          28.000  
> 2021  9 30 12  0 53.9989036  0  3
G22  23012894.105   120933584.0511       -290.776          24.000  
G26  20113874.355   105699114.093        -486.606          22.000  
R04  20491904.250   109733216.735       -3773.782          27.000  
> 2021  9 30 12  0 54.9989033  0  4
G16  21842754.076   114784412.2641       2054.938          18.000  
G22  23012859.029   120933402.044        -290.406          25.000  
G26  20113879.451   105699128.134        -487.960          24.000  
R04  20492515.826   109736491.187       -3775.801          27.000  
> 2021  9 30 12  0 55.9989028  0  4
G22  23012766.693   120932906.676        -291.894          24.000  
G26  20113822.490   105698830.090        -491.366          21.000  
G32  21124904.933   111012130.9871      -2036.600          31.000  
R04  20493068.944   109739453.056       -3774.743          29.000  
> 2021  9 30 12  0 56.9989023  0  4
G22  23012673.458   120932410.594        -291.256          24.000  
G26  20113765.230   105698533.401        -489.561          21.000  
G32  21125143.268   111013379.860       -2036.068          30.000  
R04  20493628.656   109742450.212       -3776.181          27.000  
> 2021  9 30 12  0 57.9989018  0  5
E07  24051912.707   126393692.1571        725.959          25.000  
G16  21841136.396   114775894.2771       2049.868          17.000  
G26  20113709.768   105698235.163        -489.840          20.000  
G32  21125381.603   111014628.318       -2036.596          30.000  
R04  20494179.974   109745402.594       -3778.055          29.000  
> 2021  9 30 12  0 58.9989012  0  2
G22  23012458.806   120931263.5011       -294.587          23.000  
G32  21125589.359   111015719.592       -2037.034          32.000  
> 2021  9 30 12  0 59.9989010  0  2
G22  23012458.806   120931243.945        -295.531          22.000  
G32  21125914.634   111017442.001       -2038.535          34.000  
> 2021  9 30 12  1  0.9989005  0  4
G22  23012363.772   120930751.938        -295.204          22.000  
G26  20113601.543   105697647.1061       -484.960          20.000  
G31  21484556.651   112902137.6511      -1393.286          17.000  
G32  21126153.568   111018693.323       -2039.673          35.000  
> 2021  9 30 12  1  1.9989000  0  1
G32  21126391.004   111019944.172       -2037.427          33.000  
> 2021  9 30 12  1  2.9988995  0  2
G22  23012169.507   120929766.7261       -294.827          24.000  
G32  21126628.739   111021192.402       -2036.810          30.000  
> 2021  9 30 12  1  3.9988992  0  3
G22  23012130.534   120929588.173        -294.722          23.000  
G26  20113482.226   105697047.0401       -487.945          20.000  
G32  21126927.932   111022757.922       -2039.786          31.000  
> 2021  9 30 12  1  4.9988987  0  1
G26  20113423.467   105696747.533        -489.236          21.000  
> 2021  9 30 12  1  5.9988982  0  4
G22  23011935.369   120928604.3421       -297.174          23.000  
G26  20113364.707   105696449.323        -490.134          21.000  
G31  21485191.012   112905512.7861      -1398.980          18.000  
G32  21127405.202   111025266.5531      -2043.605          32.000  
> 2021  9 30 12  1  6.9988977  0  4
G16  21836417.363   114750978.9201       2041.974          12.000  
G22  23011839.735   120928114.369        -298.902          26.000  
G26  20113304.149   105696153.061        -493.056          22.000  
G31  21485307.031   112906123.893       -1399.063          18.000  
> 2021  9 30 12  1  7.9988974  0  1
G22  23011808.556   120927940.874        -298.984          25.000  
> 2021  9 30 12  1  8.9988969  0  3
G22  23011714.422   120927453.159        -299.930          25.000  
G26  20113245.690   105695876.4991       -489.709          21.000  
G32  21128181.664   111029344.5691      -2042.544          31.000  
> 2021  9 30 12  1  9.9988964  0  3
G22  23011619.387   120926965.479        -301.405          24.000  
G26  20113187.830   105695578.802        -489.963          21.000  
G32  21128419.699   111030601.094       -2042.141          31.000  
> 2021  9 30 12  1 10.9988959  0  3
G22  23011527.051   120926480.219        -303.351          24.000  
G26  20113131.469   105695281.746        -490.957          21.000  
G32  21128658.934   111031855.635       -2042.505          28.000  
> 2021  9 30 12  1 11.9988954  0  1
G22  23011434.116   120925995.832        -302.445          24.000  
> 2021  9 30 12  1 12.9988951  0  4
G22  23011398.141   120925823.787        -299.378          24.000  
G26  20113079.605   105695005.2721       -494.125          21.000  
G31  21486128.163   112910433.3111      -1401.803          17.000  
G32  21129196.162   111034680.1331      -2042.963          33.000  
> 2021  9 30 12  1 13.9988946  0  2
G22  23011299.809   120925334.896        -296.750          24.000  
G26  20113022.344   105694711.717        -493.412          21.000  
> 2021  9 30 12  1 14.9988943  0  3
G22  23011263.234   120925158.854        -298.107          23.000  
G26  20113025.942   105694733.110        -492.957          20.000  
G32  21129737.287   111037507.8351      -2044.144          30.000  
> 2021  9 30 12  1 15.9988938  0  4
E07  24047023.392   126368018.5271        723.250          31.000  
G22  23011169.399   120924670.341        -299.523          26.000  
G26  20112967.482   105694438.460        -493.711          24.000  
G32  21129974.423   111038764.544       -2044.424          35.000  
> 2021  9 30 12  1 16.9988933  0  5
E07  24046735.292   126366507.459         722.673          31.000  
G22  23011075.564   120924184.281        -302.513          22.000  
G26  20112910.222   105694144.741        -494.889          22.000  
G31  21486656.098   112913200.7011      -1400.543          19.000  
G32  21130214.557   111040021.540       -2045.195          33.000  
> 2021  9 30 12  1 17.9988928  0  1
G31  21486772.417   112913812.366       -1398.711          20.000  
> 2021  9 30 12  1 18.9988923  0  1
G32  21130693.925   111042535.1611      -2045.984          33.000  
> 2021  9 30 12  1 19.9988918  0  3
G22  23010806.650   120922735.7171       -304.924          22.000  
G26  20112745.936   105693270.4731       -498.702          20.000  
G32  21130938.556   111043793.644       -2046.537          33.000  
> 2021  9 30 12  1 20.9988915  0  2
G31  21487184.931   112915971.9941      -1404.831          19.000  
G32  21131237.749   111045367.656       -2046.898          33.000  
> 2021  9 30 12  1 21.9988910  0  2
G26  20112696.770   105693012.4781       -503.249          20.000  
G32  21131476.084   111046628.241       -2048.148          34.000  
> 2021  9 30 12  1 22.9988908  0  3
G26  20112735.743   105693200.335        -501.065          17.000  
G31  21487515.003   112917681.7591      -1408.649          18.000  
G32  21131804.956   111048361.214       -2048.347          31.000  
> 2021  9 30 12  1 23.9988902  0  3
G22  23010568.915   120921434.8121       -303.264          24.000  
G26  20112653.300   105692755.307        -501.108          19.000  
G32  21132016.609   111049464.401       -2049.159          35.000  
> 2021  9 30 12  1 24.9988897  0  4
G22  23010474.180   120920951.403        -305.368          22.000  
G26  20112598.738   105692467.398        -499.094          19.000  
G31  21487712.866   112918761.0321      -1405.231          18.000  
G32  21132254.944                       -2056.151          35.000  
> 2021  9 30 12  1 25.9988892  0  2
G22  23010380.945   120920468.956        -305.038          24.000  
G32  21132496.277   111052014.5051      -2052.516          33.000  
> 2021  9 30 12  1 26.9988887  0  2
G22  23010290.108   120919986.527        -306.243          23.000  
G32  21132737.610   111053278.919       -2051.296          32.000  
> 2021  9 30 12  1 27.9988882  0  4
G22  23010195.973   120919506.193        -308.503          24.000  
G26  20112434.751   105691601.3601       -500.998          19.000  
G31  21488057.927   112920599.8931      -1397.290          17.000  
G32  21132975.945   111054540.968       -2048.949          34.000  
> 2021  9 30 12  1 28.9988877  0  1
G32  21133213.681   111055803.123       -2050.511          28.000  
> 2021  9 30 12  1 29.9988874  0  2
G26  20112383.786   105691345.5191       -503.789          20.000  
G32  21133512.873   111057381.714       -2052.083          35.000  
> 2021  9 30 12  1 30.9988872  0  2
G22  23010060.467   120918853.1941       -305.954          23.000  
G32  21133840.846   111059118.958       -2052.020          33.000  
> 2021  9 30 12  1 31.9988867  0  3
G22  23009966.632   120918372.696        -308.023          22.000  
G31  21488663.208   112923826.7051      -1402.718          17.000  
G32  21134080.680   111060383.302       -2052.594          31.000  
> 2021  9 30 12  1 32.9988861  0  2
G22  23009848.513   120917737.008        -310.453          23.000  
G26  20112271.364   105690806.5331       -504.564          21.000  
> 2021  9 30 12  1 33.9988856  0  4
G22  23009755.578   120917259.869        -311.518          22.000  
G26  20112218.301   105690524.570        -506.560          21.000  
G31  21488864.669   112924902.2231      -1402.331          17.000  
G32  21134532.168   111062755.8611      -2053.787          31.000  
> 2021  9 30 12  1 34.9988851  0  2
G22  23009662.642   120916785.096        -313.534          25.000  
G31  21488981.887   112925516.402       -1401.322          17.000  
> 2021  9 30 12  1 35.9988846  0  3
G22  23009572.704   120916311.217        -313.870          25.000  
G26  20112115.772   105689961.7441       -505.817          24.000  
G31  21489097.008   112926130.400       -1402.841          17.000  
> 2021  9 30 12  1 36.9988841  0  3
G22  23009482.167   120915838.281        -316.060          25.000  
G26  20112063.908   105689680.693        -506.713          24.000  
G31  21489211.828   112926745.406       -1402.580          18.000  
> 2021  9 30 12  1 37.9988838  0  4
G22  23009450.389   120915681.338        -316.322          22.000  
G26  20112068.405   105689713.775        -505.580          24.000  
G31  21489386.907   112927674.741       -1401.221          23.000  
G32  21135554.160   111068132.9741      -2052.895          34.000  
> 2021  9 30 12  1 38.9988836  0  3
G26  20112102.581   105689904.649        -505.931          29.000  
G31  21489591.965   112928761.272       -1401.418          23.000  
G32  21135883.932   111069872.039       -2055.195          27.000  
> 2021  9 30 12  1 39.9988831  0  2
G22  23009364.349   120915213.3241       -318.291          22.000  
G32  21136124.366   111071140.032       -2056.389          31.000  
> 2021  9 30 12  1 40.9988826  0  3
G22  23009271.713   120914742.484        -314.755          25.000  
G26  20111991.058   105689341.6161       -505.946          30.000  
G32  21136366.598   111072408.575       -2056.665          29.000  
> 2021  9 30 12  1 41.9988820  0  3
G22  23009147.599   120914110.679        -313.661          26.000  
G26  20111906.817   105688902.877        -506.842          29.000  
G31  21489902.550   112930441.7471      -1400.425          27.000  
> 2021  9 30 12  1 42.9988815  0  3
G22  23009057.061   120913636.389        -313.648          26.000  
G26  20111851.955   105688622.578        -507.829          29.000  
G31  21490014.373   112930786.832       -1400.872          23.000  
> 2021  9 30 12  1 43.9988810  0  4
G22  23008965.625   120913162.817        -315.282          22.000  
G26  20111796.493   105688343.378        -508.381          28.000  
G31  21490129.793   112931400.020       -1402.791          23.000  
G32  21137062.416   111076057.0441      -2054.809          32.000  
> 2021  9 30 12  1 44.9988805  0  3
G22  23008876.586   120912690.697        -316.780          24.000  
G26  20111742.231   105688064.400        -509.537          26.000  
G32  21137303.150   111077326.217       -2058.045          31.000  
> 2021  9 30 12  1 45.9988803  0  2
G22  23008874.787   120912692.552        -316.495          24.000  
G26  20111780.604   105688259.282        -509.577          27.000  
> 2021  9 30 12  1 46.9988800  0  3
G22  23008843.309   120912535.658        -315.348          23.000  
G26  20111786.300   105688296.344        -509.247          30.000  
G32  21137941.108   111080655.2041      -2059.029          31.000  
> 2021  9 30 12  1 47.9988795  0  3
G22  23008753.971   120912062.759        -313.602          22.000  
G26  20111732.937   105688018.137        -510.178          32.000  
G32  21138184.539   111081926.328       -2058.405          32.000  
> 2021  9 30 12  1 48.9988790  0  2
G26  20111679.574   105687740.772        -510.872          27.000  
G32  21138426.772   111083197.022       -2058.962          30.000  
> 2021  9 30 12  1 49.9988785  0  2
G22  23008567.800   120910839.5061       -317.441          22.000  
G26  20111627.410   105687464.959        -512.259          26.000  
> 2021  9 30 12  1 50.9988780  0  3
G22  23008477.562   120910370.456        -318.639          25.000  
G31  21491104.718   112936490.9141      -1407.264          19.000  
G32  21138911.536   111085740.0101      -2059.121          33.000  
> 2021  9 30 12  1 51.9988774  0  2
G26  20111497.900   105686761.4771       -515.874          21.000  
G32  21139123.190   111086854.224       -2059.820          30.000  
> 2021  9 30 12  1 52.9988769  0  3
G26  20111444.836   105686489.667        -515.945          25.000  
G31  21491314.573   112937571.2521      -1405.927          20.000  
G32  21139365.722   111088126.384       -2060.461          30.000  
> 2021  9 30 12  1 53.9988767  0  1
G32  21139697.292   111089871.818       -2060.805          33.000  
> 2021  9 30 12  1 54.9988764  0  1
G32  21140000.082   111091460.212       -2061.665          29.000  
> 2021  9 30 12  1 55.9988759  0  4
G22  23008162.181   120908672.2781       -322.777          16.000  
G26  20111444.537   105686467.9261       -518.028          21.000  
G31  21491810.129   112940212.7201      -1407.246          20.000  
G32  21140242.015   111092733.744       -2060.869          30.000  
> 2021  9 30 12  1 56.9988754  0  2
G26  20111391.174   105686196.107        -513.439          22.000  
G32  21140485.147   111094007.824       -2062.440          29.000  
> 2021  9 30 12  1 57.9988749  0  2
G26  20111336.012   105685921.922        -513.035          22.000  
G32  21140726.779   111095282.962       -2063.450          27.000  
> 2021  9 30 12  1 58.9988744  0  2
G26  20111283.248   105685646.559        -513.685          21.000  
G32  21140970.810   111096557.779       -2062.613          31.000  
> 2021  9 30 12  1 59.9988739  0  1
G32  21141214.842   111097833.424       -2064.145          28.000  
> 2021  9 30 12  2  0.9988736  0  2
G22  23007778.147   120906658.6541       -321.575          18.000  
G32  21141517.032   111099425.297       -2064.825          33.000  
> 2021  9 30 12  2  1.9988731  0  2
G26  20111184.017   105685145.3971       -518.308          23.000  
G32  21141759.864   111100702.582       -2065.513          31.000  
> 2021  9 30 12  2  2.9988728  0  3
G22  23007653.433   120906043.2891       -320.758          19.000  
G26  20111195.409   105685191.137        -518.655          24.000  
G32  21142062.954   111102294.154       -2064.787          33.000  
> 2021  9 30 12  2  3.9988723  0  2
G26  20111142.945   105684921.231        -517.858          23.000  
G32  21142304.287   111103571.311       -2065.329          35.000  
> 2021  9 30 12  2  4.9988718  0  2
G26  20111092.580   105684650.749        -516.856          25.000  
G31  21492982.018   112946361.6541      -1402.871          15.000  
> 2021  9 30 12  2  5.9988713  0  3
G22  23007390.815   120904645.7241       -325.839          17.000  
G26  20111040.716   105684380.738        -518.856          22.000  
G32  21142792.949   111106128.0011      -2065.229          30.000  
> 2021  9 30 12  2  6.9988708  0  3
G22  23007303.275   120904185.521        -328.933          18.000  
G26  20110990.651   105684112.442        -520.232          24.000  
G32  21143033.083   111107405.738       -2064.727          28.000  
> 2021  9 30 12  2  7.9988703  0  1
G26  20110940.586   105683845.683        -521.599          21.000  
> 2021  9 30 12  2  8.9988700  0  4
G22  23007188.155   120903587.0481       -331.115          20.000  
G26  20110949.879   105683895.230        -522.855          24.000  
G31  21493521.645   112949118.3881      -1399.275          16.000  
G32  21143579.305   111110276.9791      -2067.710          32.000  
> 2021  9 30 12  2  9.9988695  0  3
C19  23172139.062   120663407.9311      -3497.965          33.000  
G26  20110897.116   105683630.245        -522.773          28.000  
G32  21143822.736   111111558.851       -2069.433          31.000  
> 2021  9 30 12  2 10.9988690  0  3
C19  23172660.701   120666122.881       -3494.299          27.000  
G22  23007018.173   120902676.5371       -335.457          21.000  
G26  20110849.149   105683364.045        -521.445          27.000  
> 2021  9 30 12  2 11.9988687  0  3
C19  23173240.200   120669146.482       -3491.549          30.000  
G26  20110860.841   105683413.923        -523.381          26.000  
G32  21144369.857   111114436.3521      -2068.449          30.000  
> 2021  9 30 12  2 12.9988682  0  3
C19  23173759.740   120671856.806       -3490.799          32.000  
G22  23006904.551   120902085.2481       -334.604          20.000  
G26  20110810.176   105683149.947        -525.112          22.000  
> 2021  9 30 12  2 13.9988677  0  5
C19  23174279.280   120674566.979       -3491.064          33.000  
G22  23006818.511   120901631.852        -333.827          21.000  
G26  20110764.008   105682888.322        -525.527          23.000  
G31  21494154.506   112952470.2071      -1395.730          17.000  
G32  21144859.119   111116998.9411      -2069.831          29.000  
> 2021  9 30 12  2 14.9988672  0  1
C19  23174801.219   120677276.873       -3489.671          31.000  
> 2021  9 30 12  2 15.9988667  0  5
C19  23175321.059   120679987.716       -3492.653          31.000  
G22  23006638.036   120900719.0531       -330.658          21.000  
G26  20110662.378   105682363.9101       -526.440          27.000  
G31  21494385.646   112953691.7721      -1398.689          19.000  
G32  21145351.078   111119563.9611      -2069.755          29.000  
> 2021  9 30 12  2 16.9988664  0  5
C19  23175901.157   120683012.630       -3494.201          28.000  
G22  23006606.857   120900577.614        -333.368          21.000  
G26  20110671.672   105682417.650        -526.038          25.000  
G31  21494563.124   112954618.796       -1401.408          26.000  
G32  21145653.868   111121160.800       -2069.539          28.000  
> 2021  9 30 12  2 17.9988659  0  4
C19  23176423.396   120685727.149       -3495.884          27.000  
G22  23006518.719   120900123.929        -336.313          20.000  
G26  20110621.007   105682155.277        -525.308          28.000  
G32  21145899.698   111122443.321       -2071.188          30.000  
> 2021  9 30 12  2 18.9988654  0  5
C19  23176947.133   120688442.115       -3495.607          29.000  
G22  23006430.280   120899673.109        -337.212          20.000  
G26  20110569.742   105681892.238        -524.912          26.000  
G31  21494790.366   112955844.4391      -1400.600          23.000  
G32  21146148.226   111123727.415       -2072.377          30.000  
> 2021  9 30 12  2 19.9988649  0  4
C19  23177469.672   120691155.862       -3494.248          28.000  
G26  20110518.478   105681629.167        -525.600          26.000  
G32  21146395.555   111125012.928       -2074.108          30.000  
J01  36236848.852   190425834.1241       -137.590          30.000  
> 2021  9 30 12  2 20.9988646  0  5
C19  23178050.969   120694181.290       -3493.814          30.000  
G26  20110528.371   105681682.351        -526.298          28.000  
G31  21495076.668   112957385.3581      -1400.684          24.000  
G32  21146701.043   111126614.319       -2074.068          32.000  
J01  36236784.696   190425499.580        -138.368          28.000  
> 2021  9 30 12  2 21.9988641  0  6
C19  23178572.908   120696894.620       -3494.079          28.000  
G22  23006233.616   120898641.7061       -337.588          19.000  
G26  20110479.505   105681421.839        -527.726          25.000  
G31  21495192.088   112957997.606       -1400.183          24.000  
G32  21146946.873   111127900.920       -2074.724          32.000  
J01  36236662.081   190424850.189        -138.668          24.000  
> 2021  9 30 12  2 22.9988636  0  6
C19  23179094.847   120699608.033       -3493.742          22.000  
G22  23006144.877   120898190.779        -337.010          19.000  
G26  20110428.540   105681162.620        -528.204          28.000  
G31  21495306.009   112958611.310       -1402.385          24.000  
G32  21147187.906   111129188.712       -2075.675          29.000  
J01  36236539.166   190424200.864        -139.405          30.000  
> 2021  9 30 12  2 23.9988631  0  5
C19  23179615.886   120702320.619       -3494.622          25.000  
G26  20110380.573   105680903.155        -528.503          25.000  
G31  21495419.930   112959224.386       -1401.270          23.000  
G32  21147431.638   111130474.412       -2073.754          29.000  
J01  36236415.651   190423552.811        -139.288          25.000  
> 2021  9 30 12  2 24.9988628  0  5
C19  23180200.181   120705347.428       -3495.319          27.000  
G26  20110389.267   105680959.682        -530.367          26.000  
G31  21495594.110   112960151.622       -1398.678          25.000  
G32  21147735.327   111132076.038       -2075.276          31.000  
J01  36236352.395   190423219.582        -139.597          30.000  
> 2021  9 30 12  2 25.9988623  0  6
C19  23180721.520   120708062.511       -3495.976          28.000  
G26  20110343.399   105680702.671        -530.905          27.000  
G31  21495706.832   112960763.099       -1400.684          25.000  
G32  21147979.059   111133363.862       -2076.551          28.000  
J01  36236230.380   190422572.324        -142.234          27.000  
J035058322594.991                        -554.345          30.000  
> 2021  9 30 12  2 26.9988621  0  6
C19  23181332.198   120711246.527       -3495.580          30.000  
G26  20110383.571   105680918.047        -530.029          27.000  
G31  21495911.890   112961849.866       -1403.286          24.000  
G32  21148313.927   111135125.730       -2077.178          30.000  
J01  36236196.803   190422399.173        -141.534          24.000  
J03  37269026.490                        -607.938          27.000  
> 2021  9 30 12  2 27.9988616  0  6
C19  23181852.637   120713960.825       -3494.661          27.000  
G22  23005870.267   120896722.9271       -340.750          20.000  
G26  20110333.806   105680660.946        -531.339          28.000  
G31  21496027.310   112962465.064       -1402.825          25.000  
G32  21148557.658   111136415.064       -2076.969          35.000  
J01  36236073.588   190421752.942        -141.289          25.000  
> 2021  9 30 12  2 28.9988611  0  5
C01  37489047.173   195215306.0611       -709.730          31.000  
C19  23182373.677   120716674.734       -3494.714          27.000  
G26  20110284.040   105680404.029        -531.139          22.000  
G32  21148802.888   111137704.456       -2077.863          38.000  
J03  37268950.043   195849654.1621       -603.689          24.000  
> 2021  9 30 12  2 29.9988605  0  6
C19  23182864.137   120719233.588       -3496.397          32.000  
G22  23005676.302   120895672.5931       -343.077          19.000  
G26  20110206.394   105679989.694        -531.482          27.000  
G31  21496234.167   112963538.3741      -1402.574          24.000  
J01  36235797.779   190420300.4851       -140.071          24.000  
J03  37268883.189   195849313.128        -604.250          21.000  
> 2021  9 30 12  2 30.9988600  0  4
C19  23183384.877   120721950.039       -3497.366          33.000  
G26  20110157.827   105679734.501        -533.187          25.000  
G31  21496348.987   112964152.948       -1400.512          23.000  
J01  36235675.464   190419653.287        -141.132          30.000  
> 2021  9 30 12  2 31.9988595  0  5
C19  23183904.717   120724667.615       -3498.078          29.000  
G22  23005512.015   120894784.3911       -343.006          20.000  
G26  20110107.762   105679480.781        -535.290          25.000  
G31  21496462.908   112964765.122       -1398.601          27.000  
J01  36235552.849   190419007.239        -142.062          29.000  
> 2021  9 30 12  2 32.9988593  0  5
C19  23184516.593   120727853.555       -3497.970          27.000  
G22  23005518.011   120894811.715        -343.235          19.000  
G26  20110148.234   105679701.633        -536.958          27.000  
G31  21496668.266   112965848.873       -1398.849          34.000  
G32  21149842.868   111143177.4581      -2078.933          30.000  
> 2021  9 30 12  2 33.9988588  0  5
C07  36313693.753   189094987.0711       -170.736          26.000  
C19  23185037.033   120730571.962       -3499.822          27.000  
G26  20110099.068   105679450.352        -536.112          24.000  
G31  21496783.686   112966460.459       -1399.789          32.000  
J01  36235407.749   190418188.6401       -142.689          23.000  
> 2021  9 30 12  2 34.9988585  0  4
C19  23185618.031   120733603.339       -3499.706          30.000  
G22  23005402.291   120894240.4311       -346.265          25.000  
G26  20110110.460   105679514.891        -538.338          24.000  
G31  21496959.664   112967386.905       -1399.295          30.000  
> 2021  9 30 12  2 35.9988580  0  6
C07  36313516.576   189094080.7871       -172.054          14.000  
C19  23186141.468   120736322.291       -3500.233          29.000  
G22  23005316.251   120893800.129        -347.210          26.000  
G26  20110063.992   105679265.560        -538.567          25.000  
G31  21497076.584   112968000.022       -1400.922          30.000  
J01  36235222.777   190417210.4931       -141.680          22.000  
> 2021  9 30 12  2 36.9988575  0  4
C19  23186663.407   120739041.548       -3498.417          30.000  
G26  20110017.225   105679016.848        -538.963          25.000  
G31  21497193.503   112968613.783       -1402.737          30.000  
J01  36235100.762   190416565.274        -142.248          22.000  
> 2021  9 30 12  2 37.9988570  0  7
C19  23187184.746   120741759.095       -3497.494          30.000  
G22  23005151.365   120892916.9951       -345.323          17.000  
G26  20109966.560   105678768.490        -539.707          23.000  
G31  21497309.822   112969227.732       -1400.852          30.000  
G32  21151136.173   111149962.9971      -2082.303          30.000  
J01  36234978.147   190415919.233        -141.601          25.000  
J02  39288692.005   206463587.8731      -1433.967          28.000  
> 2021  9 30 12  2 38.9988564  0  6
C19  23187674.907   120744320.552       -3498.677          30.000  
G22  23005038.044   120892318.083        -346.794          20.000  
G26  20109887.115   105678361.387        -538.023          23.000  
G31  21497396.762   112969684.181       -1402.901          27.000  
J01  36234825.852   190415114.618        -140.819          25.000  
J02  39288783.741   206464075.950       -1433.865          31.000  
> 2021  9 30 12  2 39.9988562  0  7
C19  23188286.483   120747506.537       -3499.079          28.000  
G22  23005043.140   120892350.240        -347.557          20.000  
G26  20109926.388   105678584.351        -537.874          21.000  
G31  21497604.518   112970772.160       -1403.136          26.000  
G32  21151689.290   111152865.6791      -2082.320          30.000  
J01  36234792.575   190414940.158        -141.518          23.000  
J02  39288996.594   206465195.178       -1434.936          29.000  
> 2021  9 30 12  2 40.9988557  0  6
C07  36312999.134   189091369.2931       -185.991          16.000  
C19  23188810.221   120750225.065       -3499.576          29.000  
G22  23004952.603   120891910.671        -349.925          20.000  
G31  21497720.538   112971386.771       -1401.470          25.000  
G32  21151936.619   111154160.359       -2083.173          31.000  
J02  39289117.710   206465841.862       -1434.224          25.000  
> 2021  9 30 12  2 41.9988552  0  5
C19  23189332.159   120752944.525       -3500.236          26.000  
G26  20109833.452   105678088.6871       -540.201          25.000  
G31  21497837.457   112972000.425       -1401.146          27.000  
J01  36234550.942   190413648.3271       -142.636          20.000  
J02  39289241.824   206466487.787       -1433.533          25.000  
> 2021  9 30 12  2 42.9988549  0  7
C07  36312827.053   189090489.1931       -180.587          15.000  
C19  23189914.956   120755976.789       -3500.718          28.000  
G22  23004856.369   120891354.3501       -356.169          19.000  
G26  20109844.844   105678157.076        -541.325          25.000  
G31  21498012.835   112972928.345       -1400.378          30.000  
G32  21152494.233   111157066.8781      -2085.350          29.000  
J02  39289426.796   206467448.591       -1432.189          25.000  
> 2021  9 30 12  2 43.9988544  0  5
E08  22103261.131   116153376.1031      -1778.268          27.000  
G26  20109796.877   105677910.349        -541.657          24.000  
G31  21498129.754   112973541.124       -1401.107          27.000  
G32  21152742.761   111158363.986       -2084.719          29.000  
J01  36234367.769   190412675.1581       -142.479          20.000  
> 2021  9 30 12  2 44.9988539  0  5
C19  23190963.030   120761413.7231      -3498.221          26.000  
E08  22103451.199   116154366.888       -1777.935          28.000  
G26  20109749.810   105677664.142        -540.127          27.000  
G31  21498245.774   112974154.500       -1401.318          28.000  
G32  21152989.790   111159661.040       -2084.640          29.000  
> 2021  9 30 12  2 45.9988534  0  5
C19  23191482.571   120764132.076       -3499.757          21.000  
G22  23004607.542   120890053.4921       -353.178          16.000  
G26  20109706.940   105677416.591        -541.076          23.000  
G31  21498363.593   112974768.488       -1402.037          26.000  
G32  21153236.519   111160958.374       -2085.245          30.000  
> 2021  9 30 12  2 46.9988529  0  4
G26  20109660.472   105677172.008        -543.430          25.000  
G31  21498482.011   112975383.187       -1402.453          26.000  
G32  21153485.347   111162256.269       -2086.289          35.000  
J01  36233997.825   190410743.7421       -145.681          20.000  
> 2021  9 30 12  2 47.9988526  0  6
C01  37489087.045   195215481.2771       -705.044          27.000  
C07  36312293.422   189087744.9191       -163.501          13.000  
G22  23004498.417   120889489.2791       -348.507          17.000  
G26  20109676.061   105677243.996        -545.037          25.000  
G31  21498657.389   112976311.903       -1400.780          27.000  
G32  21153793.533   111163869.792       -2085.924          33.000  
> 2021  9 30 12  2 48.9988521  0  4
G26  20109628.394   105677001.463        -545.891          26.000  
G31  21498772.809   112976925.110       -1400.724          30.000  
G32  21154040.263   111165170.155       -2088.107          31.000  
J01  36233808.656   190409771.5381       -145.058          19.000  
> 2021  9 30 12  2 49.9988516  0  5
G22  23004329.034   120888611.9411       -352.184          20.000  
G26  20109581.926   105676759.802        -545.758          26.000  
G31  21498888.229   112977537.959       -1400.544          29.000  
G32  21154286.092   111166470.624       -2088.917          32.000  
J02  39290334.567   206472276.6751      -1431.292          28.000  
> 2021  9 30 12  2 50.9988513  0  5
C07  36311989.433   189086190.0051       -153.450          12.000  
G26  20109595.417   105676834.037        -548.844          23.000  
G31  21499063.608   112978465.809       -1400.663          30.000  
G32  21154591.281   111168088.136       -2090.600          31.000  
J02  39290517.741   206473236.930       -1434.299          26.000  
> 2021  9 30 12  2 51.9988508  0  4
G26  20109549.249   105676595.203        -548.362          23.000  
G31  21499178.428   112979078.353       -1399.791          29.000  
G32  21154838.010   111169389.665       -2088.909          31.000  
J02  39290642.754   206473883.026       -1435.009          26.000  
> 2021  9 30 12  2 52.9988503  0  5
G22  23004146.461   120887625.2871       -354.666          25.000  
G26  20109502.181   105676355.574        -549.012          23.000  
G31  21499293.849   112979690.867       -1400.013          23.000  
G32  21155084.740   111170690.396       -2089.125          34.000  
J02  39290766.269   206474529.560       -1433.339          26.000  
> 2021  9 30 12  2 53.9988498  0  5
G22  23004064.318   120887193.459        -357.050          25.000  
G26  20109456.613   105676114.227        -546.120          23.000  
G31  21499411.367   112980303.344       -1400.908          28.000  
G32  21155331.169   111171991.872       -2089.443          29.000  
J02  39290891.282   206475175.490       -1433.556          25.000  
> 2021  9 30 12  2 54.9988493  0  4
G26  20109411.344   105675873.233        -546.833          25.000  
G31  21499527.387   112980916.274       -1401.023          27.000  
G32  21155579.397   111173293.691       -2089.706          30.000  
J02  39291013.897   206475820.963       -1433.054          24.000  
> 2021  9 30 12  2 55.9988490  0  2
G26  20109425.135   105675947.361        -546.992          27.000  
G32  21155887.584   111174910.632       -2090.149          31.000  
> 2021  9 30 12  2 56.9988485  0  1
G26  20109380.466   105675706.380        -547.562          30.000  
> 2021  9 30 12  2 57.9988480  0  2
G26  20109334.298   105675466.407        -548.304          29.000  
G32  21156389.137   111177517.0261      -2092.786          33.000  
> 2021  9 30 12  2 58.9988477  0  4
G22  23003767.223   120885666.6991       -352.386          18.000  
G26  20109348.388   105675542.451        -549.160          26.000  
G31  21500116.179   112984021.7331      -1408.751          19.000  
G32  21156695.824   111179136.890       -2092.213          33.000  
> 2021  9 30 12  2 59.9988472  0  2
G26  20109303.119   105675305.615        -551.058          24.000  
G31  21500239.994   112984642.736       -1409.657          16.000  
> 2021  9 30 12  3  0.9988467  0  2
G26  20109255.452   105675069.173        -551.055          25.000  
G32  21157188.383   111181745.4131      -2090.976          30.000  
> 2021  9 30 12  3  1.9988462  0  2
G26  20109209.284   105674832.030        -550.344          27.000  
G32  21157436.611   111183048.644       -2091.760          30.000  
> 2021  9 30 12  3  2.9988457  0  2
G26  20109165.215   105674594.369        -549.796          26.000  
G31  21500591.051   112986494.5011      -1406.433          16.000  
> 2021  9 30 12  3  3.9988454  0  3
G26  20109178.705   105674672.097        -551.095          26.000  
G31  21500765.230   112987428.981       -1410.789          15.000  
G32  21157994.525   111185975.3971      -2094.591          31.000  
> 2021  9 30 12  3  4.9988449  0  3
G22  23003340.918   120883400.0551       -362.111          17.000  
G26  20109130.139   105674435.303        -551.149          28.000  
G31  21500882.749   112988052.409       -1413.276          15.000  
> 2021  9 30 12  3  5.9988444  0  2
G22  23003258.775   120882974.065        -360.925          24.000  
G32  21158494.279   111188587.6651      -2093.910          31.000  
> 2021  9 30 12  3  6.9988442  0  2
G22  23003267.170   120883020.210        -362.089          20.000  
G26  20109129.839   105674437.8171       -554.954          26.000  
> 2021  9 30 12  3  7.9988436  0  5
E30  22907131.223   120377955.3111      -1893.091          32.000  
G22  23003154.747   120882436.788        -362.036          24.000  
G26  20109055.191   105674047.229        -554.582          29.000  
G31  21501301.858   112990237.5261      -1406.105          13.000  
G32  21159056.690   111191517.7491      -2095.227          31.000  
> 2021  9 30 12  3  8.9988431  0  4
E30  22907340.778   120379059.890       -1892.475          28.000  
G22  23003072.904   120882011.977        -363.451          23.000  
G26  20109009.622   105673813.725        -554.034          30.000  
G31  21501415.480   112990853.535       -1400.414          14.000  
> 2021  9 30 12  3  9.9988426  0  2
G26  20108965.253   105673580.334        -554.860          29.000  
G31  21501534.198   112991466.714       -1401.387          15.000  
> 2021  9 30 12  3 10.9988421  0  1
G26  20108924.181   105673348.496        -556.022          28.000  
> 2021  9 30 12  3 11.9988419  0  4
G22  23002907.419   120881214.1571       -360.386          18.000  
G26  20108972.448   105673591.226        -557.551          22.000  
G31  21501862.171   112993167.3191      -1401.813          17.000  
G32  21160138.041   111197217.5601      -2093.142          33.000  
> 2021  9 30 12  3 12.9988413  0  2
G22  23002796.196   120880629.340        -359.553          16.000  
G26  20108896.900   105673204.351        -557.815          24.000  
> 2021  9 30 12  3 13.9988408  0  3
G22  23002710.755   120880200.732        -358.908          18.000  
G26  20108853.430   105672973.992        -556.629          29.000  
G31  21502074.723   112994233.8921      -1396.571          18.000  
> 2021  9 30 12  3 14.9988406  0  4
G22  23002713.453   120880244.133        -356.999          24.000  
G26  20108900.198   105673215.744        -557.627          30.000  
G31  21502286.077   112995312.045       -1391.059          17.000  
G32  21160943.584                       -2097.052          35.000  
> 2021  9 30 12  3 15.9988401  0  7
C06  36296956.940   189007779.0271       -104.324          27.000  
C07  36309452.889   189072874.8901       -171.812          27.000  
C16  36658368.739   190889890.4441        -72.773          27.000  
C22  22171905.809   115454930.9271       -890.296          27.000  
G26  20108856.428   105672985.948        -557.729          28.000  
G31  21502401.197   112995916.143       -1392.412          16.000  
G32  21161197.208                       -2096.261          39.000  
> 2021  9 30 12  3 16.9988396  0  7
C06  36296825.630   189007102.379        -103.804          26.000  
C07  36309333.571   189072266.393        -172.443          25.000  
C16  36658227.837   190889183.103         -73.353          26.000  
C22  22171925.895   115455039.991        -890.432          26.000  
G26  20108812.958   105672756.723        -559.415          24.000  
G31  21502520.815   112996518.061       -1388.942          15.000  
G32  21161448.734   111204125.6481      -2096.915          41.000  
> 2021  9 30 12  3 17.9988390  0 10
C06  36296665.242   189006268.600        -102.602          26.000  
C07  36309184.275   189071500.941        -170.115          23.000  
C16  36658060.253   190888319.766         -73.526          26.000  
C22  22171912.404   115454994.285        -890.887          24.000  
E02  26825247.767                       -3174.727          34.000  
E08  22110176.743   116189691.1231      -1785.639          32.000  
G22  23002427.451   120878788.4411       -354.310          15.000  
G26  20108738.310   105672370.279        -558.066          22.000  
G31  21502608.354   112996963.800       -1393.253          14.000  
G32  21161670.580   111205276.918       -2096.870          43.000  
> 2021  9 30 12  3 18.9988388  0  7
C06  36296624.170   189006058.562        -102.353          27.000  
C07  36309153.996   189071358.670        -169.570          25.000  
C16  36658011.986   190888082.291         -74.882          26.000  
E02  26825791.591   140970486.9951      -3173.372          34.000  
E08  22110457.649   116191161.170       -1784.799          32.000  
G31  21502819.708   112998042.842       -1396.938          14.000  
G32  21162008.746   111207058.690       -2096.510          42.000  
> 2021  9 30 12  3 19.9988383  0  7
C06  36296492.861   189005381.195        -103.751          25.000  
C07  36309034.678   189070748.714        -170.976          24.000  
C16  36657873.782   190887377.447         -76.540          26.000  
C22  22172035.919   115455683.7611       -890.500          23.000  
E02  26826248.774   140972873.110       -3172.578          34.000  
G32  21162255.475                       -2097.633          42.000  
J02  39294519.071   206494090.4661      -1429.557          31.000  
> 2021  9 30 12  3 20.9988378  0 11
C06  36296363.051   189004706.680        -107.560          24.000  
C07  36308917.759   189070139.535        -171.726          25.000  
C16  36657735.878   190886672.523         -75.802          26.000  
E02  26826702.960   140975259.317       -3173.358          34.000  
E08  22110843.482   116193266.5171      -1787.438          31.000  
G22  23002269.460   120877973.7761       -365.263          13.000  
G26  20108686.446   105671859.8021       -558.392          19.000  
G31  21503065.238   112999267.0651      -1402.602          18.000  
G32  21162505.802   111209678.8931      -2098.123          42.000  
J02  39294644.384   206494731.178       -1426.876          30.000  
R05  19208415.391   102679987.7901         -3.605          29.000  
> 2021  9 30 12  3 21.9988375  0  7
C06  36296293.499   189004345.348        -107.657          24.000  
C07  36308860.499   189069843.374        -172.101          25.000  
E02  26827216.504   140977960.510       -3173.339          33.000  
G22  23002244.577   120877865.324        -363.927          11.000  
G32  21162813.389   111211304.538       -2098.607          42.000  
J02  39294825.458   206495686.864       -1427.884          29.000  
R05  19208325.153   102679506.216          -4.951          30.000  
> 2021  9 30 12  3 22.9988370  0  7
C06  36296163.089   189003672.477        -107.809          24.000  
C07  36308744.179   189069235.816        -173.664          25.000  
C16  36657524.224   190885574.1511        -73.205          26.000  
E02  26827667.692   140980346.571       -3173.858          34.000  
G32  21163063.416   111212615.634       -2099.043          42.000  
J02  39294952.870   206496327.499       -1426.752          29.000  
R05  19208175.857   102678707.980          -7.008          29.000  
> 2021  9 30 12  3 23.9988365  0  8
C06  36296031.480   189002998.553        -105.552          23.000  
C07  36308628.460   189068628.944        -174.337          24.000  
E02  26828121.878   140982732.622       -3173.839          34.000  
G29  23746856.194   124790571.2821      -1334.025          27.000  
G31  21503489.744   113001431.9761      -1406.281          20.000  
G32  21163311.944   111213927.209       -2099.528          42.000  
J02  39295075.485   206496968.201       -1430.220          30.000  
R05  19208030.157   102677929.102          -6.938          27.000  
> 2021  9 30 12  3 24.9988360  0  8
C06  36295901.670   189002323.313        -105.307          24.000  
C07  36308512.440   189068022.492        -173.289          24.000  
E02  26828575.164   140985118.511       -3172.591          33.000  
E30  22910983.556   120398030.8691      -1898.311          32.000  
G22  23002003.844   120876601.8761       -366.850          13.000  
G32  21163560.772   111215239.135       -2099.812          42.000    21163564.669    83050373.2081      -1567.189          28.000  
J02  39295190.306   206497608.439       -1429.288          29.000  
R05  19207880.861   102677130.416          -7.489          30.000  
> 2021  9 30 12  3 25.9988355  0 10
C06  36295770.361   189001647.760        -104.778          25.000  
C07  36308397.020   189067416.236        -175.265          24.000  
E02  26829031.148   140987504.370       -3172.451          33.000  
E08  22111852.883   116198579.7631      -1789.234          30.000  
G22  23001923.800   120876185.508        -372.910          12.000  
G29  23747065.149   124791664.7551      -1333.856          27.000  
G31  21503729.878   113002676.4371      -1415.590          17.000  
G32  21163812.597   111216551.470       -2099.738          42.000    21163815.296    83051352.776       -1567.921          28.000  
J02  39295309.623   206498248.655       -1427.693          29.000  
R05  19207734.862   102676350.415          -8.649          29.000  
> 2021  9 30 12  3 26.9988352  0 10
C06  36295701.709   189001282.972        -103.148          28.000  
C07  36308341.258   189067123.513        -174.953          25.000  
C16  36657034.963   190883053.0631        -71.689          26.000  
E02  26829544.393   140990205.118       -3174.895          32.000  
E08  22112101.411   116199895.447       -1790.157          30.000  
E30  22911465.023   120400561.7681      -1895.292          31.000  
G26  20108542.546   105671130.7341       -565.489          25.000  
G29  23747229.135   124792525.780       -1333.341          28.000  
G32  21164118.086   111218179.352       -2101.892          40.000    21164125.581    83052568.484       -1570.015          27.000  
R05  19207646.423   102675877.393          -8.571          30.000  
> 2021  9 30 12  3 27.9988347  0 10
C06  36295572.198   189000604.734        -101.247          25.000  
C07  36308226.138   189066517.144        -174.806          25.000  
E02  26829996.180   140992591.032       -3172.135          32.000  
E08  22112293.278   116200896.377       -1788.167          30.000  
G22  23001820.371   120875381.3541       -370.221          13.000  
G26  20108500.575   105670908.676        -565.659          25.000  
G29  23747334.363   124793072.194       -1334.650          28.000  
G32  21164367.513   111219492.747       -2101.294          42.000    21164375.608    83053550.302       -1570.500          27.000  
J02  39295612.114   206499844.3571      -1427.659          30.000  
R05  19207496.227   102675075.202          -9.649          31.000  
> 2021  9 30 12  3 28.9988342  0 11
C01  37489131.414   195215615.7821       -698.689          27.000  
C06  36295441.189   188999925.225        -101.770          25.000  
C07  36308110.118   189065911.727        -174.700          25.000  
C22  22172333.013   115457312.9431       -893.400          21.000  
C30  25113776.095   130774021.9781        461.930          23.000  
E02  26830448.867   140994976.847       -3172.761          32.000  
E08  22112482.447   116201897.768       -1787.994          30.000  
G26  20108458.004   105670686.316        -564.634          22.000  
G29  23747437.791   124793620.524       -1336.985          28.000  
G32  21164617.240   111220806.684       -2101.380          41.000    21164626.234    83054533.417       -1570.815          27.000  
R05  19207346.331   102674273.002         -10.752          30.000  
> 2021  9 30 12  3 29.9988339  0 11
C06  36295371.937   188999559.088        -103.859          27.000  
C07  36308054.657   189065618.322        -173.949          25.000  
C16  36656685.405   190881240.1811        -72.802          26.000  
C30  25113604.613   130773091.044         464.222          24.000  
E02  26830960.612   140997677.781       -3173.632          32.000  
E08  22112736.671   116203214.768       -1789.297          30.000  
G26  20108476.292   105670778.092        -564.037          24.000  
G29  23747602.377   124794485.347       -1337.625          28.000  
G31  21504363.939   113006194.2281      -1410.284          13.000  
G32  21164927.526   111222436.184       -2102.089          40.000    21164935.620    83055750.645       -1569.941          26.000  
R05  19207258.192   102673802.323         -11.891          29.000  
> 2021  9 30 12  3 30.9988334  0 11
C06  36295241.827   188998882.492        -104.978          26.000  
C07  36307939.237   189065011.462        -173.823          24.000  
C16  36656552.297   190880532.574         -73.159          24.000  
C30  25113365.379   130771846.426         463.683          23.000  
E02  26831415.697   141000063.781       -3175.685          32.000  
E08  22112927.939   116204217.160       -1792.929          30.000  
G26  20108434.620   105670553.800        -563.251          21.000  
G29  23747706.405   124795035.406       -1337.053          28.000  
G31  21504491.350   113006813.984       -1405.521          16.000  
G32  21165176.953   111223751.355       -2102.467          41.000    21165184.747    83056732.553       -1571.555          27.000  
R05  19207108.895   102673003.764         -12.688          29.000  
> 2021  9 30 12  3 31.9988329  0  8
C06  36295112.916   188998206.694        -104.484          25.000  
C07  36307822.318   189064403.975        -173.039          25.000  
C30  25113125.545   130770604.236         459.239          24.000  
E02  26831868.684   141002449.752       -3172.786          32.000  
E08  22113118.607   116205219.956       -1790.235          30.000  
G31  21504616.664   113007430.159       -1403.027          17.000  
G32  21165426.380   111225066.936       -2103.300          40.000    21165434.774    83057714.569       -1569.532          26.000  
R05  19206961.098   102672213.899         -13.770          29.000  
> 2021  9 30 12  3 32.9988324  0 10
C06  36294983.706   188997530.219        -103.938          27.000  
C07  36307707.197   189063795.578        -171.852          24.000  
C22  22172495.201   115458093.3011       -900.722          22.000  
C30  25112886.011   130769364.526         458.988          21.000  
E08  22113307.776   116206223.000       -1791.457          30.000  
E30  22912794.003   120407531.3211      -1899.342          31.000  
G26  20108352.177   105670108.3851       -565.082          23.000  
G31  21504742.577   113008043.759       -1400.430          18.000  
G32  21165678.206   111226382.989       -2103.724          39.000    21165684.801    83058697.519       -1571.764          26.000  
R05  19206810.602   102671409.235         -15.113          29.000  
> 2021  9 30 12  3 33.9988319  0  9
C06  36294854.495   188996854.340        -105.073          26.000  
C07  36307592.077   189063187.332        -172.731          26.000  
C16  36656148.177   190878409.8371        -74.352          25.000  
C30  25112645.577   130768123.778         459.999          22.000  
E08  22113498.144   116207226.630       -1792.746          31.000  
E30  22913002.958   120408641.594       -1902.763          31.000  
G29  23748017.290   124796687.5441      -1339.566          27.000  
G32                                                                  21165935.128    83059679.491       -1572.240          26.000  
R05  19206662.804   102670620.048         -16.340          29.000  
> 2021  9 30 12  3 34.9988316  0  9
C06  36294788.241   188996490.871        -105.778          23.000  
C07  36307534.217   189062891.974        -173.971          27.000  
C16  36656073.828   190878015.352         -74.044          25.000  
C30  25112468.700   130767195.869         459.912          25.000  
E08  22113745.173   116208544.541       -1790.451          25.000  
E30  22913269.773   120410067.122       -1899.121          30.000  
G26  20108335.989   105669982.7621       -569.397          27.000  
G29  23748178.578   124797554.766       -1340.194          27.000  
G32  21166236.419   111229331.6711      -2106.633          35.000    21166246.013    83060900.137       -1576.228          20.000  
> 2021  9 30 12  3 35.9988311  0 11
C06  36294659.630   188995816.120        -106.412          20.000  
C07  36307415.499   189062286.453        -175.555          25.000  
C30  25112231.864   130765956.149         459.686          26.000  
E02  26833745.085   141012311.3291      -3179.141          27.000  
E30  22913476.630   120411179.310       -1899.704          30.000  
G26  20108295.816   105669764.660        -570.069          26.000  
G29  23748279.608   124798107.909       -1341.577          24.000  
G31  21505161.087   113010189.5461      -1394.869          19.000  
G32  21166484.648   111230649.830       -2106.427          30.000    21166497.539    83061887.996       -1576.694          17.000  
J02  39296709.054   206505595.4211      -1426.342          28.000  
R05  19206424.169   102669343.5601        -16.526          26.000  
> 2021  9 30 12  3 36.9988308  0 10
C06  36294589.179   188995455.313        -107.877          23.000  
C07  36307359.138   189061993.506        -175.588          26.000  
C16  36655871.168   190876914.7261        -73.257          30.000  
E02  26834258.030   141015013.622       -3173.134          25.000  
E30  22913747.942   120412605.828       -1899.382          31.000  
G26  20108317.701   105669862.066        -569.909          24.000  
G31  21505336.465   113011114.833       -1400.690          18.000  
G32                                                                  21166811.721    83063117.744       -1587.098          13.000  
J02  39296892.228   206506549.332       -1427.484          28.000  
R05  19206336.030   102668872.564         -19.020          26.000  
> 2021  9 30 12  3 37.9988303  0 11
C06  36294459.968   188994781.860        -106.740          26.000  
C07  36307243.418   189061387.448        -173.776          26.000  
C16  36655737.761   190876207.206         -72.323          28.000  
C30  25111815.752   130763786.9351        460.729          22.000  
E30  22913957.497   120413716.486       -1897.991          33.000  
G26  20108278.129   105669644.079        -569.788          29.000  
G29  23748545.824   124799530.8771      -1342.036          24.000  
G31  21505458.481   113011728.595       -1401.560          18.000  
G32                                                                  21167065.945    83064114.461       -1580.969          25.000  
J02  39297014.243   206507189.254       -1428.144          31.000  
R05  19206194.228   102668114.788         -19.419          28.000  
> 2021  9 30 12  3 38.9988298  0  8
C01  37489148.802   195215711.9301       -701.278          26.000  
C06  36294328.959   188994107.520        -104.918          25.000  
C07  36307127.699   189060781.416        -174.294          25.000  
C30  25111578.016   130762546.188         459.764          23.000  
G26  20108237.957   105669426.487        -570.895          28.000  
G29  23748647.453   124800085.774       -1343.344          22.000  
G32  21167308.477                       -2108.940          40.000    21167317.471    83065103.007       -1574.525          30.000  
R05  19206046.431   102667324.618         -20.476          29.000  
> 2021  9 30 12  3 39.9988293  0 10
C01  37489133.513   195215633.763        -703.458          32.000  
C06  36294197.950   188993431.011        -103.648          27.000  
C07  36307011.079   189060175.467        -174.839          25.000  
C22  22172799.490   115459570.5171       -903.467          35.000  
G26  20108199.883   105669210.093        -571.544          31.000  
G29  23748542.826   124799434.726       -1350.234          20.000  
G31  21505692.619   113012960.1891      -1403.513          23.000  
G32                                                                  21167567.198    83066087.152       -1571.181          23.000  
J02  39297254.677   206508472.9281      -1430.163          25.000  
R05  19205900.132   102666542.472         -21.621          31.000  
> 2021  9 30 12  3 40.9988288  0  9
C01  37489119.123   195215557.397        -705.014          32.000  
C06  36294067.240   188992754.155        -104.412          27.000  
C07  36306893.561   189059570.550        -176.141          26.000  
C22  22172820.476   115459694.302        -905.306          35.000  
E30  22914598.154   120417051.7791      -1900.519          27.000  
G26  20108160.310   105668994.356        -572.850          30.000  
G32  21167815.127   111237597.7741      -2108.129          41.000    21167816.625    83067069.909       -1571.250          23.000  
J02  39297379.390   206509114.698       -1428.694          26.000  
R05  19205753.833   102665760.117         -22.226          31.000  
> 2021  9 30 12  3 41.9988283  0  9
C01  37489105.332   195215482.098        -705.943          32.000  
C06  36293937.130   188992077.854        -105.021          27.000  
C07  36306776.042   189058967.161        -177.121          25.000  
C22  22172842.061                        -905.221          35.000  
E30  22914813.105   120418163.363       -1899.119          28.000  
G26  20108120.138   105668779.795        -573.567          30.000  
G32  21168063.355   111238919.119       -2109.542          41.000    21168066.053    83068052.868       -1571.582          21.000  
J02  39297502.005   206509755.803       -1429.124          26.000  
R05  19205608.734   102664985.303         -22.823          32.000  
> 2021  9 30 12  3 42.9988280  0 10
C01  37489151.500   195215719.968        -706.477          33.000  
C06  36293867.279   188991714.405        -105.175          28.000  
C07  36306719.381   189058676.903        -178.459          26.000  
C22  22172923.904   115460243.1211       -904.677          35.000  
C30  25110660.352   130757897.7831        458.205          26.000  
E30  22915088.015   120419590.728       -1901.395          28.000  
G26  20108140.824   105668881.112        -574.350          32.000  
G32  21168371.841   111240556.007       -2109.675          41.000    21168376.638    83069272.859       -1574.199          23.000  
J02  39297684.879   206510711.466       -1428.720          26.000  
R05  19205525.691   102664540.875         -23.413          31.000  
> 2021  9 30 12  3 43.9988275  0 12
C01  37489136.811   195215646.166        -707.062          32.000  
C06  36293736.869   188991039.855        -106.622          28.000  
C07  36306603.961   189058073.391        -177.318          26.000  
C22  22172948.787   115460368.318        -905.660          35.000  
C30  25110422.316   130756659.437         457.723          24.000  
E08  22115587.997   116218228.1891      -1795.989          28.000  
E30  22915302.066   120420705.154       -1902.960          29.000  
G26  20108100.352   105668667.574        -574.360          31.000  
G31  21506213.658   113015738.2781      -1401.106          20.000  
G32  21168624.266   111241878.421       -2109.873          40.000    21168628.164    83070259.623       -1576.451          22.000  
J02  39297805.695   206511351.295       -1427.061          27.000  
R05  19205380.292   102663764.134         -23.986          32.000  
> 2021  9 30 12  3 44.9988270  0 12
C01  37489122.121   195215572.806        -707.272          32.000  
C06  36293605.859   188990365.659        -105.799          27.000  
C07  36306490.040   189057470.291        -177.652          26.000  
C22  22172973.670   115460494.080        -907.239          35.000  
C30  25110186.080   130755421.997         456.750          23.000  
E08  22115782.263   116219237.093       -1797.626          29.000  
E30  22915514.320   120421818.936       -1899.507          28.000  
G26  20108061.679   105668454.433        -575.150          30.000  
G31  21506329.078   113016351.073       -1401.617          22.000  
G32  21168875.492   111243201.292       -2109.649          40.000    21168879.390    83071247.740       -1576.413          23.000  
J02  39297927.111   206511990.787       -1427.458          27.000  
R05  19205236.092   102662993.260         -24.540          32.000  
> 2021  9 30 12  3 45.9988268  0 10
C01  37489197.069   195215967.572        -706.801          31.000  
C06  36293566.886   188990159.172        -105.377          28.000  
C07  36306465.457   189057335.660        -177.220          26.000  
C22  22173087.291   115461088.949        -906.319          35.000  
C30  25110040.681   130754653.143         456.349          21.000  
E08  22116067.965   116220719.526       -1797.851          30.000  
G26  20108111.144   105668714.657        -576.020          30.000  
G32  21169219.055   111244997.480       -2111.229          40.000    21169219.954    83072589.542       -1577.024          22.000  
J02  39298140.863   206513103.574       -1428.196          27.000  
R05  19205184.228   102662715.551         -26.536          31.000  
> 2021  9 30 12  3 46.9988262  0  9
C01  37489152.100   195215737.003        -705.637          32.000  
C06  36293407.097   188989327.922        -105.702          28.000  
C07  36306320.357   189056575.797        -176.042          27.000  
C22  22173080.696   115461059.948        -913.829          34.000  
E08  22116232.851   116221571.605       -1798.253          28.000  
E30  22915999.684   120424360.5481      -1902.549          29.000  
G26  20108039.494   105668345.620        -576.358          31.000  
G32  21169440.601   111246163.516       -2112.303          40.000    21169441.501    83073459.893       -1576.591          26.000  
R05  19205012.447   102661797.582         -28.212          31.000  
> 2021  9 30 12  3 47.9988257  0  9
C06  36293276.088   188988653.584        -107.268          25.000  
C07  36306205.537   189055971.961        -176.398          28.000  
C22  22173104.979   115461188.539        -907.530          29.000  
E30  22916211.937   120425476.714       -1903.472          29.000  
G22  23000486.594   120868372.5701       -381.802          18.000  
G26  20107997.823   105668134.877        -577.488          26.000  
G32  21169693.926   111247488.973       -2113.309          34.000    21169692.727    83074447.522       -1575.188          18.000  
J02  39298354.016   206514227.2021      -1429.364          27.000  
R05  19204867.647   102661023.104         -29.393          28.000  
> 2021  9 30 12  3 48.9988252  0 10
C07  36306088.618   189055369.005        -177.758          27.000  
C22  22173129.862   115461315.699        -907.762          31.000  
C30  25109300.193   130750784.7311        456.987          19.000  
E30  22916423.590   120426593.229       -1903.935          26.000  
G22  23000410.447   120867966.178        -380.863          18.000  
G26  20107953.753   105667924.874        -577.666          26.000  
G31  21506858.212   113019127.6541      -1401.193          10.000  
G32  21169946.051   111248814.119       -2114.325          38.000    21169943.053    83075432.897       -1576.584          18.000  
J02  39298474.832   206514869.019       -1430.623          28.000  
R05  19204721.648   102660242.708         -29.971          24.000  
> 2021  9 30 12  3 49.9988250  0 10
C06  36293107.005   188987773.0331       -106.141          22.000  
C07  36306062.836   189055235.305        -178.682          25.000  
C22  22173242.883   115461911.342        -908.184          27.000  
C30  25109154.494   130750015.750         457.148          13.000  
E30  22916722.483   120428181.638       -1902.096          30.000  
G22  23000423.338   120868030.412        -378.964          19.000  
G26  20108001.720   105668187.861        -578.945          23.000  
G31  21507065.069   113020214.092       -1401.957          17.000  
J02  39298684.987   206515984.402       -1430.535          25.000  
R05  19204669.784   102659966.225         -30.010          27.000  
> 2021  9 30 12  3 50.9988244  0  8
C07  36305918.336   189054476.662        -178.051          28.000  
C16  36654141.966   190867962.5701        -75.503          27.000  
C22  22173237.787   115461883.397        -909.554          29.000  
E30  22916902.059   120429139.242       -1902.823          28.000  
G22  23000310.916   120867466.088        -380.797          18.000  
G26  20107927.971   105667819.920        -576.639          26.000  
J02  39298777.922   206516468.939       -1429.503          23.000  
R05  19204496.204   102659038.234         -30.907          28.000  
> 2021  9 30 12  3 51.9988239  0 10
C06  36292822.802   188986267.5471       -104.903          25.000  
C07  36305802.916   189053874.118        -177.415          27.000  
C16  36654011.556   190867256.783         -74.672          30.000  
C22  22173264.169   115462013.119        -910.932          29.000  
E30  22917111.914   120430254.262       -1903.156          32.000  
G22  23000230.572   120867059.446        -381.332          18.000  
G26  20107887.499   105667609.411        -578.305          27.000  
G32  21170756.690   111253106.1991      -2114.493          30.000  
J02  39298899.638   206517110.421       -1428.675          28.000  
R05  19204356.800   102658292.421         -32.344          31.000  
> 2021  9 30 12  3 52.9988234  0  9
C06  36292695.690   188985591.992        -105.214          27.000  
C16  36653881.146   190866550.969         -75.175          32.000  
C22  22173286.653   115462143.491        -910.720          25.000  
E30  22917322.068   120431369.802       -1903.925          30.000  
G22  23000152.626   120866653.253        -385.872          17.000  
G26  20107850.325   105667401.130        -580.279          24.000  
G31  21507382.549   113021902.2341      -1404.312          16.000  
G32  21171007.616   111254433.745       -2115.692          30.000  
J02  39299022.853   206517751.265       -1429.133          31.000  
> 2021  9 30 12  3 53.9988232  0 10
C06  36292655.218   188985385.352        -106.966          25.000  
C07  36305658.416   189053137.6121       -178.131          25.000  
C16  36653839.175   190866313.197         -73.534          25.000  
C22  22173402.973   115462742.417        -911.120          30.000  
C30  25108279.999   130745383.7111        460.852          18.000  
E30  22917623.060   120432959.036       -1905.557          27.000  
G22  23000172.112   120866724.723        -387.458          16.000  
G26  20107900.990   105667666.657        -580.954          27.000  
J02  39299235.705   206518865.323       -1428.836          29.000  
R05  19204153.541   102657206.5941        -34.665          22.000  
> 2021  9 30 12  3 54.9988227  0  9
C06  36292525.707   188984711.330        -106.081          27.000  
C07  36305542.096   189052534.511        -176.191          26.000  
C22  22173430.853   115462872.841        -911.472          29.000  
C30  25108043.163   130744142.426         461.052          18.000  
E30  22917837.711   120434075.742       -1904.830          25.000  
G22  23000099.562   120866324.577        -387.229          16.000  
G26  20107865.015   105667460.162        -582.157          26.000  
G31  21507688.037   113023607.5961      -1403.789          17.000  
R05  19204005.743   102656416.156         -34.986          22.000  
> 2021  9 30 12  3 55.9988221  0  8
C06  36292364.719   188983880.764        -106.168          22.000  
C07  36305396.397   189051774.946        -178.046          23.000  
C16  36653540.282   190864740.5641        -70.821          28.000  
C22  22173427.556   115462848.617        -913.527          27.000  
E30  22918018.786   120435035.040       -1903.504          26.000  
G26  20107798.461   105667097.005        -581.946          23.000  
J02  39299450.057   206519990.3061      -1428.984          26.000  
R05  19203836.061   102655508.692         -35.114          25.000  
> 2021  9 30 12  3 56.9988216  0  6
C06  36292237.907   188983206.391        -105.981          27.000  
C07  36305278.579   189051172.508        -178.348          25.000  
C16  36653403.877   190864032.134         -73.889          28.000  
C22  22173453.338   115462981.948        -914.504          26.000  
J02  39299572.372   206520630.713       -1427.641          28.000  
R05  19203693.660   102654748.266         -36.264          31.000  
> 2021  9 30 12  3 57.9988214  0  8
C06  36292198.034   188982999.656        -104.850          26.000  
C07  36305253.096   189051040.223        -179.839          21.000  
C22  22173566.959   115463583.431        -913.744          26.000  
E30  22918533.829   120437739.9001      -1902.960          23.000  
G22  22999941.572   120865434.6511       -384.047          19.000  
G26  20107809.853   105667156.9371       -581.948          21.000  
G31  21508088.560   113025773.9551      -1404.586          18.000  
R05  19203639.697   102654459.524         -36.926          28.000  
> 2021  9 30 12  3 58.9988209  0  9
C06  36292069.123   188982324.596        -105.862          30.000  
C07  36305139.175   189050440.459        -181.313          26.000  
C16  36653224.001   190863089.1291        -75.854          31.000  
C22  22173596.039   115463716.922        -914.504          30.000  
C30  25107137.191   130739505.5051        451.964          19.000  
G22  22999873.219   120865031.572        -384.543          20.000  
G26  20107768.182   105666952.414        -583.447          26.000  
G32  21172676.861   111263195.0821      -2117.947          29.000  
J02  39299905.142   206522383.2881      -1427.855          27.000  
> 2021  9 30 12  3 59.9988204  0  7
C06  36291939.313   188981649.324        -105.587          29.000  
C16  36653088.495   190862383.530         -74.485          31.000  
C22  22173622.121   115463851.210        -915.058          33.000  
E30  22918951.440   120439970.9111      -1904.775          24.000  
G26  20107728.010   105666748.123        -584.314          26.000  
G32  21172929.586   111264525.674       -2118.303          34.000  
J02  39300027.457   206523023.618       -1428.487          28.000  
> 2021  9 30 12  4  0.9988198  0  7
C06  36291779.524   188980817.862        -105.464          31.000  
C16  36652922.110   190861521.229         -73.625          31.000  
C22  22173617.924   115463829.952        -915.677          31.000  
G22  22999706.235   120864066.0931       -382.006          21.000  
G26  20107657.858   105666387.497        -585.474          26.000  
J02  39300120.693   206523505.791       -1427.611          31.000  
R05  19203196.903   102652092.7141        -42.238          16.000  
> 2021  9 30 12  4  1.9988196  0  7
C06  36291742.350   188980610.925        -106.006          30.000  
C16  36652872.944                         -73.815          31.000  
C22  22173738.440   115464433.533        -914.797          32.000  
C30  25106480.645   130736124.2981        450.676          19.000  
G26  20107706.724   105666657.901        -585.912          25.000  
J02  39300332.946   206524618.327       -1427.853          31.000  
R05  19203134.247   102651757.346         -36.108          15.000  
> 2021  9 30 12  4  2.9988191  0  9
C06  36291613.439   188979936.066        -105.547          29.000  
C16  36652740.136   190860420.9191        -73.302          31.000  
C22  22173765.122                        -917.377          33.000  
C30  25106238.113   130734894.685         445.821          18.000  
G22  22999653.171   120863732.0001       -384.674          20.000  
G26  20107665.953   105666455.380        -585.744          26.000  
G32  21173755.814                       -2119.926          35.000  
J02  39300455.861   206525258.510       -1428.100          30.000  
R05  19202988.847   102650980.063         -35.641          16.000  
> 2021  9 30 12  4  3.9988186  0  8
C06  36291484.228   188979260.709        -105.346          26.000  
C10  37045445.172   192905548.2031       -100.179          19.000  
C16  36652605.529   190859714.025         -74.031          27.000  
C22  22173796.900   115464750.0881       -915.764          26.000  
G26  20107626.380   105666252.778        -584.896          28.000  
G31  21508824.850   113029792.9231      -1408.062          18.000  
J02  39300578.176   206525898.567       -1427.857          32.000  
R05  19202838.052   102650174.020         -37.915          18.000  
> 2021  9 30 12  4  4.9988180  0 10
C06  36291323.839   188978429.389        -104.899          28.000  
C07  36304482.630   189047008.2581       -181.775          23.000  
C16  36652439.144   190858850.797         -74.045          29.000  
C22  22173792.103   115464729.385        -916.464          28.000  
G22  22999472.996   120863045.4701       -385.848          19.000  
G26  20107557.727   105665892.815        -585.556          28.000  
G31  21508908.792   113030253.421       -1404.915          16.000  
G32  21174236.681   111271343.6441      -2121.125          28.000  
J02  39300669.013   206526380.250       -1426.824          28.000  
R05  19202662.673   102649236.122         -43.082          25.000  
> 2021  9 30 12  4  5.9988178  0  8
C06  36291285.466   188978220.320        -103.116          20.000  
C16  36652392.377   190858612.442         -72.463          23.000  
C22  22173906.024   115465333.467        -917.675          20.000  
G26  20107610.491   105666163.298        -586.019          28.000  
G31  21509113.551   113031346.277       -1409.765          12.000  
G32  21174579.943   111273150.182       -2122.174          30.000  
J02  39300883.365   206527491.694       -1427.046          31.000  
R05  19202602.715   102648915.751         -45.251          25.000  
> 2021  9 30 12  4  6.9988173  0  9
C06  36291155.356   188977543.437        -104.060          26.000  
C07  36304339.629   189046276.2741       -179.086          22.000  
C10  37045110.304   192903826.3831       -104.046          19.000  
C16  36652255.072   190857904.588         -73.977          27.000  
C22  22173930.307   115465470.183        -917.611          29.000  
G26  20107572.117   105665962.557        -587.577          28.000  
G32  21174832.668   111274484.229       -2122.002          30.000  
J02  39301005.380   206528130.357       -1427.478          22.000  
R05  19202461.513   102648160.980         -44.434          27.000  
> 2021  9 30 12  4  7.9988168  0  7
C06  36291026.745   188976867.310        -105.413          27.000  
C07  36304222.410   189045675.397        -180.119          28.000  
C16  36652117.167   190857197.790         -73.146          25.000  
C22  22173954.291   115465608.047        -919.046          35.000  
G26  20107534.344   105665762.352        -588.577          31.000  
J02  39301125.297   206528770.696       -1428.410          29.000  
R05  19202320.610   102647407.825         -45.521          25.000  
> 2021  9 30 12  4  8.9988163  0  7
C06  36290897.235   188976192.177        -106.179          27.000  
C07  36304104.891   189045074.434        -180.016          27.000  
C16  36651981.961   190856490.152         -72.837          26.000  
C22  22173979.773   115465746.959        -919.952          32.000  
G26  20107494.771   105665563.506        -589.406          29.000  
J02  39301246.113   206529411.562       -1427.898          28.000  
R05  19202180.007   102646656.766         -47.245          22.000  
> 2021  9 30 12  4  9.9988160  0  6
C06  36290827.983   188975829.961        -106.605          31.000  
C07  36304048.830   189044785.741        -178.365          26.000  
C16  36651904.614   190856095.342         -74.114          31.000  
C22  22174067.912   115466198.723        -918.964          32.000  
G22  22999244.554   120861833.8231       -393.386          19.000  
J02  39301428.387   206530366.511       -1427.058          31.000  
> 2021  9 30 12  4 10.9988155  0 10
C06  36290698.172   188975155.138        -105.507          30.000  
C07  36303931.311   189044183.111        -178.650          25.000  
C10  37044650.422   192901422.1491       -102.447          16.000  
C16  36651768.509   190855389.065         -74.874          32.000  
C22  22174096.093                        -921.964          31.000  
G22  22999170.805   120861441.880        -399.354          18.000  
G26  20107480.981   105665481.6571       -589.576          31.000  
G31  21509774.293   113034759.6751      -1403.980          17.000  
G32  21175908.923                       -2123.846          42.000  
J02  39301549.503   206531005.590       -1426.857          37.000  
> 2021  9 30 12  4 11.9988150  0  7
C04  38367291.277   199788553.8011       -687.952          30.000  
C06  36290567.763   188974480.030        -105.658          30.000  
C16  36651632.403   190854683.145         -74.765          32.000  
C22  22174124.873   115466477.3811       -919.936          31.000  
G26  20107443.806   105665283.699        -590.173          32.000  
G32  21176163.447   111281488.0791      -2124.061          42.000  
R05  19201830.449   102644787.4681        -48.508          30.000  
> 2021  9 30 12  4 12.9988145  0  7
C06  36290437.053   188973804.579        -104.960          29.000  
C10  37044390.202   192900067.5641       -105.787          15.000  
C16  36651492.700   190853977.808         -75.569          31.000  
C22  22174151.255   115466618.907        -922.888          31.000  
G26  20107408.131   105665086.987        -591.748          30.000  
G32  21176418.570   111282825.033       -2125.053          43.000  
R05  19201694.943   102644063.713         -50.179          29.000  
> 2021  9 30 12  4 13.9988142  0  9
C06  36290366.902   188973441.313        -105.460          30.000  
C10  37044319.751   192899703.469        -101.689          15.000  
C16  36651416.253   190853584.185         -74.486          31.000  
C22  22174240.892   115467073.383        -922.581          31.000  
E02  26851629.204   141106263.4071      -3173.250          34.000  
E08  22121890.534   116251319.0231      -1809.628          33.000  
G26  20107432.114   105665206.798        -593.398          28.000  
G32  21176733.652   111284477.688       -2125.478          44.000  
R05  19201618.196   102643652.804         -51.219          29.000  
> 2021  9 30 12  4 14.9988137  0 10
C06  36290235.892   188972766.083        -105.802          29.000  
C07  36303519.696   189042100.7561       -183.647          16.000  
C10  37044188.442   192899026.809        -105.594          13.000  
C22  22174266.675                        -922.272          29.000  
E02  26852083.989   141108649.776       -3172.612          33.000  
E08  22122085.999   116252339.262       -1808.893          32.000  
E30  22922400.253                       -1909.119          33.000  
G22  22998917.781   120860188.4101       -391.298          15.000  
G26  20107396.439   105665011.967        -593.129          28.000  
R05  19201481.791   102642924.408         -52.560          28.000  
> 2021  9 30 12  4 15.9988132  0 11
C06  36290105.483   188972090.755        -105.154          29.000  
C10  37044057.433   192898354.581        -110.843          10.000  
C16  36651146.739   190852171.6751        -75.684          32.000  
C22  22174293.956   115467361.0481       -924.273          29.000  
E02  26852542.971   141111036.307       -3174.199          34.000  
E08  22122282.363   116253359.999       -1809.835          33.000  
E30  22922611.007   120459147.2151      -1909.553          34.000  
G22  22998835.937   120859794.811        -396.744          14.000  
G26  20107358.665   105664817.520        -594.092          29.000  
G32  21177241.801   111287154.7551      -2127.575          44.000  
R05  19201345.685   102642196.961         -53.492          28.000  
> 2021  9 30 12  4 16.9988127  0  8
C06  36289976.272   188971415.435        -105.531          30.000  
C16  36651013.331                         -73.983          32.000  
C22  22174320.637   115467505.103        -925.021          31.000  
E02  26852998.356   141113422.767       -3173.016          32.000  
E08  22122479.626   116254381.101       -1808.459          33.000  
E30  22922824.159   120460269.124       -1910.466          33.000  
G26  20107322.990   105664624.198        -594.391          29.000  
R05  19201205.982   102641449.304         -53.931          27.000  
> 2021  9 30 12  4 17.9988122  0 11
C06  36289846.162   188970740.362        -106.047          28.000  
C07  36303177.034   189040304.7941       -181.052          19.000  
C16  36650878.125   190850738.1211        -75.116          32.000  
C22  22174349.118   115467649.662        -926.170          30.000  
E02  26853451.942   141115809.194       -3175.341          33.000  
E08  22122671.193   116255402.570       -1807.298          34.000  
E30  22923035.813   120461391.287       -1910.981          33.000  
G22  22998679.446   120859014.6191       -403.213          15.000  
G26  20107285.816   105664431.267        -594.440          28.000  
G32  21177754.146   111289833.9491      -2128.586          43.000  
R05  19201066.578   102640704.572         -55.276          26.000  
> 2021  9 30 12  4 18.9988119  0 10
C06  36289776.011   188970378.069        -106.197          28.000  
C16  36650808.573   190850344.519         -75.058          31.000  
C22  22174437.556   115468107.504        -926.266          29.000  
E02  26853966.986   141118510.714       -3173.876          34.000  
E08  22122925.417   116256739.555       -1810.515          34.000  
E30  22923307.125   120462828.817       -1909.659          34.000  
G22  22998661.158   120858945.451        -407.376          14.000  
G26  20107308.000   105664552.913        -594.981          28.000  
G32  21178067.729   111291489.370       -2128.229          44.000  
R05  19200987.733   102640283.326         -58.255          27.000  
> 2021  9 30 12  4 19.9988114  0 10
C06  36289645.002   188969703.161        -105.750          28.000  
C16  36650677.264   190849638.940         -75.903          32.000  
C22  22174466.037   115468253.021        -926.596          31.000  
E02  26854419.972   141120897.354       -3175.037          34.000  
E08  22123120.582   116257761.973       -1810.784          34.000  
E30  22923521.776   120463951.780       -1909.019          34.000  
G22  22998587.109   120858566.608        -410.767          14.000  
G26  20107271.426   105664360.129        -595.589          28.000  
G31  21510973.463   113040953.8441      -1406.816          22.000  
G32  21178323.152   111292830.449       -2128.898          43.000  
> 2021  9 30 12  4 20.9988109  0 11
C06  36289516.091   188969028.610        -106.623          30.000  
C16  36650537.861   190848933.237         -74.877          33.000  
C22  22174495.116   115468399.306        -927.193          31.000  
E02  26854872.659   141123283.949       -3173.612          35.000  
E08  22123312.449   116258784.848       -1809.798          34.000  
E30  22923736.727   120465074.893       -1912.502          34.000  
G26  20107235.451   105664168.558        -596.539          26.000  
G31  21511090.382   113041574.164       -1411.798          21.000  
G32  21178580.674   111294172.019       -2130.416          42.000  
R04  20612313.792   110378004.1861      -3894.213          27.000  
R05  19200712.523   102638811.7171        -59.171          28.000  
> 2021  9 30 12  4 21.9988106  0 11
C06  36289447.139   188968666.593        -106.437          29.000  
C07  36302839.767   189038545.7751       -179.670          16.000  
C16  36650464.711   190848539.923         -76.569          33.000  
C22  22174583.855   115468858.480        -927.754          31.000  
E02  26855388.601   141125985.666       -3175.030          33.000  
E08  22123567.573   116260123.186       -1812.409          34.000  
E30  22924011.937   120466513.465       -1910.978          33.000  
G26  20107258.235   105664292.639        -596.495          27.000  
G31  21511265.761   113042512.677       -1411.180          20.000  
G32  21178894.257   111295829.233       -2130.264          43.000  
R05  19200631.579   102638379.043         -59.288          28.000  
> 2021  9 30 12  4 22.9988101  0 11
C06  36289318.528   188967991.940        -106.332          28.000  
C07  36302723.747   189037943.943        -178.438          14.000  
C16  36650331.304   190847834.569         -74.196          32.000  
C22  22174611.736   115469006.103        -928.753          31.000  
E02  26855842.787   141128372.514       -3175.636          34.000  
E08  22123761.838   116261147.105       -1812.544          34.000  
E30  22924224.490   120467637.402       -1911.788          33.000  
G26  20107219.861   105664101.691        -597.253          27.000  
G31  21511379.382   113043137.024       -1412.770          19.000  
G32  21179149.080   111297172.076       -2130.632          43.000  
R05  19200496.373   102637656.447         -60.031          26.000  
> 2021  9 30 12  4 23.9988096  0 11
C06  36289189.317   188967317.459        -105.859          30.000  
C07  36302606.528   189037338.370        -172.419          13.000  
C16  36650197.296   190847129.124         -74.518          32.000  
C22  22174642.015   115469154.676        -930.858          32.000  
E02  26856296.073   141130759.322       -3173.947          34.000  
E08  22123957.303   116262171.206       -1811.484          34.000  
E30  22924437.942   120468761.475       -1912.826          34.000  
G26  20107183.287   105663912.240        -597.660          27.000  
G29  23754203.507   124829181.6501      -1368.800          31.000  
G31  21511495.402   113043760.162       -1408.928          18.000  
G32  21179403.604   111298515.320       -2131.363          43.000  
> 2021  9 30 12  4 24.9988091  0 13
C06  36289059.807   188966642.950        -106.190          29.000  
C07  36302489.609   189036732.473        -176.376          12.000  
C16  36650061.790   190846423.744         -77.096          33.000  
C22  22174673.493                        -932.207          32.000  
E02  26856750.858   141133146.056       -3175.307          34.000  
E08  22124152.168   116263195.825       -1812.227          34.000  
E30  22924652.593   120469885.860       -1912.663          34.000  
G26  20107146.712   105663722.720        -599.019          27.000  
G29  23754315.629                       -1371.789          31.000  
G31  21511607.824   113044381.664       -1410.262          16.000  
G32  21179656.629   111299859.130       -2132.182          42.000  
R04  20614695.643   110390758.3061      -3895.470          28.000  
R05  19200216.667   102636161.4191        -62.393          27.000  
> 2021  9 30 12  4 25.9988086  0 11
C06  36288930.896   188965968.846        -106.524          29.000  
C16  36649928.083   190845718.519         -75.812          33.000  
C22  22174698.676   115469492.9301       -930.566          32.000  
E02  26857205.943   141135532.911       -3173.765          34.000  
E08  22124345.834   116264220.862       -1813.420          34.000  
E30  22924867.245   120471010.558       -1910.110          34.000  
G26  20107109.538   105663534.920        -600.834          28.000  
G29  23754427.752   124830353.6021      -1371.583          31.000  
G32  21179910.553   111301203.477       -2131.668          41.000  
J01  36223446.630   190355292.2161       -151.987          23.000  
R05  19200082.959   102635446.812         -63.237          27.000  
> 2021  9 30 12  4 26.9988083  0 14
C06  36288861.344   188965607.407        -108.180          29.000  
C16  36649853.135   190845325.591         -77.380          33.000  
C22  22174790.112   115469955.601        -932.319          31.000  
E02  26857719.488   141138234.860       -3173.946          33.000  
E08  22124601.257   116265561.540       -1813.218          33.000  
E30  22925143.054   120472450.653       -1911.202          34.000  
G22  22998179.692   120856510.1721       -399.684          17.000  
G26  20107132.322   105663662.896        -600.232          27.000  
G29  23754602.231   124831252.685       -1371.027          31.000  
G31  21511880.635   113045940.0421      -1408.178          14.000  
G32  21180224.436   111302863.526       -2133.247          41.000  
J01  36223381.575   190354972.277        -154.323          23.000  
R04  20615906.205   110397241.3251      -3898.582          28.000  
R05  19200008.011   102635045.585         -63.931          27.000  
> 2021  9 30 12  4 27.9988078  0 12
C06  36288733.033   188964934.290        -107.953          30.000  
C16  36649720.327   190844620.500         -74.894          33.000  
C22  22174816.794   115470106.654        -931.733          32.000  
E02  26858170.975   141140621.776       -3175.360          33.000  
E08  22124793.124   116266587.463       -1815.470          34.000  
E30  22925357.405   120473576.034       -1912.403          33.000  
G26  20107096.946   105663475.377        -600.656          26.000  
G29  23754711.356   124831837.412       -1372.971          31.000  
G31  21511992.158   113046281.142       -1407.311          14.000  
G32  21180479.559   111304209.093       -2133.936          40.000  
R04  20616485.104   110400341.060       -3898.520          28.000  
R05  19199868.008   102634297.551         -64.761          27.000  
> 2021  9 30 12  4 28.9988076  0 12
C04  38367330.850   199788726.5331       -692.223          29.000  
C06  36288696.458   188964730.423        -108.214          30.000  
C16  36649677.456   190844383.923         -76.945          33.000  
C22  22174932.514   115470726.758        -932.629          32.000  
E02  26858713.899   141143481.474       -3175.312          33.000  
E08  22125077.627   116268086.624       -1815.623          34.000  
E30  22925661.695   120475174.370       -1914.670          33.000  
G22  22998111.639   120855892.0661       -399.104          17.000  
G26  20107149.110   105663760.058        -599.867          27.000  
G29  23754913.416   124832895.435       -1372.228          30.000  
G32  21180824.620   111306027.882       -2134.708          40.000  
R05  19199817.043   102634025.444         -65.963          26.000  
> 2021  9 30 12  4 29.9988070  0 11
C06  36288538.168   188963901.769        -107.986          30.000  
C16  36649511.971   190843522.963         -76.346          33.000  
C22  22174931.614   115470723.155        -934.687          32.000  
E02  26859136.007   141145711.126       -3175.386          33.000  
E08  22125248.509   116268956.039       -1815.864          34.000  
E30  22925847.566   120476142.890       -1915.384          33.000  
G26  20107084.955   105663414.634        -600.112          26.000  
G29  23754997.957   124833324.019       -1374.719          31.000  
G32  21181048.565   111307217.139       -2135.519          39.000  
J01  36223073.688   190353386.4801       -151.619          25.000  
R04  20617701.362   110406854.3521      -3900.314          29.000  
> 2021  9 30 12  4 30.9988065  0 12
C06  36288408.358   188963228.283        -106.611          30.000  
C16  36649374.666   190842818.098         -74.817          33.000  
C22  22174964.891   115470876.096        -933.853          30.000  
E02  26859588.694   141148098.178       -3175.432          33.000  
E08  22125444.873   116269983.342       -1816.146          33.000  
E30  22926060.419   120477269.176       -1915.378          33.000  
G26  20107051.378   105663228.382        -603.271          27.000  
G29  23755111.578   124833910.555       -1374.063          31.000  
G32  21181303.988   111308564.356       -2135.826          38.000  
J01  36222965.463   190352751.013        -152.726          24.000  
R04  20618278.763   110409946.117       -3901.283          27.000  
R05  19199497.764   102632318.6271        -65.288          25.000  
> 2021  9 30 12  4 31.9988060  0 11
C06  36288278.548   188962553.959        -106.020          30.000  
C16  36649240.359   190842113.519         -75.089          32.000  
C22  22174998.468   115471029.861        -935.633          31.000  
E02  26860041.680   141150485.500       -3175.183          33.000  
E08  22125639.439   116271011.299       -1815.854          33.000  
E30  22926274.470   120478395.986       -1913.944          32.000  
G26  20107016.602   105663043.837        -604.681          27.000  
G29  23755224.900   124834497.984       -1372.763          31.000  
J01  36222855.439   190352389.321        -151.721          26.000  
R04  20618858.861   110413052.804       -3902.163          27.000  
R05  19199355.063   102631555.493         -67.148          26.000  
> 2021  9 30 12  4 32.9988055  0 11
C06  36288149.637   188961880.034        -106.654          29.000  
C16  36649103.953   190841408.761         -76.000          33.000  
C22  22175024.250   115471184.004        -935.354          32.000  
E02  26860494.367   141152872.611       -3175.424          32.000  
G26  20106984.524   105662861.080        -605.362          27.000  
G29  23755335.823   124835085.898       -1376.658          30.000  
G32  21181818.732   111311260.6121      -2135.916          37.000  
J01  36222734.323   190351753.759        -153.053          26.000  
J02  39304526.143   206546678.5101      -1428.186          37.000  
R04  20619435.962   110416143.280       -3902.461          27.000  
R05  19199212.062   102630790.665         -68.391          27.000  
> 2021  9 30 12  4 33.9988050  0 11
C06  36288020.126   188961205.980        -106.527          28.000  
C16  36648972.944   190840703.913         -75.509          33.000  
C22  22175050.332   115471338.634        -935.840          30.000  
E02  26860947.353   141155259.661       -3174.394          33.000  
E30  22926702.274   120480649.7771      -1914.460          33.000  
G26  20106949.748   105662679.206        -605.345          25.000  
G29  23755444.048   124835674.148       -1376.590          30.000  
G31  21512730.846   113050307.6861      -1410.479          13.000  
G32  21182075.055   111312609.316       -2136.070          38.000  
R04  20620010.364   110419218.776       -3902.583          26.000  
R05  19199072.659   102630045.770         -70.496          26.000  
> 2021  9 30 12  4 34.9988047  0 11
C06  36287951.174   188960844.512        -107.291          29.000  
C16  36648896.497   190840311.382         -74.723          32.000  
C22  22175141.469   115471806.020        -935.031          31.000  
E02  26861465.095   141157961.729       -3174.428          34.000  
E08  22126285.491   116274411.7311      -1815.531          33.000  
E30  22926977.784   120482092.144       -1915.209          33.000  
G26  20106974.931   105662811.904        -606.304          25.000  
G29  23755614.330   124836578.192       -1376.361          29.000  
G31  21512904.726   113051247.323       -1416.190          12.000  
R04  20620649.821   110422642.952       -3903.212          27.000  
R05  19198998.610   102629650.260         -72.398          25.000  
> 2021  9 30 12  4 35.9988042  0 11
C06  36287822.263   188960170.922        -106.696          29.000  
C16  36648757.993   190839606.723         -75.602          33.000  
C22  22175174.146   115471961.973        -937.062          33.000  
E02  26861923.477   141160348.873       -3175.015          33.000  
E08  22126481.556   116275441.109       -1816.895          33.000  
E30  22927191.236   120483219.818       -1915.170          33.000  
G26  20106941.054   105662630.878        -607.037          25.000  
G29  23755724.654   124837167.799       -1377.282          29.000  
G31  21513019.546   113051874.473       -1412.295          10.000  
J02  39304952.448   206548913.6381      -1427.276          37.000  
R04  20621235.915   110425781.617       -3903.875          25.000  
> 2021  9 30 12  4 36.9988040  0 10
C06  36287782.091   188959965.406        -106.797          29.000  
C16  36648707.927   190839370.531         -76.652          32.000  
C22  22175290.766   115472586.829        -936.452          31.000  
C30  25098702.530   130695529.6141        442.802          21.000  
E02  26862467.601   141163208.649       -3176.008          33.000  
E08  22126766.658   116276943.483       -1818.881          33.000  
E30  22927496.425   120484820.333       -1917.079          33.000  
G26  20106995.617   105662923.205        -607.213          26.000  
J02  39305166.499   206550026.341       -1428.581          37.000  
R05  19198816.936   102628679.2901        -73.685          27.000  
> 2021  9 30 12  4 37.9988035  0 12
C06  36287652.281   188959291.652        -107.189          29.000  
C16  36648568.824   190838666.063         -75.676          32.000  
C22  22175322.544   115472744.163        -938.666          31.000  
C30  25098466.593   130694307.350         440.714          16.000  
E02  26862923.285   141165596.010       -3175.024          34.000  
E08  22126961.223   116277973.872       -1818.872          31.000  
E30  22927711.675   120485948.760       -1915.349          33.000  
G26  20106960.541   105662741.993        -606.814          27.000  
G29  23756040.335   124838821.8071      -1377.099          29.000  
J01  36222277.439   190349374.9501       -156.238          23.000  
J02  39305283.419   206550666.559       -1427.436          36.000  
R05  19198682.928   102627962.246         -74.741          27.000  
> 2021  9 30 12  4 38.9988029  0 12
C04  38367246.608   199788309.5011       -691.877          28.000  
C06  36287491.592   188958462.136        -107.886          29.000  
C16  36648402.139   190837805.629         -76.390          31.000  
C22  22175321.344   115472745.797        -940.969          32.000  
C30  25098200.677   130692931.738         437.792          18.000  
E02  26863349.290   141167825.751       -3175.720          34.000  
E08  22127129.107   116278847.029       -1819.543          33.000  
E30  22927892.151   120486919.833       -1916.223          32.000  
G26  20106896.385   105662402.848        -605.724          24.000  
G32  21183472.387   111319991.7501      -2139.720          35.000  
R04  20623022.379   110435347.4231      -3906.876          21.000  
R05  19198521.340   102627098.870         -76.664          26.000  
> 2021  9 30 12  4 39.9988024  0 14
C06  36287362.682   188957789.973        -108.976          27.000  
C16  36648268.731   190837101.207         -76.581          32.000  
C22  22175351.024   115472904.151        -939.737          32.000  
C30  25097964.441   130691712.345         438.643          18.000  
C36  23150693.708   120551579.6121      -2028.866          21.000  
E02  26863805.574   141170213.092       -3175.006          34.000  
E08  22127327.270   116279878.100       -1818.628          33.000  
E30  22928106.202   120488048.707       -1917.411          32.000  
G26  20106862.209   105662220.019        -605.983          25.000  
G29  23756238.498   124839848.0021      -1382.451          29.000  
G32  21183730.808   111321343.829       -2140.339          36.000  
J01  36222006.727   190347955.6321       -157.222          22.000  
R04  20623603.976   110438462.763       -3907.625          26.000  
R05  19198392.130   102626408.453         -76.718          25.000  
> 2021  9 30 12  4 40.9988019  0 12
C06  36287233.171   188957118.268        -108.913          29.000  
C16  36648135.324   190836396.757         -76.690          32.000  
C22  22175383.102   115473063.084        -939.021          32.000  
C30  25097728.204   130690492.805         440.732          17.000  
C36  23150938.639   120552827.692       -2029.212          22.000  
E02  26864261.259   141172600.264       -3174.900          35.000  
E30  22928319.954   120489177.699       -1915.933          33.000  
G26  20106827.433   105662039.537        -609.073          24.000  
G29  23756352.419   124840440.808       -1379.217          30.000  
G32  21183986.831   111322696.283       -2140.825          36.000  
J02  39305618.287   206552429.2901      -1429.253          36.000  
R05  19198258.422   102625693.600         -76.257          25.000  
> 2021  9 30 12  4 41.9988014  0 11
C06  36287103.361   188956445.787        -108.447          29.000  
C16  36647998.319   190835692.447         -76.229          32.000  
C22  22175414.880   115473222.561        -940.896          32.000  
C30  25097492.867   130689271.575         441.231          16.000  
E02  26864715.744   141174987.489       -3175.315          35.000  
E30  22928536.704   120490307.059       -1915.793          33.000  
G26  20106791.758   105661861.416        -610.379          25.000  
G29  23756457.946   124841034.017       -1385.389          30.000  
G32  21184248.550   111324049.414       -2141.415          35.000  
J02  39305743.300   206553069.379       -1427.767          35.000  
R05  19198124.115   102624975.773         -77.859          24.000  
> 2021  9 30 12  4 42.9988009  0 11
C06  36286973.551   188955773.097        -107.561          28.000  
C16  36647857.716   190834988.377         -77.818          31.000  
C22  22175443.360   115473382.886        -941.879          32.000  
C30  25097261.727   130688052.358         437.832          15.000  
E02  26865171.729   141177374.952       -3175.992          35.000  
E30  22928751.056   120491436.851       -1919.161          32.000  
G22  22997167.592   120851036.2031       -407.006          16.000  
G26  20106756.982   105661684.036        -610.406          24.000  
J02  39305864.716   206553709.601       -1427.619          36.000  
R04  20625358.362   110447857.2871      -3908.681          30.000  
R05  19197986.211   102624238.146         -77.886          24.000  
> 2021  9 30 12  4 43.9988006  0 11
C06  36286902.800   188955412.000        -107.336          30.000  
C16  36647783.368   190834596.504         -78.023          32.000  
C22  22175532.698   115473855.857        -943.302          33.000  
C30  25097090.846   130687147.969         435.229          14.000  
E02  26865686.772   141180077.471       -3175.227          35.000  
E30  22929028.064   120492881.980       -1917.866          32.000  
G26  20106783.963   105661821.200        -609.453          25.000  
G29  23756749.345   124842538.0401      -1385.332          28.000  
J02  39306043.992   206554664.855       -1427.783          36.000  
R04  20625999.917   110451292.577       -3909.329          30.000  
R05  19197909.764   102623829.944         -78.239          25.000  
> 2021  9 30 12  4 44.9988004  0 11
C06  36286863.527   188955207.018        -107.377          29.000  
C16  36647736.300   190834360.808         -77.717          32.000  
C22  22175654.114   115474485.716        -941.938          32.000  
C30  25096952.042   130686401.709         433.026          13.000  
E02  26866231.495   141182937.582       -3175.527          35.000  
E08  22128460.486   116285827.6271      -1821.315          33.000  
E30  22929335.351   120494484.981       -1917.227          32.000  
G26  20106837.626   105662116.089        -610.355          25.000  
J02  39306258.643   206555777.709       -1428.038          36.000  
R04  20626670.253   110454881.914       -3909.866          30.000  
R05  19197862.696   102623577.672         -78.705          25.000  
> 2021  9 30 12  4 45.9987999  0 11
C06  36286733.417   188954533.862        -107.670          30.000  
C16  36647604.092   190833657.008         -77.170          32.000  
C22  22175684.993   115474647.942        -943.988          33.000  
C30  25096723.600   130685187.560         433.302          12.000  
E02  26866686.580   141185325.276       -3176.083          35.000  
E08  22128656.850   116286861.519       -1823.252          33.000  
G22  22997098.040   120850697.6501       -415.225          15.000  
G26  20106803.150   105661939.240        -612.229          25.000  
G29  23757073.420   124844202.1321      -1385.085          28.000  
J02  39306374.363   206556418.097       -1428.757          36.000  
R05  19197729.888   102622868.104         -80.407          25.000  
> 2021  9 30 12  4 46.9987994  0 11
C06  36286603.607   188953860.558        -107.490          30.000  
C16  36647465.588   190832953.267         -78.613          33.000  
C22  22175713.473   115474810.871        -944.613          33.000  
C30  25096496.657   130683973.389         434.452          14.000  
E02  26867139.866   141187713.062       -3176.470          36.000  
E08  22128855.612   116287895.796       -1821.506          33.000  
G26  20106768.374   105661765.424        -614.292          24.000  
G32  21185690.552   111331611.7961      -2144.261          33.000  
J02  39306496.379   206557058.518       -1428.435          35.000  
R04  20627827.752   110461080.8901      -3911.837          31.000  
R05  19197599.478   102622170.580         -81.699          26.000  
> 2021  9 30 12  4 47.9987988  0 13
C06  36286443.518   188953031.634        -107.939          29.000  
C16  36647302.800   190832093.640         -77.407          32.000  
C22  22175712.574   115474818.392        -944.245          32.000  
C30  25096241.234   130682598.703         437.698          15.000  
C36  23152726.301   120562193.7721      -2030.263          22.000  
E02  26867561.374   141189943.346       -3174.891          36.000  
E08  22129024.395   116288773.155       -1822.973          32.000  
E30  22929955.922   120497720.9541      -1920.931          32.000  
G26  20106703.619   105661433.136        -611.855          25.000  
G29  23757265.887   124845238.3071      -1383.889          26.000  
J02  39306593.811   206557541.559       -1427.961          33.000  
R04  20628381.169   110464043.682       -3912.580          32.000  
R05  19197433.393   102621282.961         -83.950          25.000  
> 2021  9 30 12  4 48.9987983  0 12
C06  36286314.008   188952359.272        -108.591          29.000  
C16  36647167.594   190831389.856         -76.662          32.000  
C22  22175749.448   115474982.215        -945.286          33.000  
C30  25096016.389   130681380.080         439.008          16.000  
C36  23152967.634   120563443.675       -2030.586          22.000  
E02  26868013.761   141192330.893       -3175.903          35.000  
E08  22129220.459   116289808.128       -1822.772          32.000  
E30  22930171.173   120498852.532       -1921.018          32.000  
G26  20106670.941   105661257.276        -612.561          26.000  
G29  23757372.913   124845834.180       -1383.792          27.000  
J02  39306714.028   206558181.812       -1428.902          35.000  
R05  19197294.590   102620540.755         -84.392          26.000  
> 2021  9 30 12  4 49.9987978  0 12
C04  38367175.857   199787958.4841       -691.011          30.000  
C06  36286184.797   188951686.809        -107.691          29.000  
C16  36647032.987   190830686.143         -76.253          32.000  
C22  22175781.826   115475146.902        -946.192          33.000  
C30  25095790.646   130680161.863         436.400          18.000  
E02  26868468.246   141194718.673       -3176.069          36.000  
E08  22129419.522   116290843.549       -1824.915          33.000  
E30  22930383.426   120499984.370       -1919.699          31.000  
G26  20106637.365   105661082.831        -613.418          27.000  
J02  39306833.046   206558822.080       -1428.473          35.000  
R04  20629532.372   110470208.9621      -3913.459          27.000  
R05  19197161.182   102619828.332         -85.492          25.000  
> 2021  9 30 12  4 50.9987973  0 10
C06  36286052.888   188951013.270        -106.073          28.000  
C16  36646899.579   190829981.193         -75.537          30.000  
C22  22175810.006   115475310.268        -944.504          29.000  
C36  23153461.092   120565943.1191      -2032.364          18.000  
E02  26868920.334   141197106.345       -3174.779          31.000  
E30  22930594.180   120501115.690       -1919.548          32.000  
G22  22996719.702   120848675.7951       -414.535          17.000  
J02  39306959.858   206559461.859       -1427.791          35.000  
R04  20630112.470   110473314.983       -3914.071          32.000  
R05  19197026.575   102619108.754         -86.239          25.000  
> 2021  9 30 12  4 51.9987971  0 14
C06  36286010.917   188950807.558        -107.896          24.000  
C07  36299883.514   189023039.8741       -188.627          26.000  
C16  36646853.112   190829746.063         -77.940          31.000  
C22  22175930.823   115475943.760        -946.659          29.000  
C36  23153800.158   120567664.035       -2031.748          16.000  
E02  26869461.759   141199966.819       -3174.119          30.000  
E08  22129897.691   116293388.8281      -1823.464          32.000  
E30  22930896.970   120502721.161       -1922.038          29.000  
G26  20106663.746   105661207.4041       -614.183          26.000  
G29  23757800.417   124848103.3761      -1388.787          25.000  
G31  21515006.271   113061878.3151      -1411.899          12.000  
G32  21187056.406   111338714.8981      -2145.860          39.000  
J02  39307169.713   206560572.860       -1426.237          30.000  
R05  19196983.705   102618878.858         -87.059          31.000  
> 2021  9 30 12  4 52.9987968  0 13
C06  36285941.665   188950446.986        -109.098          26.000  
C07  36299828.951   189022760.592        -189.388          25.000  
C16  36646777.564   190829355.395         -77.646          31.000  
C22  22176020.760   115476422.105        -947.162          31.000  
E02  26869975.903   141202670.561       -3175.645          29.000  
E08  22130153.414   116294740.664       -1824.912          30.000  
E30  22931170.681   120504170.709       -1922.643          31.000  
G22  22996725.998   120848714.3911       -415.186          16.000  
G29  23757962.605   124849018.237       -1385.917          27.000  
G32  21187368.190   111340389.626       -2147.656          37.000  
J02  39307350.188   206561527.488       -1428.160          29.000  
R04  20631441.450   110480431.5511      -3915.450          23.000  
R05  19196911.455   102618492.667         -87.867          29.000  
> 2021  9 30 12  4 53.9987963  0 13
C06  36285812.755   188949776.019        -110.040          23.000  
C07  36299714.730   189022169.428        -189.307          31.000  
C16  36646639.959   190828651.653         -76.426          23.000  
C22  22176052.838   115476588.760        -947.627          31.000  
C36  23154214.771   120570072.0471      -2033.370          16.000  
E02  26870427.390   141205058.022       -3175.057          24.000  
E08  22130348.878   116295778.325       -1826.795          28.000  
E30  22931384.733   120505305.636       -1922.496          29.000  
G22  22996655.247   120848341.735        -414.009          15.000  
G29  23758057.639   124849617.069       -1387.048          25.000  
G31  21514766.437   113060617.9791        662.062          15.000  
G32  21187616.418   111341749.705       -2149.639          36.000  
R05  19196775.349   102617764.974         -89.089          26.000  
> 2021  9 30 12  4 54.9987958  0 12
C06  36285685.343   188949105.071        -109.287          25.000  
C07  36299600.809   189021577.896        -188.798          30.000  
C16  36646504.453   190827947.442         -76.333          28.000  
C22  22176084.016   115476756.044        -948.347          27.000  
E02  26870878.278   141207444.473       -3174.896          26.000  
E08  22130545.242   116296816.769       -1825.333          26.000  
E30  22931599.984   120506438.694       -1919.271          26.000  
G22  22996584.496   120847971.134        -419.473          14.000  
G26  20106638.264   105661008.7441       -618.487          30.000  
G29  23758148.176   124849910.961       -1387.983          26.000  
J02  39307588.523   206562810.4251      -1429.832          21.000  
R05  19196640.742   102617045.565         -90.249          27.000  
> 2021  9 30 12  4 55.9987953  0 12
C06  36285557.331   188948433.016        -108.011          25.000  
C07  36299487.188   189020985.622        -188.048          24.000  
C16  36646370.745   190827243.044         -76.447          30.000  
C22  22176116.994   115476924.617        -950.014          25.000  
E30  22931813.436   120507570.834       -1921.087          26.000  
G22  22996515.244   120847600.513        -415.432          12.000  
G26  20106610.083   105660839.439        -618.790          31.000  
G29  23758236.915   124850512.043       -1388.533          23.000  
G32  21188153.946   111344471.0151      -2149.552          40.000  
J02  39307710.838   206563452.146       -1428.806          28.000  
R04  20633177.548   110489728.5781      -3916.837          22.000  
R05  19196502.838   102616308.819         -90.916          28.000  
> 2021  9 30 12  4 56.9987948  0 12
C06  36285430.219   188947761.062        -108.551          24.000  
C16  36646236.438   190826539.059         -76.866          29.000  
C22  22176149.671   115477094.678        -950.946          29.000  
E02  26871783.651   141212219.8311      -3175.279          26.000  
E30  22932027.788   120508706.403       -1924.280          26.000  
G22  22996445.692   120847224.542        -410.533          10.000  
G26  20106578.905   105660669.972        -619.147          27.000  
G29  23758349.637   124851114.017       -1390.848          19.000  
G32  21188406.072   111345832.402       -2150.166          37.000  
J02  39307832.554   206564092.706       -1427.565          30.000  
R04  20633748.053   110492783.483       -3916.689          24.000  
R05  19196374.227   102615621.676         -91.791          23.000  
> 2021  9 30 12  4 57.9987942  0  9
C06  36285272.229   188946933.096        -109.279          21.000  
C07  36299229.966   189019647.9011       -191.906          18.000  
C16  36646071.852   190825679.060         -77.002          28.000  
C22  22176153.269   115477108.790        -950.798          30.000  
E30  22932215.757   120509684.214       -1922.652          24.000  
G26  20106515.049   105660344.289        -619.999          27.000  
G29  23758421.887   124851559.378       -1388.557          18.000  
J02  39307926.988   206564575.068       -1428.518          30.000  
R04  20634295.474   110495714.498       -3917.978          21.000  
> 2021  9 30 12  4 58.9987937  0 10
C06  36285143.918   188946262.287        -109.212          20.000  
C16  36645936.646   190824976.371         -77.968          29.000  
C22  22176185.946   115477278.766        -950.154          31.000  
E30  22932433.706   120510819.632       -1922.946          28.000  
G26  20106481.772   105660176.500        -620.704          29.000  
G29  23758533.110   124852162.140       -1391.298          19.000  
G32  21188903.427   111348399.6571      -2151.152          30.000  
J02  39308049.304   206565215.961       -1428.499          29.000  
R04  20634876.772   110498827.319       -3918.882          25.000  
R05  19196074.134   102614017.3941        -95.256          27.000  
> 2021  9 30 12  4 59.9987937  0 12
C06  36285164.903   188946371.238        -107.097          22.000  
C07  36299147.823   189019249.9131       -191.217          22.000  
C16  36645952.535   190825054.306         -77.790          29.000  
C22  22176370.018   115478229.385        -951.226          32.000  
C36  23155755.704   120578200.8761      -2032.130          24.000  
E30  22932801.852   120512742.222       -1922.992          29.000  
G26  20106598.691   105660796.953        -620.228          30.000  
G29  23758807.120   124853554.572       -1393.983          24.000  
G32  21189306.348   111350549.986       -2146.253          35.000  
J02  39308322.115   206566643.448       -1427.037          29.000  
R04  20635610.064   110502754.469       -3919.532          29.000  
R05  19196088.824   102614095.365         -94.667          27.000  
> 2021  9 30 12  5  0.9987932  0 11
C06  36285036.592   188945697.161        -106.902          22.000  
C07  36299033.302   189018660.811        -190.921          23.000  
C16  36645817.928   190824351.639         -76.954          28.000  
C22  22176403.895   115478400.180        -952.287          31.000  
C36  23155994.339   120579451.504       -2030.643          25.000  
E02  26873735.900   141222400.8881      -3175.982          35.000  
E30  22933022.499   120513877.319       -1921.827          30.000  
G26  20106565.414   105660629.849        -621.174          29.000  
G29  23758936.031   124854161.388       -1395.068          26.000  
J02  39308443.831   206567283.319       -1427.699          28.000  
R05  19195953.918   102613374.400         -94.600          27.000  
> 2021  9 30 12  5  1.9987927  0 12
C06  36284906.782   188945023.150        -106.505          21.000  
C07  36298919.981   189018071.556        -192.164          25.000  
C16  36645684.521   190823647.777         -76.522          27.000  
C22  22176434.474                        -954.091          31.000  
C36  23156233.873   120580701.164       -2029.661          24.000  
E02  26874190.685   141224789.039       -3175.974          35.000  
E30  22933241.347   120515011.893       -1922.613          32.000  
G26  20106532.737   105660463.446        -621.307          29.000  
G29  23759064.342   124854768.709       -1395.075          27.000  
G32  21189811.499   111353278.6531      -2153.946          22.000  
J02  39308564.647   206567923.821       -1428.583          27.000  
R05  19195816.613   102612640.611         -95.200          28.000  
> 2021  9 30 12  5  2.9987922  0 10
C06  36284776.972   188944348.568        -106.684          23.000  
C07  36298806.659   189017482.914        -191.902          27.000  
C16  36645550.213   190822943.402         -76.088          26.000  
C22  22176467.451   115478685.7511       -953.278          29.000  
C36  23156472.807   120581950.611       -2030.923          25.000  
E02  26874643.671   141227176.837       -3174.885          35.000  
E30  22933453.001   120516146.759       -1921.581          31.000  
G26  20106500.959   105660297.118        -621.827          29.000  
J02  39308686.363   206568564.687       -1428.960          28.000  
R05  19195685.903   102611941.762         -97.059          27.000  
> 2021  9 30 12  5  3.9987917  0 10
C06  36284646.862   188943675.492        -107.557          22.000  
C07  36298693.338   189016893.851        -191.830          26.000  
C16  36645415.607   190822239.622         -77.203          27.000  
C22  22176504.026   115478858.354        -951.167          32.000  
C36  23156712.342   120583200.116       -2030.429          26.000  
E02  26875099.356                       -3176.692          35.000  
E30  22933666.753   120517281.584       -1922.968          31.000  
G26  20106469.181   105660131.991        -623.358          29.000  
G32  21190332.238   111356009.8301      -2153.448          27.000  
R05  19195555.493   102611245.053         -98.292          26.000  
> 2021  9 30 12  5  4.9987912  0 13
C06  36284518.850   188943004.908        -110.939          22.000  
C07  36298580.616   189016305.355        -191.705          26.000  
C16  36645281.599   190821536.788         -77.264          26.000  
C22  22176539.101   115479031.781        -955.454          29.000  
C36  23156954.274   120584449.954       -2030.241          24.000  
E02  26875552.342   141231987.3211      -3176.808          34.000  
E30  22933883.203   120518416.771       -1923.258          32.000  
G26  20106436.504   105659967.100        -622.591          28.000  
G29  23759407.604   124856589.9341      -1395.062          28.000  
G32  21190585.263   111357375.391       -2153.358          25.000  
J02  39308930.094   206569846.7401      -1427.648          26.000  
R04  20638537.538   110518431.3641      -3922.664          29.000  
R05  19195421.486   102610528.694         -98.806          25.000  
> 2021  9 30 12  5  5.9987907  0 10
C06  36284390.239   188942334.468        -110.031          26.000  
C07  36298468.493   189015716.752        -191.991          26.000  
C16  36645146.393   190820833.451         -77.215          28.000  
C22  22176571.779   115479205.470        -954.600          27.000  
C36  23157191.710   120585701.020       -2032.094          23.000  
E02  26876008.027   141234374.819       -3174.126          35.000  
E30  22934102.951   120519552.941       -1924.708          32.000  
G26  20106403.227   105659803.173        -625.353          22.000  
J02  39309051.210   206570486.433       -1427.319          27.000  
R04  20639116.437   110521530.478       -3923.354          29.000  
> 2021  9 30 12  5  6.9987901  0 12
C06  36284230.150   188941506.830        -107.628          26.000  
C07  36298325.492   189014972.117        -192.246          26.000  
C16  36644977.610   190819973.246         -75.418          23.000  
C22  22176573.877   115479223.014        -953.671          25.000  
C36  23157401.265   120586796.622       -2033.016          21.000  
E02  26876436.430   141236604.533       -3175.012          33.000  
E30  22934289.122   120520530.921       -1923.451          33.000  
G26  20106341.170   105659483.145        -625.272          24.000  
G32  21191068.529   111359949.6541      -2154.003          28.000  
J02  39309143.546   206570968.334       -1426.787          28.000  
R04  20639668.955   110524489.792       -3924.003          25.000  
R05  19195137.883   102609012.7301       -101.326          26.000  
> 2021  9 30 12  5  7.9987899  0 11
C06  36284189.978   188941302.310        -108.277          25.000  
C07  36298301.509   189014851.608        -191.443          28.000  
C22  22176694.394   115479865.467        -955.605          24.000  
C36  23157731.636   120588516.292       -2031.101          22.000  
E02  26876981.153   141239464.576       -3174.119          31.000  
E30  22934591.912                       -1925.392          32.000  
G26  20106399.329   105659794.495        -626.714          24.000  
G29  23759815.322   124858728.9521      -1396.833          26.000  
J02  39309356.099   206572080.346       -1427.159          29.000  
R04  20640340.490   110528085.761       -3924.455          28.000  
R05  19195103.107   102608826.424        -100.545          26.000  
> 2021  9 30 12  5  8.9987896  0  9
C07  36298249.345   189014575.295        -192.040          28.000  
C16  36644856.194   190819343.7721        -76.312          25.000  
C22  22176787.629   115480352.857        -956.273          27.000  
C36  23158031.428   120590078.633       -2030.536          21.000  
E30  22934866.223   120523544.9881      -1924.776          31.000  
G26  20106427.210   105659947.603        -625.440          27.000  
J02  39309538.373   206573035.123       -1427.077          28.000  
R04  20640985.343   110531538.773       -3925.080          26.000  
R05  19195038.951   102608483.086        -100.904          27.000  
> 2021  9 30 12  5  9.9987891  0 10
C06  36283993.914   188940271.8911       -111.348          17.000  
C07  36298136.623   189013986.807        -191.904          27.000  
C16  36644722.487   190818640.037         -76.369          27.000  
C22  22176821.806   115480528.557        -956.775          29.000  
C36  23158269.164   120591328.283       -2030.515          25.000  
E30  22935080.574   120524681.427       -1925.690          31.000  
G26  20106396.631   105659785.050        -625.314          28.000  
J02  39309662.187   206573674.465       -1427.004          29.000  
R04  20641565.741   110534646.988       -3924.773          28.000  
R05  19194909.740   102607792.610        -103.549          29.000  
> 2021  9 30 12  5 10.9987886  0 11
C06  36283863.804   188939602.524        -111.863          20.000  
C07  36298024.501   189013397.792        -191.745          25.000  
C16  36644587.280   190817935.828         -77.364          29.000  
C22  22176855.083   115480704.962        -957.462          30.000  
C36  23158508.698   120592578.226       -2031.480          24.000  
E30  22935295.525   120525818.158       -1925.441          31.000  
G26  20106364.853   105659622.633        -625.564          28.000  
G29  23760235.331   124860874.2881      -1398.449          26.000  
J02  39309786.901   206574313.200       -1426.217          30.000  
R04  20642145.840   110537752.943       -3924.950          25.000  
R05  19194781.130   102607105.603        -103.872          30.000  
> 2021  9 30 12  5 11.9987881  0 11
C06  36283733.994   188938932.740        -109.737          20.000  
C07  36297910.879   189012808.483        -192.178          25.000  
C16  36644453.273   190817232.596         -77.114          29.000  
C22  22176888.360   115480882.075        -957.859          30.000  
C36  23158747.932   120593828.631       -2029.959          24.000  
E30  22935511.376   120526955.111       -1925.188          32.000  
G26  20106333.975   105659461.188        -626.706          30.000  
G32  21192554.300                       -2157.539          37.000  
J02  39309908.617   206574951.429       -1426.929          31.000  
R04  20642725.938   110540859.695       -3926.354          24.000  
R05  19194649.521   102606401.883        -106.887          30.000  
> 2021  9 30 12  5 12.9987876  0 13
C06  36283604.184   188938260.638        -108.330          20.000  
C07  36297798.157   189012220.241        -192.374          24.000  
C16  36644318.666   190816529.231         -77.236          28.000  
C22  22176922.536   115481059.699        -958.094          31.000  
C36  23158987.167   120595077.634       -2029.863          25.000  
E30  22935732.023   120528092.280       -1925.834          32.000  
G26  20106305.195   105659300.399        -627.281          28.000  
G29  23760473.966   124862096.5571      -1399.426          25.000  
G32  21192815.419   111368992.9291      -2157.428          36.000    21192813.321    83165130.9231      -1610.001          26.000  
J01  36218706.611   190330586.9951       -159.471          26.000  
J02  39310031.531   206575590.409       -1427.210          31.000  
R04  20643307.536   110543974.299       -3926.747          25.000  
R05  19194519.711   102605707.310        -106.408          30.000  
> 2021  9 30 12  5 13.9987871  0 12
C06  36283474.373   188937588.778        -108.615          21.000  
C07  36297687.534   189011632.336        -192.132          24.000  
C16  36644183.759   190815825.760         -77.380          28.000  
C22  22176956.712   115481237.312        -958.462          30.000  
C36  23159223.403   120596326.691       -2029.898          25.000  
E30  22935949.073   120529229.728       -1924.959          31.000  
G26  20106276.115   105659140.105        -627.864          29.000  
G29  23760597.481   124862708.397       -1399.414          25.000  
G32  21193073.840   111370362.332       -2156.114          36.000    21193074.440    83166154.017       -1611.714          26.000  
J02  39310153.247   206576229.726       -1426.945          31.000  
R04  20643896.628   110547128.492       -3927.410          25.000  
R05  19194391.399   102605021.760        -106.235          31.000  
> 2021  9 30 12  5 14.9987866  0 14
C06  36283343.664   188936916.261        -108.319          23.000  
C07  36297575.411   189011044.416        -193.050          26.000  
C16  36644049.153   190815122.075         -76.280          28.000  
C22  22176992.088   115481414.838        -958.135          29.000  
C36  23159461.139   120597576.465       -2030.022          24.000  
E02  26880215.914   141256488.1601      -3175.007          31.000  
E07  23983393.042   126033781.8651        656.908          25.000  
E30  22936164.024   120530367.444       -1924.701          32.000  
G26  20106247.335   105658980.481        -628.584          29.000  
G29  23760703.907   124863320.651       -1400.745          23.000  
G32  21193333.161   111371732.267       -2156.935          36.000    21193334.960    83167177.565       -1612.484          26.000  
J02  39310275.862   206576868.425       -1426.034          31.000  
R04  20644482.122   110550263.593       -3928.409          26.000  
R05  19194260.090   102604320.137        -107.560          30.000  
> 2021  9 30 12  5 15.9987863  0 11
C06  36283271.414   188936554.514        -105.992          22.000  
C07  36297523.547   189010768.434        -191.486          24.000  
C16  36643973.305   190814730.510         -76.709          29.000  
C22  22177086.223   115481904.296        -958.520          29.000  
E07  23983178.691   126032651.885         656.901          23.000  
E30  22936441.032   120531820.433       -1926.505          31.000  
G26  20106277.014   105659136.664        -629.220          28.000  
G32                                                                  21193655.737    83168436.847       -1612.682          26.000  
J02  39310457.537   206577822.411       -1427.375          31.000  
R04  20645132.072   110553744.519       -3928.888          25.000  
R05  19194188.440   102603936.728        -109.302          30.000  
> 2021  9 30 12  5 16.9987860  0 10
C06  36283201.262   188936192.308        -106.665          23.000  
C07  36297470.484   189010492.347        -193.304          24.000  
C16  36643896.558   190814339.363         -77.339          27.000  
C22  22177180.058   115482394.515        -958.858          29.000  
E02  26881246.001   141261891.9571      -3174.223          32.000  
E30  22936717.741   120533273.680       -1926.243          32.000  
G29  23761059.161   124865177.8701      -1401.677          24.000  
G32                                                                  21193977.115    83169697.393       -1613.994          26.000  
J02  39310638.012   206578776.423       -1426.390          31.000  
R05  19194119.188   102603566.803        -111.170          29.000  
> 2021  9 30 12  5 17.9987855  0 12
C06  36283071.752   188935518.854        -107.929          24.000  
C07  36297357.762   189009905.536        -194.346          26.000  
C16  36643761.652   190813636.677         -78.892          26.000  
C22  22177214.234   115482573.437        -959.758          28.000  
E02  26881701.086   141264278.882       -3175.320          32.000  
E30  22936936.589   120534412.195       -1925.469          32.000  
G26  20106276.714   105659135.8911       -630.595          27.000  
G29  23761182.975   124865792.317       -1402.610          25.000  
G32                                                                  21194238.234    83170722.483       -1612.529          26.000  
J01  36218216.450   190328077.0181       -159.439          24.000  
J02  39310758.828   206579414.857       -1426.754          31.000  
R05  19193989.378   102602873.206        -112.475          28.000  
> 2021  9 30 12  5 18.9987850  0 11
C07  36297244.141   189009318.704        -193.635          26.000  
C16  36643625.246   190812933.870         -76.668          26.000  
C22  22177248.710   115482753.247        -961.628          28.000  
C36  23160528.700   120603196.2951      -2032.189          19.000  
E02  26882154.971   141266665.945       -3176.490          32.000  
E30  22937157.536   120535550.846       -1927.567          32.000  
G26  20106245.836   105658978.747        -630.722          27.000  
G29  23761290.001   124866407.695       -1403.625          25.000  
G32                                                                  21194498.754    83171746.185       -1612.381          26.000  
J02  39310879.644   206580053.396       -1426.291          30.000  
R05  19193858.968   102602175.477        -111.499          28.000  
> 2021  9 30 12  5 19.9987845  0 13
C06  36282812.731   188934173.3901       -106.641          27.000  
C07  36297134.117   189008732.420        -195.510          26.000  
C16  36643488.841   190812229.175         -75.806          28.000  
C22  22177285.884   115482934.890        -962.665          30.000  
E02  26882608.857   141269054.260       -3175.748          32.000  
E30  22937372.787   120536689.718       -1923.748          32.000  
G26  20106214.957   105658821.975        -632.401          26.000  
G29  23761405.721   124867024.023       -1404.080          23.000  
G32                                                                  21194760.473    83172770.444       -1613.299          23.000  
J01  36217964.925   190326816.5421       -157.648          26.000  
J02  39310999.861   206580691.953       -1426.594          31.000  
R04  20647528.014   110566574.6681      -3932.305          29.000  
R05  19193730.057   102601486.818        -113.084          28.000  
> 2021  9 30 12  5 20.9987840  0 13
C06  36282683.521   188933498.889        -106.224          29.000  
C07  36297021.695   189008147.787        -196.241          21.000  
C16  36643354.833   190811524.322         -75.992          31.000  
C22  22177321.560   115483117.473        -963.288          31.000  
E02  26883065.741   141271441.658       -3175.137          32.000  
E30  22937589.237   120537828.722       -1926.338          29.000  
G26  20106185.877   105658666.674        -631.963          27.000  
G29  23761510.948   124867639.680       -1404.349          24.000  
G32                                                                  21195023.990    83173796.582       -1614.531          21.000  
J01  36217845.008   190326186.303        -158.232          23.000  
J02  39311120.677   206581330.814       -1426.786          29.000  
R04  20648110.211   110569691.668       -3933.434          28.000  
R05  19193596.050   102600770.160        -114.055          28.000  
> 2021  9 30 12  5 21.9987835  0 12
C06  36282552.212   188932825.050        -107.726          25.000  
C07  36296911.371   189007563.438        -194.727          23.000  
C16  36643220.526   190810820.167         -77.267          30.000  
C22  22177358.134   115483300.545        -963.708          33.000  
E02  26883518.427   141273829.503       -3174.605          26.000  
E30  22937805.388   120538968.235       -1928.154          31.000  
G26  20106155.898   105658511.289        -632.416          26.000  
G29  23761623.970   124868257.279       -1407.608          17.000  
G32                                                                  21195288.407    83174822.586       -1616.080          27.000  
J02  39311243.892   206581969.691       -1427.113          28.000  
R04  20648693.607   110572816.288       -3933.537          31.000  
R05  19193467.139   102600080.743        -114.202          30.000  
> 2021  9 30 12  5 22.9987832  0  8
C01  37489262.124   195216425.1931       -701.986          31.000  
C07  36296858.907   189007290.175        -194.498          25.000  
C16  36643149.475   190810429.682         -78.813          21.000  
C22  22177453.768   115483795.919        -963.499          30.000  
E02  26884030.173   141276532.169       -3174.548          24.000  
G29  23761785.858   124869190.666       -1404.611          18.000  
G32  21195581.304   111383654.2701      -2164.426          36.000    21195612.783    83176085.455       -1614.840          25.000  
R05  19193399.386   102599718.547        -114.712          32.000  
> 2021  9 30 12  5 23.9987827  0 12
C06  36282358.546   188931789.7361       -107.851          26.000  
C07  36296746.185   189006703.903        -193.626          26.000  
C16  36643014.569   190809728.065         -79.392          28.000  
C22  22177489.444   115483979.458        -965.101          28.000  
E02  26884481.061   141278919.431       -3175.851          23.000  
E30  22938299.446   120541564.0911      -1928.393          30.000  
G26  20106161.294   105658516.2431       -633.200          28.000  
G32                                                                  21195875.701    83177111.500       -1614.399          23.000  
J01  36217544.016   190324621.9171       -161.396          29.000  
J02  39311554.477   206583563.9161      -1427.355          19.000  
R04  20649923.356   110579401.3611      -3933.970          30.000  
R05  19193266.878   102599011.173        -114.921          28.000  
> 2021  9 30 12  5 24.9987822  0 13
C06  36282230.534   188931116.712        -107.764          28.000  
C07  36296634.063   189006117.021        -193.330          23.000  
C16  36642878.763   190809025.989         -78.070          30.000  
C22  22177524.219   115484163.627        -964.448          25.000  
C36  23162035.157   120611018.8681      -2031.257          19.000  
E02  26884931.649   141281305.426       -3174.386          26.000  
E30  22938513.198   120542704.278       -1927.270          30.000  
G29  23762010.103   124870423.8921      -1403.691          24.000  
G32                                                                  21196137.120    83178137.390       -1614.665          27.000  
J01  36217424.998   190323995.975        -162.335          30.000  
J02  39311674.394   206584203.397       -1427.349          26.000  
R04  20650512.148   110582554.114       -3933.800          24.000  
R05  19193137.367   102598318.211        -115.495          30.000  
> 2021  9 30 12  5 25.9987820  0 12
C06  36282192.461   188930911.696        -106.346          27.000  
C07  36296612.478   189005997.715        -193.819          24.000  
C16  36642831.995   190808791.462         -77.521          30.000  
C22  22177645.336   115484816.574        -966.240          25.000  
C36  23162361.631   120612738.137       -2031.778          18.000  
E30  22938819.286   120544316.797       -1927.211          32.000  
G26  20106191.873   105658680.2511       -634.480          27.000  
G29  23762248.138   124871514.105       -1403.954          21.000  
G32  21196454.600   111388254.2501      -2163.594          34.000    21196488.177    83179517.521       -1615.706          26.000  
J02  39311885.148   206585315.042       -1426.431          26.000  
R04  20651183.683   110586150.714       -3934.465          27.000  
R05  19193099.594   102598116.894        -116.685          31.000  
> 2021  9 30 12  5 26.9987814  0 10
C07  36296469.177   189005254.944        -194.689          27.000  
C16  36642664.711   190807931.985         -77.040          28.000  
C22  22177647.434   115484846.189        -966.526          24.000  
C36  23162570.886   120613834.185       -2032.924          18.000  
E30  22939009.954   120545299.377       -1928.060          32.000  
G29  23762359.661   124871974.102       -1405.862          17.000  
G32                                                                  21196719.916    83180426.420       -1614.202          22.000  
J02  39311975.985   206585795.676       -1425.975          24.000  
R04  20651738.599   110589122.181       -3935.549          30.000  
R05  19192944.001   102597284.374        -118.203          30.000  
> 2021  9 30 12  5 27.9987809  0 12
C07  36296355.856   189004669.591        -195.288          27.000  
C16  36642527.706   190807227.406         -75.744          24.000  
C22  22177685.208   115485032.254        -967.387          27.000  
C30  25087641.387   130637931.6041        421.884          26.000  
E30  22939228.503                       -1929.376          35.000  
G26  20106106.132   105658217.5201       -636.443          30.000  
G29  23762491.569   124872593.819       -1409.467          18.000  
G32                                                                  21196982.834    83181455.174       -1617.951          22.000  
J01  36217135.399   190322437.7031       -163.260          30.000  
J02  39312098.301   206586433.857       -1426.452          26.000  
R04  20652322.894   110592251.176       -3936.223          30.000  
R05  19192816.889   102596605.227        -120.634          27.000  
> 2021  9 30 12  5 28.9987804  0 10
C06  36281780.846   188928735.1801       -109.611          19.000  
C07  36296243.434   189004084.382        -195.621          29.000  
C22  22177720.883   115485218.849        -966.364          25.000  
C30  25087413.845   130636731.490         416.405          25.000  
E30  22939441.355   120547600.1591      -1930.586          31.000  
G26  20106075.853   105658066.636        -637.645          31.000  
G29  23762613.885   124873216.492       -1412.425          19.000  
G32                                                                  21197243.953    83182484.600       -1617.048          22.000  
J01  36217018.180   190321812.543        -162.635          26.000  
R05  19192685.580   102595903.483        -120.554          24.000  
> 2021  9 30 12  5 29.9987799  0  9
C06  36281655.533   188928063.868        -109.257          20.000  
C07  36296131.011   189003499.496        -194.995          30.000  
C30  25087183.904   130635531.561         420.996          11.000  
G26  20106046.174   105657916.600        -637.624          33.000  
G29  23762722.410   124873839.796       -1410.326          20.000  
G32                                                                  21197505.972    83183512.117       -1614.779          19.000  
J02  39312336.636   206587710.3231      -1425.160          27.000  
R04  20653479.494   110598444.6811      -3937.444          25.000  
R05  19192547.676   102595165.852        -120.654          18.000  
> 2021  9 30 12  5 30.9987796  0 10
C06  36281587.480   188927703.899        -107.328          30.000  
C07  36296077.349   189003225.876        -194.649          28.000  
C16  36642181.146   190805423.2721        -74.373          28.000  
C22  22177859.987   115485902.0541       -966.789          32.000  
E02  26887785.074   141296257.5711      -3174.738          26.000  
E30  22939933.015   120550200.1801      -1929.743          26.000  
G26  20106077.652   105658081.465        -637.408          31.000  
G32                                                                  21197826.750    83184774.323       -1612.419          17.000  
J02  39312515.912   206588662.770       -1425.290          25.000  
R04  20654113.855   110601840.976       -3938.245          26.000  
> 2021  9 30 12  5 31.9987791  0  9
C06  36281456.171   188927030.542        -108.007          31.000  
C07  36295965.226   189002639.906        -195.252          27.000  
C16  36642048.038   190804717.386         -75.568          30.000  
C22  22177897.161   115486088.805        -967.952          31.000  
E02  26888242.557   141298644.364       -3175.305          26.000  
G26  20106047.973   105657931.235        -637.876          25.000  
G32  21198065.984                       -2168.700          33.000    21198086.370    83185798.479       -1615.692          20.000  
J02  39312635.529   206589301.413       -1427.159          24.000  
R04  20654701.148   110604986.274       -3939.562          25.000  
> 2021  9 30 12  5 32.9987786  0 10
C06  36281325.761   188926357.902        -108.378          31.000  
C07  36295852.204   189002054.865        -195.185          27.000  
C16  36641914.331   190804013.510         -77.796          31.000  
C22  22177929.839   115486277.153        -969.608          33.000  
E02  26888698.541   141301031.384       -3173.943          29.000  
G26  20106019.193   105657781.554        -638.388          29.000  
G32  21198334.598                       -2167.747          39.000    21198347.190    83186826.450       -1618.614          24.000  
J02  39312756.045   206589940.548       -1426.609          26.000  
R04  20655315.123   110608274.453       -3940.333          23.000  
R05  19192240.388   102593523.6411       -123.622          31.000  
> 2021  9 30 12  5 33.9987784  0  9
C06  36281284.689   188926153.549        -108.082          31.000  
C07  36295829.720   189001937.537        -194.911          28.000  
C16  36641870.861   190803779.199         -77.776          30.000  
C22  22178056.951   115486934.260        -969.577          30.000  
E02  26889241.765   141303890.754       -3175.590          27.000  
G26  20106082.449   105658105.258        -639.194          28.000  
G32  21198691.951   111399820.1761      -2168.065          35.000    21198699.746    83188209.919       -1618.547          22.000  
J02  39312967.399   206591052.298       -1426.729          24.000  
R05  19192211.908   102593371.362        -124.443          31.000  
> 2021  9 30 12  5 34.9987779  0  9
C06  36281153.980   188925480.938        -108.668          31.000  
C07  36295716.398   189001352.221        -195.434          27.000  
C16  36641736.254   190803076.399         -77.720          30.000  
C22  22178092.326   115487123.482        -969.998          32.000  
E02  26889697.150   141306278.845       -3175.086          28.000  
G26  20106055.467   105657957.051        -639.869          29.000  
G32  21198949.772   111401200.290       -2169.245          37.000    21198960.265    83189241.064       -1620.355          20.000  
J02  39313089.115   206591691.054       -1425.891          27.000  
R05  19192091.092   102592725.391        -125.515          30.000  
> 2021  9 30 12  5 35.9987773  0  8
C06  36280992.991   188924652.292        -108.947          32.000  
C07  36295573.697   189000611.512        -196.468          26.000  
C16  36641571.068   190802217.482         -78.187          30.000  
C22  22178098.622   115487157.206        -970.971          30.000  
G26  20105999.406   105657652.159        -640.781          28.000  
G32  21199182.411   111402423.500       -2169.057          37.000    21199192.005    83190156.054       -1622.846          23.000  
J02  39313179.952   206592172.856       -1427.049          26.000  
R05  19191938.497   102591909.899        -127.728          28.000  
> 2021  9 30 12  5 36.9987768  0 10
C06  36280857.185                        -107.823          32.000  
C07  36295462.774   189000027.123        -195.946          24.000  
C16  36641436.461   190801514.923         -78.133          31.000  
C22  22178134.597   115487348.704        -973.045          31.000  
C30  25085670.252   130627745.3621        422.427          18.000  
G26  20105971.825   105657505.433        -641.421          25.000  
G29  23763740.505   124879298.2241      -1416.559          21.000  
G32  21199444.730   111403804.869       -2169.009          42.000  
J02  39313301.668   206592812.171       -1427.309          30.000  
R05  19191820.379   102591278.080        -127.578          26.000  
> 2021  9 30 12  5 37.9987763  0 10
C06  36280729.474   188923271.3221       -107.504          31.000  
C07  36295352.750   188999442.708        -196.250          23.000  
C16  36641302.454   190800812.005         -77.810          31.000  
C22  22178172.071   115487541.594        -973.308          29.000  
G26  20105946.043   105657359.311        -641.696          26.000  
G29  23763876.311   124879927.103       -1415.430          21.000  
G32  21199708.847   111405186.621       -2169.164          42.000  
J02  39313423.084   206593451.216       -1426.803          29.000  
R04  20658336.731   110624454.5201      -3942.744          26.000  
R05  19191700.762   102590638.984        -126.518          28.000  
> 2021  9 30 12  5 38.9987761  0  8
C06  36280689.002   188923067.091        -107.525          32.000  
C07  36295331.765   188999326.634        -196.677          21.000  
C16  36641257.185   190800577.847         -78.188          32.000  
C22  22178298.883   115488202.443        -972.542          28.000  
G26  20106008.400   105657686.044        -641.741          24.000  
G29  23764108.350   124881027.243       -1415.115          21.000  
G32  21200061.403   111407041.285       -2169.829          41.000  
J02  39313635.337   206594562.880       -1426.543          30.000  
> 2021  9 30 12  5 39.9987756  0  7
C06  36280563.089   188922394.406        -108.310          32.000  
C07  36295222.640   188998744.921        -201.431          14.000  
C16  36641120.780   190799874.585         -76.921          32.000  
C22  22178334.858   115488394.273        -972.456          25.000  
G26  20105980.220   105657540.058        -642.849          17.000  
G32  21200323.122   111408423.677       -2170.654          41.000  
J02  39313757.052   206595201.388       -1425.774          31.000  
> 2021  9 30 12  5 40.9987750  0  8
C06  36280403.000   188921565.528        -107.702          32.000  
C16  36640953.196   190799014.608         -77.109          31.000  
C22  22178340.554   115488430.001        -973.155          25.000  
G26  20105925.957   105657235.986        -642.085          16.000  
G29  23764320.903   124882125.7391      -1417.047          20.000  
G32  21200556.960   111409649.120       -2170.566          41.000  
J02  39313849.388   206595681.794       -1425.962          33.000  
R04  20660159.769   110634216.5161      -3943.736          25.000  
> 2021  9 30 12  5 41.9987745  0  8
C06  36280274.688   188920892.742        -108.963          32.000  
C07  36294969.915   188997432.0341       -199.988          15.000  
C16  36640817.690   190798311.708         -77.803          32.000  
C22  22178378.628   115488622.964        -974.269          29.000  
G26  20105901.674   105657091.557        -643.778          19.000  
G32  21200816.880   111411032.656       -2171.953          42.000  
J02  39313969.905   206596319.164       -1424.114          33.000  
R05  19191248.675   102588222.5741       -130.003          24.000  
> 2021  9 30 12  5 42.9987743  0  7
C06  36280235.715   188920688.489        -107.609          32.000  
C07  36294948.030   188997318.850        -198.057          15.000  
C16  36640772.121   190798076.997         -77.731          31.000  
C22  22178506.340   115489285.473        -975.579          33.000  
G26  20105964.031   105657420.565        -644.247          27.000  
G32  21201168.536   111412889.387       -2172.219          40.000  
R05  19191208.503   102588007.497        -132.589          29.000  
> 2021  9 30 12  5 43.9987738  0 10
C06  36280107.704   188920016.038        -108.189          31.000  
C07  36294834.709   188996735.121        -194.417          24.000  
C16  36640637.814   190797374.868         -78.902          32.000  
C22  22178545.013   115489480.780        -976.337          31.000  
C30  25084226.152   130620146.1901        414.389          18.000  
E08  22141066.459   116352064.4171      -1843.524          30.000  
G26  20105935.251   105657277.884        -645.466          27.000  
G32  21201435.352   111414273.946       -2171.882          40.000  
J02  39314298.478   206598063.9541      -1423.708          23.000  
R05  19191079.892   102587320.033        -134.331          29.000  
> 2021  9 30 12  5 44.9987732  0  9
C06  36279948.514   188919187.197        -105.641          32.000  
C07  36294692.008   188995993.195        -195.309          25.000  
C16  36640474.128   190796516.282         -78.353          31.000  
C22  22178554.606   115489520.276        -974.645          32.000  
E08  22141236.141   116352962.653       -1842.636          27.000  
G26  20105877.691   105656978.022        -645.749          29.000  
G29  23764618.597   124883913.6191      -1418.204          23.000  
G32  21201671.888   111415501.347       -2172.460          40.000  
R05  19190921.302   102586472.197        -135.094          31.000  
> 2021  9 30 12  5 45.9987727  0  9
C06  36279820.503   188918514.781        -108.835          29.000  
C07  36294578.386   188995407.924        -195.828          24.000  
C16  36640341.619   190795813.385         -77.738          30.000  
C22  22178598.975   115489715.731        -976.694          33.000  
G26  20105850.709   105656836.128        -646.163          30.000  
G32  21201939.902   111416887.189       -2176.750          40.000  
J01  36215231.717   190312457.0931       -164.998          25.000  
R04  20663095.337   110649936.7501      -3946.918          26.000  
R05  19190793.890   102585790.833        -134.132          29.000  
> 2021  9 30 12  5 46.9987725  0  8
C07  36294554.703   188995291.909        -197.023          23.000  
C16  36640295.751   190795579.329         -78.431          26.000  
C22  22178730.285   115490379.089        -974.803          27.000  
G26  20105911.867   105657167.411        -646.741          32.000  
J01  36215202.637   190312307.043        -165.402          25.000  
J02  39314723.283   206600293.1291      -1427.309          24.000  
R04  20663769.870   110653549.000       -3947.906          30.000  
R05  19190756.116   102585588.988        -135.303          23.000  
> 2021  9 30 12  5 47.9987720  0 10
C06  36279649.321   188917639.6241       -108.744          30.000  
C07  36294443.480   188994708.842        -197.704          22.000  
C16  36640160.545   190794876.500         -77.891          32.000  
C22  22178767.759   115490573.812        -976.574          33.000  
G26  20105881.888   105657026.335        -646.785          29.000  
G29  23765053.596   124886284.8221      -1421.391          18.000  
J01  36215085.418   190311684.802        -165.539          26.000  
J02  39314844.400   206600932.677       -1427.514          26.000  
R04  20664356.264   110656689.266       -3948.298          29.000  
R05  19190628.105   102584904.789        -136.567          30.000  
> 2021  9 30 12  5 48.9987715  0  8
C06  36279519.211   188916967.464        -108.294          29.000  
C07  36294333.156   188994126.549        -198.031          24.000  
C16  36640025.938   190794173.789         -77.773          31.000  
C22  22178803.434   115490770.377        -978.112          32.000  
G26  20105852.808   105656885.462        -647.006          33.000  
G29  23765179.808   124886917.294       -1420.497          17.000  
J01  36214973.296   190311062.623        -165.385          24.000  
R04  20664943.557   110659833.766       -3948.448          30.000  
> 2021  9 30 12  5 49.9987709  0  9
C06  36279359.122   188916138.867        -108.088          30.000  
C16  36639864.650   190793315.182         -77.175          32.000  
C22  22178807.631   115490812.246        -978.937          32.000  
E30  22944316.280   120573185.3361      -1935.059          26.000  
G26  20105794.948   105656587.862        -648.418          28.000  
G29  23765268.847   124887393.014       -1420.710          17.000  
J01  36214828.196   190310283.016        -165.693          26.000  
R04  20665501.471   110662821.344       -3949.230          28.000  
R05  19190346.899   102583401.6031       -137.829          31.000  
> 2021  9 30 12  5 50.9987707  0 11
C06  36279320.149   188915934.765        -107.624          29.000  
C07  36294171.268   188993273.7291       -197.927          23.000  
C16  36639819.381   190793079.841         -77.259          29.000  
C22  22178930.546   115491479.313        -979.913          30.000  
E30  22944625.067   120574804.881       -1933.841          30.000  
G26  20105856.105   105656921.952        -649.817          30.000  
G29  23765484.398   124888499.340       -1421.760          17.000  
J01  36214803.313   190310133.300        -166.006          24.000  
J02  39315266.507   206603162.6521      -1425.659          26.000  
R04  20666182.300   110666467.792       -3950.579          30.000  
R05  19190308.226   102583194.527        -138.754          26.000  
> 2021  9 30 12  5 51.9987702  0  9
C06  36279190.339   188915261.372        -106.930          23.000  
C16  36639682.675   190792376.583         -77.596          25.000  
C22  22178966.221   115491679.105        -980.950          31.000  
G26  20105827.925   105656784.516        -651.066          30.000  
G32  21203672.103   111426048.5931      -2177.783          31.000  
J01  36214678.300   190309509.215        -164.084          24.000  
J02  39315390.322   206603799.694       -1424.198          24.000  
R04  20666773.490   110669632.982       -3953.154          31.000  
R05  19190179.315   102582505.762        -138.176          22.000  
> 2021  9 30 12  5 52.9987697  0  8
C06  36279062.028   188914586.743        -105.053          25.000  
C16  36639544.771   190791673.163         -77.924          20.000  
C22  22179003.695   115491880.616        -982.186          24.000  
G26  20105801.543   105656647.998        -650.631          28.000  
J01  36214539.496   190308885.727        -164.888          23.000  
J02  39315509.639   206604436.158       -1424.861          21.000  
R04  20667368.279   110672818.033       -3954.444          29.000  
R05  19190050.704   102581818.398        -140.463          27.000  
> 2021  9 30 12  5 53.9987694  0  8
C06  36278992.776   188914223.478        -105.026          25.000  
C16  36639466.525   190791282.840         -79.711          18.000  
C22  22179099.929   115492394.466        -981.393          23.000  
G26  20105834.820   105656826.205        -649.739          27.000  
G32  21204253.101   111429141.5111      -2177.303          32.000  
J01  36214477.739   190308577.219        -163.251          22.000  
R04  20668018.828   110676302.054       -3953.697          24.000  
R05  19189986.549   102581475.883        -141.844          23.000  
> 2021  9 30 12  5 54.9987689  0  8
C16  36639330.719   190790581.897         -81.639          18.000  
C22  22179140.401   115492594.533        -979.960          25.000  
G26  20105806.040   105656687.907        -649.278          27.000  
G32  21204516.019   111430531.092       -2177.668          30.000  
J01  36214349.428   190307953.284        -163.292          21.000  
J02  39315820.824   206606022.4611      -1423.438          18.000  
R04  20668612.717   110679481.928       -3953.540          26.000  
R05  19189864.833   102580824.343        -144.673          23.000  
> 2021  9 30 12  5 55.9987684  0  5
C06  36278737.353   188912874.5991       -107.787          21.000  
C16  36639194.913   190789884.801         -86.192          16.000  
C22  22179179.374   115492792.440        -977.824          25.000  
G26  20105779.658   105656550.510        -650.953          26.000  
J02  39315942.539   206606656.600       -1421.625          18.000  
> 2021  9 30 12  5 56.9987679  0  7
C06  36278608.742   188912203.743        -110.677          23.000  
C16  36639063.604   190789192.800         -90.083          15.000  
G26  20105756.275   105656414.188        -651.858          27.000  
G29  23766278.548   124892627.3281      -1424.506          29.000  
G32  21205055.046   111433311.8831      -2177.835          27.000  
J02  39316067.553   206607289.993       -1421.361          17.000  
R05  19189625.898   102579547.2651       -145.435          22.000  
> 2021  9 30 12  5 57.9987674  0  4
C06  36278481.330   188911533.212        -110.349          23.000  
C16  36638928.997   190788502.098         -92.433          15.000  
G26  20105732.291   105656278.833        -652.184          24.000  
R05  19189501.185   102578880.587        -146.052          23.000  
> 2021  9 30 12  5 58.9987671  0  5
C06  36278412.678   188911175.392        -109.896          23.000  
C16  36638856.747   190788124.659         -85.872          13.000  
G26  20105764.669   105656457.848        -651.801          25.000  
J02  39316371.842   206608874.0441      -1424.468          18.000  
R05  19189437.029   102578538.117        -146.378          24.000  
> 2021  9 30 12  5 59.9987666  0  6
C06  36278282.867   188910504.691        -108.934          24.000  
C22  22179405.417   115493911.9521       -984.269          26.000  
G26  20105740.386   105656322.668        -653.228          27.000  
G32  21205921.146   111437803.9921      -2181.466          31.000  
R04  20671624.432   110695609.9991      -3954.555          26.000  
R05  19189319.211   102577908.456        -148.033          24.000  
> 2021  9 30 12  6  0.9987661  0  7
C06  36278151.558   188909832.485        -108.295          24.000  
C16  36638594.429   190786727.0601        -77.625          15.000  
C22  22179442.292   115494116.661        -986.872          24.000  
G26  20105714.903   105656189.426        -655.411          26.000  
G29  23766812.778   124895498.8381      -1428.393          24.000  
R04  20672222.218   110698810.795       -3956.644          25.000  
R05  19189203.191   102577288.267        -149.073          24.000  
> 2021  9 30 12  6  1.9987658  0  9
C06  36278084.705   188909470.808        -106.018          21.000  
C16  36638522.778   190786335.447         -77.930          15.000  
C22  22179541.223   115494636.297        -988.076          25.000  
G26  20105749.679   105656372.522        -656.038          27.000  
G29  23766992.653   124896454.718       -1430.407          26.000  
G32  21206509.039   111440907.9461      -2182.297          29.000  
J02  39316798.747   206611103.6071      -1423.998          20.000  
R04  20672876.665   110702315.301       -3958.498          24.000  
R05  19189152.526   102577016.916        -150.569          24.000  
> 2021  9 30 12  6  2.9987653  0  7
C06  36277954.894   188908795.706        -106.292          22.000  
C22  22179580.196   115494843.971        -988.134          24.000  
G26  20105722.398   105656240.960        -656.543          27.000  
G32  21206771.657   111442302.079       -2181.864          31.000  
J02  39316923.160   206611740.528       -1425.125          20.000  
R04  20673457.363   110705424.958       -3958.988          22.000  
R05  19189033.808   102576382.564        -150.324          24.000  
> 2021  9 30 12  6  3.9987648  0  7
C06  36277824.485   188908120.883        -105.998          23.000  
C22  22179620.069   115495051.549        -988.068          26.000  
G26  20105696.616   105656109.485        -656.142          28.000  
G29  23767230.089   124897743.8221      -1433.536          31.000  
J01  36213306.450   190302209.1611       -163.988          26.000  
J02  39317043.077   206612379.446       -1428.352          20.000  
R04  20674050.353   110708600.525       -3959.735          24.000  
> 2021  9 30 12  6  4.9987643  0  7
C06  36277693.775   188907446.342        -106.336          23.000  
C22  22179662.939   115495258.490        -988.137          23.000  
G26  20105671.733   105655977.731        -656.216          26.000  
G32  21207295.994   111445090.7431      -2182.528          28.000  
J01  36213179.937   190301586.095        -166.612          26.000  
R04  20674638.546   110711749.804       -3960.266          23.000  
R05  19188794.274   102575101.6571       -150.852          23.000  
> 2021  9 30 12  6  5.9987638  0  7
C06  36277563.066   188906771.488        -105.532          25.000  
C22  22179700.413   115495465.857        -988.676          28.000  
G26  20105647.150   105655846.400        -656.750          28.000  
G32  21207557.114   111446485.619       -2182.971          27.000  
J01  36213055.523   190300966.193        -168.487          29.000  
R04  20675218.044   110714853.697       -3960.014          25.000  
R05  19188674.057   102574459.725        -151.329          21.000  
> 2021  9 30 12  6  6.9987633  0  6
C06  36277433.855   188906095.394        -103.816          27.000  
C22  22179739.686   115495674.045        -989.120          26.000  
G26  20105619.569   105655715.359        -655.471          27.000  
G29  23767603.031   124899683.9961      -1434.164          31.000  
R04  20675805.638   110718000.310       -3959.379          25.000  
R05  19188552.941   102573812.342        -153.488          23.000  
> 2021  9 30 12  6  7.9987628  0  7
C06  36277304.045   188905417.554        -102.997          26.000  
C22  22179780.158   115495882.454        -988.913          23.000  
G26  20105594.387   105655583.226        -656.036          28.000  
G32  21208093.442   111449276.8191      -2184.447          26.000  
J01  36212810.893   190299726.0081       -167.065          25.000  
R04  20676396.529   110721164.170       -3959.236          24.000  
R05  19188427.328   102573140.963        -154.269          25.000  
> 2021  9 30 12  6  8.9987625  0  8
C06  36277233.894   188905052.578        -103.208          27.000  
C22  22179878.789   115496403.601        -990.587          24.000  
G26  20105630.961   105655767.537        -658.345          28.000  
G29  23767913.316   124901292.6351      -1435.588          32.000  
G32  21208418.118   111450988.915       -2185.205          25.000  
J02  39317715.812   206615899.8811      -1433.321          17.000  
R04  20677042.881   110724624.940       -3960.346          24.000  
R05  19188364.971   102572807.016        -154.204          26.000  
> 2021  9 30 12  6  9.9987622  0  6
C06  36277164.042   188904688.259        -104.397          26.000  
C22  22179978.021   115496926.060        -991.098          27.000  
G26  20105667.836   105655953.613        -659.530          29.000  
G32  21208748.189   111452701.515       -2184.933          28.000  
R04  20677689.234   110728086.189       -3961.855          27.000  
R05  19188303.514   102572478.345        -155.233          29.000  
> 2021  9 30 12  6 10.9987617  0  8
C06  36277035.131   188904012.901        -106.302          25.000  
C22  22180018.193   115497135.001        -989.112          27.000  
G26  20105645.052   105655825.588        -659.990          30.000  
G29  23768217.306   124902905.2941      -1433.503          29.000  
G32  21209015.004   111454098.675       -2185.593          31.000  
J02  39318025.497   206617499.8481      -1426.948          18.000  
R04  20678277.127   110731234.396       -3964.188          30.000  
R05  19188179.999   102571818.899        -154.954          29.000  
> 2021  9 30 12  6 11.9987612  0  7
C06  36276905.321   188903337.804        -105.687          22.000  
C22  22180056.267   115497343.420        -989.591          29.000  
G26  20105621.668   105655698.010        -660.442          30.000  
G29  23768340.520   124903548.126       -1429.814          19.000  
G32  21209282.419   111455497.096       -2186.323          29.000  
J02  39318145.414   206618137.570       -1423.570          18.000  
R05  19188059.783   102571175.826        -154.914          28.000  
> 2021  9 30 12  6 12.9987607  0  7
C06  36276774.612   188902663.042        -105.871          19.000  
C22  22180098.238   115497553.526        -992.771          25.000  
G26  20105596.485   105655570.769        -660.742          27.000  
G29  23768469.731   124904192.839       -1435.070          19.000  
G32  21209549.534   111456896.161       -2187.090          27.000  
R04  20679457.110   110737553.1171      -3965.869          27.000  
R05  19187938.966   102570529.772        -157.958          26.000  
> 2021  9 30 12  6 13.9987602  0  6
C06  36276643.302   188901988.532        -105.986          21.000  
C22  22180138.110   115497765.950        -993.645          26.000  
G26  20105571.602   105655443.972        -661.236          31.000  
G29  23768598.342   124904841.972       -1438.565          20.000  
G32  21209817.849   111458295.239       -2188.192          28.000  
R04  20680043.504   110740693.448       -3965.665          29.000  
> 2021  9 30 12  6 14.9987597  0  7
C06  36276512.593   188901313.722        -104.978          26.000  
C22  22180180.081   115497979.046        -994.089          25.000  
G26  20105547.319   105655318.027        -662.026          30.000  
G29  23768722.456   124905492.125       -1438.178          25.000  
G32  21210085.563   111459696.216       -2190.442          28.000  
R04  20680631.397   110743841.681       -3966.454          28.000  
R05  19187694.935   102569225.9301       -159.483          29.000  
> 2021  9 30 12  6 15.9987592  0  6
G26  20105523.935   105655192.355        -662.330          30.000  
G29  23768847.769   124906143.272       -1439.487          22.000  
G32  21210352.379   111461098.678       -2189.770          27.000  
J02  39318633.476   206620680.1981      -1419.747          18.000  
R04  20681220.489   110746996.121       -3965.751          28.000  
R05  19187575.318   102568585.792        -160.572          27.000  
> 2021  9 30 12  6 16.9987589  0  6
G26  20105561.409   105655382.203        -662.708          30.000  
G29  23769032.741   124907109.266       -1437.880          24.000  
G32  21210677.953   111462815.139       -2188.301          30.000  
J02  39318811.253   206621627.862       -1420.894          17.000  
R04  20681869.839   110750473.282       -3966.415          27.000  
R05  19187512.661   102568251.530        -163.522          29.000  
> 2021  9 30 12  6 17.9987587  0  6
G26  20105632.760   105655730.193        -663.457          28.000  
G29  23769239.298   124908231.706       -1438.324          19.000  
G32  21211032.608   111464688.343       -2188.710          29.000  
J02  39319017.810   206622733.506       -1421.546          17.000  
R04  20682549.169   110754111.256       -3966.465          28.000  
R05  19187483.282   102568094.475        -162.126          27.000  
> 2021  9 30 12  6 18.9987581  0  4
G26  20105580.896   105655448.722        -664.947          30.000  
G29  23769330.135   124908724.994       -1444.013          15.000  
G32  21211267.945   111465932.177       -2189.873          29.000  
R05  19187332.486   102567287.743        -162.336          28.000  
> 2021  9 30 12  6 19.9987576  0  3
G26  20105559.311   105655326.103        -665.384          27.000  
G32  21211534.760   111467334.847       -2190.732          29.000  
R05  19187211.970   102566643.770        -163.272          28.000  
> 2021  9 30 12  6 20.9987571  0  4
G26  20105535.927   105655204.480        -666.466          29.000  
G29  23769583.760   124910032.1391      -1438.368          18.000  
G32  21211804.873   111468738.246       -2191.566          27.000  
R05  19187093.851   102566012.152        -165.364          24.000  
> 2021  9 30 12  6 21.9987566  0  5
G26  20105511.644   105655082.589        -665.564          29.000  
G29  23769712.670   124910682.092       -1437.632          18.000  
G32  21212073.187   111470142.148       -2190.838          29.000  
J01  36211438.743   190292321.5621       -169.989          25.000  
R05  19186978.431   102565395.642        -165.904          26.000  
> 2021  9 30 12  6 22.9987561  0  4
G26  20105488.260   105654960.656        -665.883          30.000  
G29  23769838.883   124911331.862       -1436.179          18.000  
G32  21212345.399   111471545.560       -2191.148          23.000  
R05  19186854.617   102564733.495        -166.216          28.000  
> 2021  9 30 12  6 23.9987556  0  5
G26  20105466.375   105654839.318        -666.494          31.000  
G29  23769965.395   124911977.916       -1433.622          19.000  
G32  21212611.914   111472949.225       -2191.952          28.000  
J01  36211210.001   190291085.2031       -171.027          21.000  
R05  19186736.199   102564100.954        -167.159          29.000  
> 2021  9 30 12  6 24.9987553  0  5
G26  20105502.051   105655033.440        -667.255          31.000  
G29  23770156.363   124912940.235       -1436.518          18.000  
G32  21212938.688   111474669.328       -2194.072          25.000  
J01  36211153.340   190290782.844        -169.605          21.000  
R05  19186676.540   102563781.823        -167.391          28.000  
> 2021  9 30 12  6 25.9987551  0  5
G26  20105564.707   105655386.356        -669.206          31.000  
G29  23770380.308   124914062.660       -1438.970          18.000  
G32  21213294.242   111476547.567       -2192.499          27.000  
J01  36211126.059   190290637.090        -168.400          22.000  
R05  19186652.857   102563654.872        -169.262          28.000  
> 2021  9 30 12  6 26.9987546  0  5
G26  20105539.525   105655267.285        -668.296          28.000  
G29  23770516.714   124914716.153       -1440.960          18.000  
G32  21213561.657   111477953.825       -2195.097          26.000  
J01  36211007.341   190290017.105        -168.271          21.000  
R05  19186535.338   102563027.157        -169.928          26.000  
> 2021  9 30 12  6 27.9987540  0  5
G26  20105486.162   105654989.584        -667.711          29.000  
G29  23770617.444   124915212.000       -1442.720          18.000  
G32  21213798.193   111479203.551       -2194.633          27.000  
J01  36210862.541   190289239.189        -167.263          22.000  
R05  19186391.138   102562255.535        -170.587          23.000  
> 2021  9 30 12  6 28.9987535  0  5
G26  20105462.178   105654870.075        -668.803          29.000  
G29  23770750.552   124916136.737       -1440.477          18.000  
G32  21214065.608   111480610.006       -2194.062          26.000  
J01  36210743.224   190288618.945        -167.291          19.000  
R05  19186272.720   102561623.354        -171.723          24.000  
> 2021  9 30 12  6 29.9987530  0  4
G26  20105439.694   105654751.184        -669.103          31.000  
G29  23770887.557   124916790.262       -1441.589          18.000  
G32  21214332.123   111482016.471       -2195.451          26.000  
R05  19186158.499   102561012.032        -172.360          26.000  
> 2021  9 30 12  6 30.9987525  0  5
G26  20105416.610   105654633.110        -669.966          28.000  
G29  23771018.866   124917444.879       -1443.568          17.000  
G32  21214599.239   111483423.999       -2195.206          25.000  
J01  36210506.988   190287379.5951       -170.089          19.000  
R05  19186046.376   102560413.409        -174.162          26.000  
> 2021  9 30 12  6 31.9987520  0  4
G26  20105393.526   105654515.154        -670.357          29.000  
G29  23771155.272   124918101.022       -1445.248          18.000  
G32  21214865.154   111484831.659       -2195.593          27.000  
J01  36210389.769   190286760.997        -168.800          21.000  
> 2021  9 30 12  6 32.9987520  0  5
G26  20105520.338   105655186.009        -671.971          27.000  
G29  23771444.571   124919548.742       -1449.314          17.000  
G32  21215281.566   111487027.005       -2195.591          27.000  
J01  36210420.048   190286929.542        -168.677          21.000  
R05  19185964.233   102559974.1631       -175.918          24.000  
> 2021  9 30 12  6 33.9987515  0  4
G26  20105497.554   105655070.222        -671.961          28.000  
G32  21215548.082   111488434.349       -2195.030          26.000  
J01  36210301.330   190286310.838        -170.404          24.000  
R05  19185851.511   102559371.041        -174.086          22.000  
> 2021  9 30 12  6 34.9987510  0  5
G26  20105475.669   105654955.317        -672.922          28.000  
G29  23771709.888   124921177.7141      -1450.630          19.000  
G32  21215815.197   111489842.796       -2196.898          27.000  
J01  36210185.610   190285694.233        -172.316          23.000  
R05  19185733.093   102558737.792        -178.210          25.000  
> 2021  9 30 12  6 35.9987505  0  4
G26  20105453.484   105654840.450        -672.857          30.000  
G32  21216084.111   111491252.369       -2198.305          29.000  
J01  36210067.492   190285079.163        -173.819          25.000  
R05  19185614.076   102558102.407        -178.153          25.000  
> 2021  9 30 12  6 36.9987500  0  4
G26  20105430.400   105654725.631        -673.218          32.000  
G32  21216352.125   111492663.382       -2199.467          26.000  
J01  36209950.273   190284464.221        -172.276          26.000  
R05  19185495.658   102557469.336        -179.408          25.000  
> 2021  9 30 12  6 37.9987494  0  4
G26  20105378.536   105654453.902        -674.280          29.000  
G32  21216591.659   111493916.570       -2199.202          26.000  
J01  36209803.375   190283691.557        -172.558          24.000  
R05  19185348.759   102556684.132        -179.687          25.000  
> 2021  9 30 12  6 38.9987489  0  4
G26  20105359.050   105654340.585        -674.082          26.000  
G32  21216859.674   111495328.536       -2201.070          27.000  
J01  36209688.854   190283076.395        -172.639          22.000  
R05  19185233.939   102556070.115        -181.464          24.000  
> 2021  9 30 12  6 39.9987484  0  5
G26  20105337.764   105654227.210        -674.337          27.000  
G29  23772388.618   124924745.2051      -1451.597          19.000  
G32  21217127.388   111496740.865       -2199.493          27.000  
J01  36209571.036   190282462.075        -172.765          22.000  
R05  19185114.622   102555432.273        -182.142          26.000  
> 2021  9 30 12  6 40.9987484  0  5
G26  20105469.673   105654901.835        -674.768          26.000  
G29  23772666.226   124926196.348       -1451.856          20.000  
G32  21217547.997   111498940.064       -2198.790          24.000  
J01  36209602.814   190282632.317        -169.750          24.000  
R05  19185143.402   102555585.779        -182.325          24.000  
> 2021  9 30 12  6 41.9987479  0  3
G26  20105447.189   105654790.316        -677.010          24.000  
J01  36209482.597   190282014.143        -169.188          25.000  
R05  19185020.187   102554927.694        -182.289          26.000  
> 2021  9 30 12  6 42.9987474  0  4
G26  20105424.704   105654679.085        -677.032          29.000  
G32  21218082.527   111501761.7051      -2198.502          26.000  
J01  36209363.879   190281395.374        -169.741          22.000  
R05  19184904.467   102554308.502        -183.348          23.000  
> 2021  9 30 12  6 43.9987469  0  3
G26  20105404.018   105654568.507        -677.481          28.000  
G32  21218350.242   111503173.494       -2200.228          31.000  
J01  36209247.859   190280777.763        -170.775          25.000  
> 2021  9 30 12  6 44.9987464  0  5
G26  20105383.633   105654458.351        -677.974          30.000  
G29  23772937.238   124927627.6921      -1449.493          21.000  
G32  21218619.156   111504586.667       -2201.015          28.000  
J01  36209130.041   190280161.178        -172.184          26.000  
R05  19184672.727   102553069.8011       -188.253          24.000  
> 2021  9 30 12  6 45.9987459  0  5
G26  20105363.846   105654348.434        -678.053          24.000  
G29  23773061.052   124928289.428       -1448.179          24.000  
G32  21218885.971   111505999.209       -2201.279          28.000  
J01  36209011.623   190279545.976        -172.295          25.000  
R05  19184560.605   102552470.980        -190.086          22.000  
> 2021  9 30 12  6 46.9987453  0  5
G26  20105314.081   105654081.398        -678.910          28.000  
G29  23773155.787   124928794.283       -1451.695          23.000  
G32  21219123.407   111507255.393       -2202.492          27.000  
J01  36208863.525   190278772.321        -171.833          28.000  
R05  19184417.304   102551705.071        -188.834          17.000  
> 2021  9 30 12  6 47.9987451  0  4
G26  20105385.731   105654445.175        -679.038          31.000  
G29  23773374.935   124929930.697       -1455.189          22.000  
J01  36208834.745   190278628.922        -171.627          27.000  
R05  19184387.625   102551546.143        -187.909          26.000  
> 2021  9 30 12  6 48.9987448  0  3
G26  20105423.205   105654651.688        -679.256          28.000  
G29  23773560.507   124930912.872       -1454.483          20.000  
G32  21219812.030   111510874.3131      -2204.056          35.000  
> 2021  9 30 12  6 49.9987443  0  4
G26  20105403.419   105654543.298        -679.913          29.000  
G29  23773687.619   124931579.081       -1453.015          26.000  
G32  21220068.352   111512290.570       -2203.565          33.000  
R05  19184218.842   102550643.3281       -191.008          17.000  
> 2021  9 30 12  6 50.9987438  0  3
J01  36208537.051   190277094.9621       -171.907          35.000  
R04  20702603.186   110861499.7611      -3983.234          29.000  
R05  19184102.222   102550020.651        -190.338          27.000  
> 2021  9 30 12  6 51.9987433  0  8
C19  23325367.184   121461412.5981      -3563.523          27.000  
C22  22182384.455   115509486.9801      -1010.577          32.000  
G26  20105363.546   105654328.4451       -681.198          33.000  
G29  23773932.249   124932910.1841      -1454.549          21.000  
G32  21220621.170   111515116.2521      -2203.969          33.000  
J01  36208421.631                        -170.377          34.000  
R04  20703193.178   110864658.409       -3983.682          32.000  
R05  19183984.404   102549390.741        -190.506          32.000  
> 2021  9 30 12  6 52.9987428  0  8
C19  23325899.316   121464195.369       -3563.152          28.000  
C22  22182428.524   115509717.316       -1011.444          34.000  
G26  20105341.961   105654222.126        -682.115          32.000  
G29  23774056.963   124933577.197       -1455.558          28.000  
G32  21220889.784   111516533.131       -2204.614          36.000  
J01  36208308.010   190275923.0571       -171.104          33.000  
R04  20703784.968   110867827.723       -3984.531          28.000  
R05  19183866.286   102548759.267        -191.126          31.000  
> 2021  9 30 12  6 53.9987423  0  7
C19  23326435.944   121466978.252       -3562.947          26.000  
C22  22182473.493   115509948.627       -1013.276          35.000  
G26  20105315.280   105654116.690        -682.620          27.000  
G29  23774182.576   124934245.175       -1455.458          29.000  
G32  21221156.599   111517950.583       -2205.427          36.000  
J01  36208193.189   190275306.578        -173.741          31.000  
R05  19183748.467   102548128.932        -192.462          31.000  
> 2021  9 30 12  6 54.9987420  0  8
C19  23327031.932   121470072.790       -3563.538          27.000  
C22  22182578.720                       -1013.444          33.000  
G26  20105352.454   105654326.097        -681.473          26.000  
G29  23774368.447   124935227.684       -1455.273          27.000  
G32  21221483.373   111519683.536       -2206.679          37.000  
J01  36208127.835   190275005.228        -172.201          31.000    36208135.030   142088499.0021       -128.701          29.000  
R04  20705024.010   110874462.9511      -3985.752          25.000  
R05  19183694.505   102547840.368        -193.581          30.000  
> 2021  9 30 12  6 55.9987415  0  7
C22  22182621.591   115510741.6421      -1014.411          35.000  
G26  20105330.569   105654220.042        -682.428          25.000  
G29  23774496.159   124935896.125       -1457.352          27.000  
G32  21221752.586   111521101.940       -2206.585          37.000  
J01  36208004.620   190274388.942        -170.990          31.000    36208017.811   142088039.571        -129.992          28.000  
R04  20705616.400   110877635.013       -3987.825          23.000  
R05  19183579.684   102547226.930        -194.515          34.000  
> 2021  9 30 12  6 56.9987412  0  7
C22  22182729.216   115511287.501       -1013.604          33.000  
G26  20105371.341   105654430.332        -683.459          29.000  
G29  23774684.129   124936880.651       -1457.149          26.000  
G32  21222083.557   111522835.870       -2206.734          36.000  
J01                                                                  36207961.750   142087815.740        -128.812          27.000  
R04  20706266.350   110881116.073       -3987.950          22.000  
R05  19183526.621   102546943.107        -195.420          32.000  
> 2021  9 30 12  6 57.9987407  0  9
C19  23328699.677   121478730.3741      -3564.088          27.000  
C22  22182773.885   115511521.888       -1016.492          33.000  
C36  23185876.452   120735099.5011      -2033.427          24.000  
G26  20105351.255   105654326.386        -684.034          30.000  
G29  23774810.341   124937550.787       -1458.512          28.000  
G32  21222354.869   111524255.395       -2208.313          37.000  
J01  36207843.032   190273471.9591       -172.153          31.000    36207844.831   142087356.874        -127.826          28.000  
R04  20706861.138   110884300.218       -3988.184          30.000  
R05  19183414.199   102546342.656        -196.400          34.000  
> 2021  9 30 12  6 58.9987402  0  9
C19  23329235.406   121481514.644       -3564.581          27.000  
C22  22182818.854   115511756.787       -1017.494          33.000  
C36  23186119.583   120736352.801       -2034.106          28.000  
E08  22157501.081   116438454.0281      -1869.609          32.000  
G26  20105331.169   105654223.198        -685.501          30.000  
G29  23774938.053   124938223.123       -1460.949          27.000  
G32  21222620.186   111525675.434       -2207.910          36.000  
J01  36207722.216   190272856.178        -170.837          31.000    36207727.012   142086896.147        -128.635          28.000  
R05  19183302.376   102545744.366        -197.613          35.000  
> 2021  9 30 12  6 59.9987397  0 10
C19  23329769.936   121484298.951       -3565.241          28.000  
C22  22182868.620   115511992.002       -1015.152          33.000  
C36  23186359.417   120737605.105       -2032.812          26.000  
E08  22157708.238                       -1871.338          30.000  
G26  20105313.481   105654120.926        -685.839          31.000  
G29  23775065.764   124938896.173       -1461.399          27.000  
G32  21222895.695   111527095.780       -2209.076          35.000  
J01  36207601.399   190272240.675        -172.116          33.000    36207610.093   142086436.171        -127.259          28.000  
R04  20708058.509   110890712.0711      -3989.445          25.000  
R05  19183190.254   102545144.970        -197.591          33.000  
> 2021  9 30 12  7  0.9987392  0  8
C19  23330303.267   121487084.404       -3566.881          30.000  
C22  22182914.188   115512227.260       -1016.250          25.000  
C36  23186598.652   120738857.312       -2033.509          25.000  
E08  22157927.386   116440625.7791      -1869.871          28.000  
G32  21223164.009   111528516.255       -2207.938          34.000  
J01  36207483.281   190271625.270        -168.591          32.000    36207493.474   142085975.074        -127.850          28.000  
R04  20708650.300   110893881.601       -3989.138          26.000  
R05  19183080.530   102544559.288        -197.882          26.000  
> 2021  9 30 12  7  1.9987387  0  9
C19  23330837.198   121489871.143       -3567.869          29.000  
C22  22182960.056   115512463.026       -1016.148          27.000  
C36  23186837.586   120740109.817       -2032.999          27.000  
E08  22158139.639   116441709.878       -1875.384          28.000  
G26  20105277.806   105653918.3401       -687.024          32.000  
G29  23775318.789   124940244.5281      -1461.932          22.000  
G32  21223420.931   111529937.482       -2209.107          34.000  
J01  36207366.961   190271010.341        -174.255          29.000    36207377.754   142085514.143        -127.327          23.000  
R05  19182970.506   102543970.704        -197.563          26.000  
> 2021  9 30 12  7  2.9987382  0  8
C19  23331372.627   121492658.954       -3568.369          27.000  
C22  22183003.826   115512699.543       -1017.740          26.000  
C36  23187076.821   120741362.326       -2032.900          29.000  
E08  22158345.896   116442795.623       -1872.706          23.000  
G26  20105266.114                        -685.584          30.000  
J01  36207249.143   190270396.136        -172.962          27.000    36207260.235   142085052.958        -126.635          19.000  
R04  20709851.268   110900312.9101      -3990.834          25.000  
R05  19182858.683   102543372.734        -200.368          29.000  
> 2021  9 30 12  7  3.9987382  0  7
C19  23332058.552   121496227.805       -3568.366          25.000  
C22  22183197.192   115513716.772       -1017.688          27.000  
C36  23187468.050   120743395.870       -2034.002          30.000  
G26  20105395.025   105654573.8601       -687.291          30.000  
G29  23775726.507   124942378.9881      -1460.982          24.000  
J01  36207280.621   190270568.719        -172.344          26.000  
R05  19182898.256   102543584.025        -202.586          28.000  
> 2021  9 30 12  7  4.9987377  0  6
C19  23332593.382   121499014.875       -3567.459          30.000  
C22  22183242.461   115513954.294       -1018.291          29.000  
G26  20105378.236   105654474.197        -688.418          33.000  
G29  23775860.814   124943052.381       -1462.153          21.000  
G32  21224384.764   111534992.5921      -2212.451          32.000  
R05  19182784.335   102542975.320        -202.923          25.000  
> 2021  9 30 12  7  5.9987372  0  8
C04  38367064.334   199787371.3851       -692.790          28.000  
C19  23333128.211   121501801.929       -3567.483          31.000  
C22  22183288.329   115514192.583       -1019.236          21.000  
C36  23187945.919   120745909.2291      -2038.998          17.000  
G26  20105362.347   105654375.334        -689.479          32.000  
G29  23775988.526   124943725.109       -1460.060          11.000  
G32  21224652.779   111536417.120       -2216.387          31.000  
R05  19182671.913   102542374.110        -204.520          25.000  
> 2021  9 30 12  7  6.9987366  0  8
C19  23333634.261   121504432.858       -3567.955          28.000  
C22  22183304.218   115514275.665       -1019.991          22.000  
G26  20105314.980   105654119.224        -690.057          33.000  
G29  23776088.656   124944240.232       -1461.841          11.000  
G32  21224892.013   111537682.780       -2211.060          27.000  
J01  36206889.992   190268564.6991       -172.131          28.000  
R04  20712352.437   110913706.0241      -3990.066          16.000  
R05  19182531.010   102541621.796        -203.704          26.000  
> 2021  9 30 12  7  7.9987361  0  9
C19  23334169.391   121507220.786       -3568.382          21.000  
C22  22183349.187   115514516.496       -1021.729          24.000  
G26  20105297.892   105654021.274        -689.902          33.000  
G29  23776224.462   124944911.545       -1460.736          11.000  
G31  21533453.400                       -1417.726          28.000  
G32  21225162.126   111539105.707       -2210.742          29.000  
J01  36206775.171   190267950.266        -173.481          25.000  
J03  37263766.032   195822411.6051       -608.754          29.000  
R05  19182420.686   102541031.856        -204.596          28.000  
> 2021  9 30 12  7  8.9987356  0  6
C19  23334704.220   121510007.920       -3567.874          22.000  
C22  22183395.055   115514757.679       -1021.320          28.000  
G26  20105277.506   105653923.616        -690.871          32.000  
G29  23776358.769   124945583.875       -1465.400          12.000  
R04  20713546.210   110920098.5991      -3992.411          16.000  
R05  19182308.864   102540433.873        -204.388          28.000  
> 2021  9 30 12  7  9.9987351  0  5
C06  36270253.226   188868609.7241       -105.341          25.000  
C22  22183441.223   115514998.636       -1022.506          28.000  
G26  20105255.921   105653826.417        -689.994          34.000  
G29  23776506.567   124946263.079       -1467.305          11.000  
R04  20714148.793   110923325.666       -3996.632          16.000  
> 2021  9 30 12  7 10.9987346  0  7
C06  36270122.217   188867933.534        -104.284          21.000  
C22  22183488.590   115515240.712       -1022.482          26.000  
G26  20105235.235   105653729.806        -691.442          35.000  
G29  23776658.262   124946942.717       -1466.854          13.000  
J01  36206422.615   190266106.5541       -173.430          26.000  
R04  20714736.986   110926475.804       -3997.360          15.000  
R05  19182085.818   102539241.3571       -206.960          25.000  
> 2021  9 30 12  7 11.9987346  0 10
C06  36270139.305   188868038.127        -105.698          20.000  
C19  23336454.409   121519150.4071      -3568.684          30.000  
C22  22183686.453   115516264.341       -1024.285          26.000  
C36  23189486.553   120753741.1121      -2033.817          24.000  
G26  20105367.744   105654421.403        -691.156          35.000  
G29  23776948.761   124948708.369       -1466.562          16.000  
G32  21226405.066                       -2213.675          35.000  
J01  36206455.592   190266280.135        -173.876          26.000  
R04  20715480.771   110930458.240       -3997.604          16.000  
R05  19182122.693   102539438.618        -209.232          27.000  
> 2021  9 30 12  7 12.9987341  0 11
C19  23336990.138   121521939.387       -3571.372          25.000  
C22  22183734.120   115516507.236       -1022.769          27.000  
C36  23189726.686   120754994.604       -2033.413          24.000  
G26  20105348.857   105654325.727        -692.193          36.000  
G29  23777084.867   124949387.157       -1466.485          18.000  
G31  21534192.689   113162946.2791      -1416.989          30.000  
G32  21226682.973   111546937.4591      -2215.570          34.000  
J01  36206340.772   190265666.169        -173.340          27.000  
J03  37263748.044   195822301.7991       -607.310          25.000  
R04  20716084.553   110933691.604       -3997.038          19.000  
R05  19182010.870   102538840.560        -208.965          26.000  
> 2021  9 30 12  7 13.9987336  0 10
C06  36269873.689   188866685.2551       -105.452          18.000  
C19  23337528.865   121524732.599       -3574.289          14.000  
C22  22183780.288   115516749.337       -1022.096          25.000  
C36  23189968.319   120756248.557       -2035.016          26.000  
G26  20105330.569   105654230.692        -693.207          28.000  
G29  23777220.972   124950065.791       -1466.381          19.000  
G31  21534042.792   113162158.569       -1416.989          27.000  
J01  36206225.951   190265050.976        -172.247          25.000  
J03  37263712.669   195822121.111        -607.146          24.000  
R05  19181901.146   102538254.668        -209.374          27.000  
> 2021  9 30 12  7 14.9987331  0  8
C19  23338067.292   121527524.969       -3572.100          12.000  
C22  22183823.459   115516990.529       -1022.218          26.000  
G26  20105311.982   105654136.190        -693.190          26.000  
G29  23777357.378   124950744.487       -1466.448          25.000  
G31  21534430.724                       -1415.358          31.000  
G32  21227224.698   111549788.8111      -2215.183          24.000  
J03  37263678.192   195821941.453        -608.409          27.000  
R05  19181795.319   102537688.481        -209.441          25.000  
> 2021  9 30 12  7 15.9987325  0  8
C22  22183839.947   115517076.766       -1023.801          28.000  
G26  20105262.816   105653883.933        -693.202          23.000  
G29  23777459.008   124951265.672       -1466.515          25.000  
G31  21534520.662                       -1416.985          31.000  
G32  21227467.530   111551059.117       -2215.986          31.000  
J03  37263611.638   195821605.346        -609.316          25.000  
R04  20717852.129   110943157.2971      -3997.805          23.000  
R05  19181657.715   102536952.981        -212.711          26.000  
> 2021  9 30 12  7 16.9987320  0  7
C22  22183885.516   115517320.126       -1024.400          29.000  
G29  23777592.715   124951944.540       -1466.681          27.000  
G31  21534640.579   113165299.2851      -1417.300          30.000  
G32  21227740.341   111552487.190       -2215.862          31.000  
J03  37263576.563   195821427.681        -609.784          24.000  
R04  20718445.119   110946332.385       -3997.944          27.000  
R05  19181545.892   102536355.168        -211.638          25.000  
> 2021  9 30 12  7 17.9987315  0  9
C06  36269331.664   188863837.4101       -112.713          19.000  
C22  22183932.583   115517564.564       -1025.554          29.000  
C36  23190918.961   120761103.5041      -2032.755          30.000  
G29  23777725.223   124952623.660       -1466.988          27.000  
G31  21534759.296   113165928.780       -1417.231          29.000  
G32  21228013.152   111553915.771       -2216.707          34.000  
J03  37263541.487   195821249.166        -610.124          25.000  
R04  20719039.008   110949512.698       -3998.540          30.000  
R05  19181435.269   102535763.698        -213.598          23.000  
> 2021  9 30 12  7 18.9987313  0  8
C22  22184069.588   115518278.149       -1026.642          26.000  
C36  23191252.930   120762824.275       -2033.393          30.000  
G29  23777952.766   124953775.774       -1467.644          27.000  
G31  21534968.851   113167030.892       -1416.912          30.000  
G32  21228375.302   111555817.149       -2216.361          35.000  
J03  37263596.649   195821543.899        -608.880          25.000  
R04  20719725.832   110953190.169       -3998.922          29.000  
R05  19181416.382   102535662.505        -215.076          24.000  
> 2021  9 30 12  7 19.9987310  0  9
C06  36269220.741   188863283.6521       -114.096          17.000  
C22  22184177.214   115518836.615       -1026.621          24.000  
C36  23191555.720   120764389.172       -2033.153          34.000  
G29  23778158.124   124955063.363       -1467.304          24.000  
G31  21535146.628   113167975.532       -1417.162          32.000  
G32  21228708.371   111557561.249       -2217.406          36.000  
J03  37263623.031   195821680.066        -607.489          25.000  
R04  20720382.678   110956707.485       -3999.190          28.000  
R05  19181367.216   102535400.354        -215.715          25.000  
> 2021  9 30 12  7 20.9987305  0  9
C19  23341382.397   121544880.9531      -3567.753          27.000  
C22  22184225.180   115519083.900       -1029.215          25.000  
C36  23191800.051   120765641.292       -2033.084          35.000  
G26  20105320.676   105654207.2261       -697.088          19.000  
G29  23778301.724   124955743.347       -1468.699          23.000  
G31  21535265.946   113168604.671       -1416.690          32.000  
G32  21228979.683                       -2217.257          37.000  
R04  20720971.470   110959861.049       -3999.772          28.000  
R05  19181254.494   102534797.911        -216.297          25.000  
> 2021  9 30 12  7 21.9987300  0  7
C10  37023307.897   192790079.5281       -125.779          23.000  
C36  23192042.283   120766893.789       -2032.840          35.000  
G29  23778453.119   124956425.395       -1469.997          24.000  
G31  21535383.164   113169233.456       -1415.076          31.000  
G32  21229253.693   111560470.3161      -2217.071          37.000  
R04  20721565.958   110963043.867       -3999.693          26.000  
R05  19181147.768   102534227.285        -216.932          26.000  
> 2021  9 30 12  7 22.9987295  0 10
C10  37023180.186   192789424.771        -125.457          22.000  
C19  23342456.853   121550458.7481      -3569.693          29.000  
C22  22184320.215   115519578.4891      -1028.238          25.000  
C36  23192284.516                       -2032.703          35.000  
G29  23778610.211   124957439.177       -1470.606          25.000  
G31  21535511.476                       -1418.012          32.000  
G32  21229525.605   111561900.243       -2218.510          37.000  
J03  37263531.894   195821142.5961       -608.767          19.000  
R04  20722160.447   110966227.772       -4000.272          25.000  
R05  19181040.142   102533652.199        -217.521          25.000  
> 2021  9 30 12  7 23.9987290  0  9
C06  36268702.400   188860596.8251       -105.539          17.000  
C10  37023053.373   192788769.436        -126.442          22.000  
C22  22184367.582   115519826.219       -1029.167          25.000  
C36  23192522.251   120769563.1481      -2032.597          35.000  
G31  21535631.692   113170504.6891      -1415.941          31.000  
G32  21229797.517   111563330.594       -2217.848          39.000  
J03  37263500.116   195820963.431        -608.432          20.000  
R04  20722749.239   110969380.675       -4000.709          25.000  
R05  19180932.517   102533076.691        -218.114          26.000  
> 2021  9 30 12  7 24.9987284  0  9
C06  36268542.011   188859766.735        -106.330          16.000  
C10  37022894.783   192787959.693        -128.204          21.000  
C22  22184383.771   115519918.895       -1029.165          24.000  
C36  23192733.005   120770658.853       -2032.430          35.000  
G31  21535718.632   113170975.353       -1416.756          31.000  
G32  21230040.948   111564603.597       -2218.464          39.000  
J03  37263437.759   195820627.443        -609.376          26.000  
R04  20723313.149   110972400.140       -4001.039          24.000  
R05  19180803.006   102532384.619        -218.688          26.000  
> 2021  9 30 12  7 25.9987279  0  9
C10  37022763.774   192787306.819        -128.159          22.000  
C19  23344040.957   121558672.3861      -3570.871          25.000  
C22  22184432.637   115520167.105       -1028.894          24.000  
C36  23192973.439   120771910.451       -2031.676          35.000  
G31  21535840.648   113171603.422       -1416.215          32.000  
G32  21230312.261   111566034.427       -2218.756          38.000  
J03  37263403.582   195820448.466        -608.645          27.000  
R04  20723914.533   110975620.789       -4001.954          28.000  
R05  19180696.880   102531816.514        -220.123          26.000  
> 2021  9 30 12  7 26.9987277  0  8
C19  23344668.123   121561930.877       -3571.403          27.000  
C22  22184569.642   115520882.826       -1027.289          25.000  
C36  23193307.407   120773630.309       -2029.557          35.000  
G31  21536048.104   113172704.001       -1415.067          31.000  
G32  21230673.211   111567938.266       -2217.574          40.000  
J03  37263457.845   195820741.390        -607.364          27.000  
R04  20724601.657   110979300.652       -4002.239          27.000  
R05  19180678.593   102531719.031        -219.946          24.000  
> 2021  9 30 12  7 27.9987274  0 10
C16  36628240.497   190732895.2111        -73.251          23.000  
C19  23345265.009   121565033.735       -3571.446          22.000  
C22  22184676.668   115521441.956       -1028.680          24.000  
C36  23193603.902   120775193.698       -2031.740          35.000  
G29  23779437.038   124961784.8321      -1472.731          29.000  
G31  21536224.982   113173646.770       -1414.437          32.000  
G32  21231006.580   111569684.674       -2219.323          39.000  
J03  37263483.627   195820875.932        -607.444          26.000  
R04  20725258.502   110982817.276       -4002.882          26.000  
R05  19180630.026   102531459.002        -220.126          26.000  
> 2021  9 30 12  7 28.9987269  0  9
C16  36628103.492   190732187.853         -74.448          21.000  
C19  23345801.638   121567822.922       -3568.412          21.000  
C22  22184726.134   115521689.657       -1028.472          25.000  
C36  23193845.235   120776444.860       -2031.729          34.000  
G29  23779571.345   124962470.230       -1473.749          29.000  
G31  21536346.697   113174274.395       -1416.179          32.000  
G32  21231279.991   111571116.471       -2219.437          40.000  
R04  20725855.389   110986014.445       -4003.172          26.000  
R05  19180523.600   102530890.276        -221.421          25.000  
> 2021  9 30 12  7 29.9987264  0  8
C19  23346338.266   121570611.173       -3569.591          26.000  
C22  22184772.901   115521938.333       -1029.130          28.000  
C36  23194084.469   120777697.054       -2031.868          35.000  
G26  20105279.605   105654031.2741       -695.734          26.000  
G29  23779705.053   124963156.643       -1473.821          29.000  
J03  37263413.476   195820511.7391       -605.448          21.000  
R04  20726456.773   110989234.055       -4003.842          26.000  
R05  19180413.576   102530302.892        -222.017          27.000  
> 2021  9 30 12  7 30.9987259  0  8
C16  36627827.982   190730775.8561        -73.625          21.000  
C22  22184822.067   115522187.423       -1030.281          29.000  
G29  23779836.362   124963842.679       -1473.874          29.000  
G31  21536583.533   113175529.2411      -1415.941          28.000  
G32  21231822.615   111573980.5411      -2220.702          27.000  
J03  37263377.201   195820329.567        -605.369          25.000  
R04  20727056.957   110992448.419       -4004.413          32.000  
R05  19180305.351   102529724.167        -224.442          28.000  
> 2021  9 30 12  7 31.9987254  0  8
C16  36627691.877   190730068.220         -74.050          22.000  
C19  23347402.829   121576190.5391      -3570.565          21.000  
C22  22184871.233   115522436.626       -1031.188          26.000  
C36  23194558.441   120780196.4121      -2029.549          23.000  
G29  23779968.271   124964528.754       -1473.904          29.000  
G31  21536703.450   113176157.303       -1415.588          31.000  
R04  20727652.944   110995640.123       -4004.649          24.000  
R05  19180197.426   102529146.705        -223.432          27.000  
> 2021  9 30 12  7 32.9987249  0 10
C16  36627557.570   190729361.328         -73.694          17.000  
C19  23347941.556   121578980.805       -3570.904          27.000  
C22  22184921.299   115522687.226       -1031.319          27.000  
C36  23194796.177   120781446.173       -2030.775          25.000  
G26  20105239.732   105653763.5961       -701.198          36.000  
G29  23780100.779   124965215.156       -1474.360          28.000  
G32  21232363.141   111576846.6251      -2221.706          36.000  
J03  37263318.441   195819968.0661       -606.661          25.000  
R04  20728256.726   110998873.222       -4004.829          21.000  
R05  19180085.903   102528550.681        -224.844          25.000  
> 2021  9 30 12  7 33.9987244  0 10
C10  37021884.483   192782850.7631       -122.901          16.000  
C19  23348477.885   121581770.910       -3570.631          31.000  
C22  22184970.165   115522937.858       -1031.462          24.000  
C36  23195035.411   120782696.046       -2030.118          28.000  
G26  20105228.040                        -701.362          36.000  
G29  23780231.488   124965902.032       -1474.609          28.000  
G31  21536943.584   113177412.3401      -1414.652          33.000  
G32  21232636.252   111578280.124       -2221.284          36.000  
J03  37263284.265   195819787.787        -608.167          27.000  
R04  20728865.605   111002133.266       -4005.194          23.000  
> 2021  9 30 12  7 34.9987241  0  9
C16  36627343.818   190728262.1931        -73.018          15.000  
C19  23349073.273   121584873.166       -3570.286          31.000  
C22  22185078.690   115523501.525       -1032.676          25.000  
C36  23195334.004   120784257.948       -2031.220          30.000  
G26  20105273.309   105653914.0901       -701.003          36.000  
G29  23780422.756   124966904.489       -1475.460          28.000  
G32  21232969.321                       -2222.702          36.000  
J03  37263310.947   195819922.667        -606.818          26.000  
R05  19179918.918   102527657.8801       -224.953          26.000  
> 2021  9 30 12  7 35.9987238  0  9
C19  23349669.260   121587975.421       -3571.011          32.000  
C22  22185189.013   115524066.108       -1033.141          25.000  
C36  23195634.097   120785820.385       -2030.692          27.000  
G26  20105314.980   105654142.747        -700.343          34.000  
G29  23780614.923   124967907.428       -1475.921          27.000  
G31  21537304.834                       -1417.017          31.000  
G32  21233301.791   111581755.5101      -2221.025          37.000  
J03  37263337.628   195820056.601        -606.003          28.000  
R04  20730184.392   111009195.8941      -4006.107          24.000  
> 2021  9 30 12  7 36.9987233  0 11
C10  37021627.261   192781492.8581       -116.702          16.000  
C16  36627131.265   190727161.2731        -74.181          24.000  
C19  23350207.088   121590766.176       -3571.530          27.000  
C22  22185236.680   115524319.080       -1034.147          24.000  
C36  23195874.530   120787069.649       -2030.100          26.000  
G26  20105295.194   105654056.918        -702.951          34.000  
G31  21537421.453   113179927.3461      -1413.638          27.000  
G32  21233573.703   111583190.053       -2222.626          37.000  
J03  37263304.051   195819875.217        -607.297          28.000  
R04  20730786.675   111012421.146       -4006.301          23.000  
R05  19179755.532   102526784.4821       -229.561          20.000  
> 2021  9 30 12  7 37.9987228  0 11
C16  36626995.159   190726454.573         -74.012          25.000  
C19  23350742.817   121593556.925       -3571.914          26.000  
C22  22185285.846   115524572.509       -1034.085          29.000  
C36  23196115.563   120788319.648       -2031.764          25.000  
G26  20105282.303   105653971.614        -704.828          34.000  
G29  23780882.038   124969283.1921      -1477.571          10.000  
G31  21537539.272   113180553.756       -1414.826          28.000  
G32  21233853.109   111584625.042       -2223.924          37.000  
J01  36203787.140   190252195.3961       -172.478          30.000  
R04  20731381.463   111015605.754       -4006.772          27.000  
R05  19179642.210   102526178.743        -232.486          23.000  
> 2021  9 30 12  7 38.9987223  0 10
C16  36626859.353   190725747.805         -73.419          23.000  
C19  23351279.745   121596348.645       -3571.611          29.000  
C22  22185333.813   115524826.721       -1034.720          27.000  
C36  23196355.697   120789571.026       -2032.844          25.000  
G29  23781015.745   124969973.487       -1478.220          17.000  
G31  21537657.990   113181181.431       -1414.912          29.000  
J01  36203668.422   190251580.413        -172.741          31.000  
J03  37263231.801   195819513.3241       -607.610          24.000  
R04  20731976.251   111018790.992       -4007.518          27.000  
R05  19179532.486   102525592.235        -229.418          26.000  
> 2021  9 30 12  7 39.9987218  0 10
C16  36626723.547   190725041.391         -73.800          24.000  
C22  22185382.080   115525080.221       -1034.785          31.000  
C36  23196597.630   120790822.841       -2032.212          28.000  
G26  20105252.024   105653802.1181       -699.745          31.000  
G29  23781138.960   124970663.894       -1478.099          26.000  
G31  21537779.106   113181808.470       -1414.946          28.000  
J01  36203551.803   190250965.957        -173.149          26.000  
J03  37263196.126   195819332.216        -606.975          27.000  
R04  20732576.136   111022003.750       -4007.705          30.000  
R05  19179424.561   102525015.600        -230.653          25.000  
> 2021  9 30 12  7 40.9987213  0 11
C16  36626587.741   190724334.350         -72.775          25.000  
C22  22185431.545   115525334.925       -1034.534          20.000  
C36  23196837.763   120792072.750       -2030.176          29.000  
G26  20105234.636   105653717.195        -703.799          29.000  
G29  23781268.171   124971354.138       -1477.417          26.000  
G31  21537896.924   113182435.667       -1414.967          34.000  
G32  21234659.251   111588930.0991      -2223.880          28.000  
J01  36203432.785   190250351.168        -173.156          25.000  
J03  37263161.350   195819148.936        -604.829          21.000  
R04  20733170.325   111025185.155       -4008.526          29.000  
R05  19179318.734   102524449.514        -230.097          27.000  
> 2021  9 30 12  7 41.9987208  0  9
C16  36626451.335   190723627.251         -73.069          24.000  
C19  23352885.734   121604719.5041      -3570.511          25.000  
C36  23197076.998   120793322.419       -2030.878          30.000  
G26  20105216.348   105653633.300        -703.951          30.000  
G29  23781186.027   124970975.774       -1477.252          22.000  
G31  21538015.942   113183062.590       -1414.372          34.000  
J03  37263127.174   195818965.394        -603.976          23.000  
R04  20733766.012   111028374.899       -4008.777          30.000  
R05  19179211.108   102523874.281        -230.360          31.000  
> 2021  9 30 12  7 42.9987205  0  9
C16  36626376.687   190723231.759         -72.890          26.000  
C19  23353481.421   121607821.541       -3570.389          27.000  
C22  22185589.236   115526154.8861      -1035.886          20.000  
C36  23197377.690   120794884.834       -2031.136          30.000  
G26  20105259.818   105653864.685        -704.094          26.000  
G29  23781376.396   124971981.490       -1479.172          23.000  
G31  21538193.719   113184003.901       -1414.679          31.000  
R04  20734418.361   111031868.783       -4009.179          26.000  
R05  19179163.741   102523621.102        -231.951          26.000  
> 2021  9 30 12  7 43.9987203  0 11
C16  36626331.119   190722991.162         -71.017          27.000  
C19  23354108.587   121611080.129       -3571.432          32.000  
C22  22185728.640   115526878.792       -1035.279          19.000  
C36  23197707.761   120796603.711       -2030.731          30.000  
G26  20105330.269   105654254.012        -704.913          27.000  
G29  23781603.938   124973145.401       -1479.178          22.000  
G31  21538401.475   113185103.283       -1414.532          30.000  
J01  36203225.628   190249290.3191       -170.426          20.000  
J03  37263205.719   195819385.7791       -604.541          22.000  
R04  20735102.487   111035531.844       -4010.911          20.000  
R05  19179144.854   102523520.662        -232.875          23.000  
> 2021  9 30 12  7 44.9987197  0 10
C16  36626167.132   190722125.665         -71.865          27.000  
C19  23354616.435   121613715.372       -3571.694          34.000  
C36  23197917.916   120797697.583       -2030.264          30.000  
G26  20105282.902   105654013.934        -705.662          27.000  
G29  23781701.970   124973679.095       -1476.893          17.000  
G31  21538489.914   113185571.981       -1413.069          29.000  
G32  21235874.310   111595271.8391      -2226.649          34.000  
J01  36203077.531   190248515.043        -170.549          24.000  
J03  37263140.065   195819045.030        -605.344          23.000  
R05  19179006.050   102522778.517        -233.557          24.000  
> 2021  9 30 12  7 45.9987192  0 11
C06  36266198.833   188847579.9771       -101.551          26.000  
C16  36626031.926   190721417.158         -73.615          26.000  
C19  23355154.563   121616506.510       -3572.322          32.000  
C22  22185797.292   115527229.8071      -1033.919          19.000  
C36  23198159.249   120798947.101       -2029.803          31.000  
G26  20105264.015   105653931.750        -705.494          26.000  
G29  23781839.275   124974366.825       -1474.406          16.000  
G31  21538608.332   113186197.331       -1412.780          31.000  
G32  21236146.522   111596709.867       -2225.426          31.000  
J01  36202957.614   190247900.190        -173.482          23.000  
R05  19178898.125   102522200.973        -232.520          25.000  
> 2021  9 30 12  7 46.9987187  0  8
C06  36266067.824   188846900.666        -102.236          25.000  
C16  36625898.518   190720709.341         -72.294          26.000  
C19  23355690.592   121619298.055       -3572.064          30.000  
C22  22185848.856   115527483.978       -1034.009          19.000  
C36  23198399.682   120800196.486       -2030.223          29.000  
G26  20105247.527   105653850.188        -706.501          28.000  
G29  23781972.983   124975055.193       -1478.420          17.000  
G31  21538726.450   113186822.005       -1412.241          30.000  
> 2021  9 30 12  7 47.9987182  0 10
C06  36265939.812   188846223.031        -102.710          25.000  
C16  36625763.911   190720000.519         -72.052          27.000  
C19  23356227.220   121622089.343       -3572.019          28.000  
C36  23198640.116   120801445.742       -2029.743          31.000  
G26  20105231.038   105653768.966        -707.022          27.000  
G29  23782097.696   124975752.800       -1487.397          17.000  
G31  21538844.868   113187446.270       -1412.412          29.000  
G32  21236696.941   111599585.4181      -2226.490          31.000  
J01  36202719.879   190246670.1921       -172.569          23.000  
J03  37263028.242   195818498.8101       -606.169          22.000  
> 2021  9 30 12  7 48.9987177  0  9
C06  36265808.203   188845543.296        -101.054          26.000  
C16  36625628.405   190719291.903         -71.570          29.000  
C19  23356763.249   121624882.873       -3573.875          25.000  
C36  23198879.650   120802695.082       -2030.213          31.000  
G26  20105213.950   105653688.506        -707.736          27.000  
G29  23782217.913   124976452.328       -1487.817          17.000  
G31  21538964.185   113188072.101       -1414.339          30.000  
J03  37262992.267   195818315.042        -603.681          25.000  
R05  19178590.538   102520557.0181       -235.364          25.000  
> 2021  9 30 12  7 49.9987172  0 10
C06  36265677.194   188844862.962         -99.390          25.000  
C16  36625491.999   190718583.211         -72.362          28.000  
C19  23357300.477   121627676.496       -3573.625          27.000  
C36  23199120.083   120803944.222       -2028.738          31.000  
G26  20105198.061   105653608.941        -708.350          27.000  
G29  23782349.222   124977152.228       -1487.099          17.000  
G31  21539084.402   113188698.345       -1414.301          30.000  
J01  36202486.640   190245444.3761       -175.262          26.000  
J03  37262957.491   195818131.200        -604.438          26.000  
R05  19178480.814   102519970.270        -233.620          27.000  
> 2021  9 30 12  7 50.9987169  0 11
C06  36265607.043   188844493.246         -97.529          25.000  
C16  36625417.351   190718187.135         -72.091          29.000  
C22  22186121.967   115528823.9401      -1039.459          17.000  
C36  23199418.976   120805504.432       -2028.959          30.000  
G26  20105244.229   105653845.374        -709.802          27.000  
G29  23782547.385   124978166.305       -1485.111          18.000  
G31  21539262.179   113189639.697       -1414.007          29.000  
G32  21237583.127   111604251.6891      -2225.254          30.000  
J01  36202430.579   190245146.709        -174.861          25.000  
J03  37262982.374   195818262.740        -604.623          25.000  
R05  19178431.948   102519709.139        -236.265          25.000  
> 2021  9 30 12  7 51.9987167  0  9
C06  36265564.472   188844278.651         -98.509          25.000  
C16  36625370.883   190717946.704         -71.030          28.000  
C19  23358526.629   121634041.1521      -3571.270          25.000  
C36  23199748.149   120807220.863       -2028.629          30.000  
G29  23782772.229   124979335.667       -1483.553          19.000  
G31  21539471.434   113190738.531       -1413.941          31.000  
J01  36202402.099   190245004.942        -172.425          25.000  
J03  37263037.236   195818552.427        -604.173          25.000  
R05  19178419.057   102519640.214        -239.614          27.000  
> 2021  9 30 12  7 52.9987162  0  8
C06  36265432.863   188843595.738         -98.250          23.000  
C16  36625234.478   190717237.214         -70.717          29.000  
C19  23359062.358   121636832.525       -3572.891          27.000  
C36  23199986.783   120808469.188       -2028.912          30.000  
G29  23782912.232   124980031.244       -1482.875          20.000  
J03  37263001.261   195818367.850        -603.467          25.000  
R04  20740639.954   111065184.3201      -4013.366          28.000  
R05  19178312.331   102519070.549        -239.582          28.000  
> 2021  9 30 12  7 53.9987156  0 10
C06  36265271.275   188842757.091         -99.186          24.000  
C16  36625068.992   190716371.792         -71.566          27.000  
C19  23359567.808   121639468.724       -3571.627          25.000  
C36  23200197.537   120809561.584       -2028.923          31.000  
G29  23783017.759   124980569.233       -1483.370          26.000  
G31  21539682.488   113191833.3331      -1414.146          32.000  
J01  36202134.084   190243617.3211       -173.781          21.000  
J03  37262931.709   195818024.623        -601.790          18.000  
R04  20741209.559   111068235.396       -4013.548          30.000  
R05  19178182.221   102518374.436        -240.759          32.000  
> 2021  9 30 12  7 54.9987151  0  9
C06  36265141.165   188842076.085         -99.679          25.000  
C16  36624929.889   190715661.825         -69.703          26.000  
C19  23360103.237   121642259.790       -3572.407          31.000  
C36  23200436.172   120810809.516       -2028.493          28.000  
G26  20105248.726   105653848.5651       -709.034          30.000  
G29  23783142.473   124981264.816       -1483.248          27.000  
J01  36202019.863   190243004.217        -173.448          25.000  
J03  37262894.835   195817838.518        -602.187          26.000  
R04  20741806.446   111071431.186       -4013.795          30.000  
> 2021  9 30 12  7 55.9987146  0 10
C06  36265008.657   188841395.614        -100.344          23.000  
C16  36624793.183   190714950.796         -69.357          25.000  
C19  23360639.866   121645052.466       -3573.842          27.000  
C36  23200674.207   120812057.256       -2027.795          24.000  
G26  20105234.336   105653769.827        -708.530          31.000  
G29  23783282.776   124981960.855       -1484.428          17.000  
G31  21539920.823   113193084.9451      -1414.173          27.000  
G32  21239004.743   111611770.3741      -2231.279          33.000  
J03  37262859.759   195817654.414        -603.646          25.000  
R05  19177982.559   102517307.3211       -241.660          23.000  
> 2021  9 30 12  7 56.9987141  0 11
C16  36624657.078   190714238.677         -67.159          21.000  
C19  23361176.494   121647847.131       -3576.107          29.000  
C36  23200915.840   120813305.373       -2029.405          27.000  
G26  20105219.646   105653691.094        -709.836          29.000  
G29  23783423.379   124982658.003       -1485.657          26.000  
G31  21540040.141   113193710.637       -1413.396          27.000  
G32  21239279.653   111613214.382       -2231.225          29.000  
J01  36201789.623   190241771.5731       -170.844          21.000  
J03  37262823.484   195817470.967        -604.307          24.000  
R04  20743000.520   111077825.1331      -4015.856          31.000  
R05  19177878.231   102516749.244        -243.234          30.000  
> 2021  9 30 12  7 57.9987139  0  8
C06  36264843.471   188840504.9661       -101.703          21.000  
C16  36624609.710   190713993.892         -67.884          22.000  
C22  22186603.734   115531424.8111      -1041.004          23.000  
C36  23201247.710   120815022.369       -2029.184          27.000  
G31  21540250.295   113194808.558       -1412.643          30.000  
J01  36201762.042   190241626.102        -167.944          21.000  
R04  20743681.648   111081473.260       -4016.629          28.000  
R05  19177861.143   102516658.495        -243.259          23.000  
> 2021  9 30 12  7 58.9987136  0 10
C06  36264775.718   188840138.804        -101.095          24.000  
C16  36624531.464   190713595.172         -71.888          22.000  
C22  22186712.559   115531997.115       -1040.823          23.000  
C36  23201547.203   120816584.011       -2030.829          27.000  
G26  20105345.559   105654325.6611       -711.900          34.000  
G29  23783839.790   124984843.1051      -1486.942          30.000  
G31  21540429.571   113195748.720       -1412.931          32.000  
G32  21239977.869   111616886.5721      -2230.396          23.000  
R04  20744332.497   111084958.127       -4016.553          29.000  
R05  19177813.776   102516405.227        -243.901          25.000  
> 2021  9 30 12  7 59.9987131  0 11
C06  36264645.308   188839458.722        -100.817          21.000  
C16  36624394.759   190712886.996         -73.986          23.000  
C19  23362925.483   121657012.8101      -3574.929          29.000  
C22  22186761.425   115532258.250       -1042.382          33.000  
C36  23201787.337   120817833.615       -2029.895          26.000  
G26  20105332.668   105654250.368        -713.366          31.000  
G29  23783976.196   124985541.798       -1486.103          29.000  
G31  21540548.289   113196374.074       -1413.081          33.000  
G32  21240252.779   111618329.459       -2230.781          31.000  
R04  20744929.684   111088155.906       -4016.780          30.000  
R05  19177710.947   102515855.348        -245.630          28.000  
> 2021  9 30 12  8  0.9987126  0 10
C04  38366957.308   199786814.7441       -687.553          31.000  
C06  36264514.599   188838777.768         -99.471          24.000  
C22  22186809.991   115532520.078       -1042.721          34.000  
C36  23202027.770   120819082.824       -2029.601          29.000  
G26  20105317.378   105654175.876        -713.342          31.000  
G29  23784112.901   124986240.169       -1487.028          29.000  
G31  21540666.107   113196999.002       -1412.522          26.000  
G32  21240526.789   111619773.117       -2231.726          31.000  
R04  20745526.571   111091351.972       -4017.654          31.000  
R05  19177609.018   102515310.286        -246.293          29.000  
> 2021  9 30 12  8  1.9987121  0 10
C04  38366939.920   199786721.342        -686.896          32.000  
C06  36264384.789   188838095.843         -99.833          24.000  
C19  23364002.937   121662601.4871      -3574.356          24.000  
C22  22186859.157   115532782.499       -1043.331          32.000  
G26  20105301.789   105654101.212        -713.177          32.000  
G29  23784243.011   124986939.697       -1488.035          24.000  
G31  21540783.626   113197624.443       -1413.189          28.000  
J03  37262806.996   195817354.3661       -605.384          29.000  
R04  20746123.757   111094549.907       -4018.365          25.000  
R05  19177511.885   102514791.011        -247.793          23.000  
> 2021  9 30 12  8  2.9987116  0 10
C04  38366920.733   199786627.851        -687.344          29.000  
C06  36264254.679   188837414.991         -99.901          22.000  
C19  23364539.266   121665396.077       -3575.637          32.000  
C22  22186909.522   115533045.918       -1044.835          31.000  
C36  23202509.537   120821578.9541      -2027.879          22.000  
G26  20105284.401   105654027.377        -714.443          29.000  
G29  23784364.427   124987640.310       -1488.199          24.000  
J03  37262771.920   195817171.699        -605.128          28.000  
R04  20746722.743   111097757.907       -4019.061          29.000  
R05  19177409.955   102514246.529        -248.332          28.000  
> 2021  9 30 12  8  3.9987113  0 12
C06  36264184.228   188837045.777         -98.985          24.000  
C16  36623908.496   190710368.4221        -70.827          24.000  
C19  23365135.853   121668504.194       -3577.053          29.000  
C22  22187021.045   115533623.502       -1046.589          28.000  
C36  23202808.130   120823139.025       -2028.568          30.000  
G26  20105329.370   105654269.255        -714.450          32.000  
G29  23784545.802   124988656.310       -1489.159          22.000  
G32  21241412.676   111624422.0911      -2232.196          28.000  
J01  36201189.138   190238555.0071       -175.126          24.000  
J03  37262795.603   195817302.674        -602.178          26.000  
R04  20747386.483   111101311.670       -4020.202          30.000  
R05  19177367.984   102514021.806        -249.456          28.000  
> 2021  9 30 12  8  4.9987108  0 10
C04  38366943.218   199786752.8561       -686.556          29.000  
C06  36264052.019   188836363.964         -98.506          27.000  
C16  36623772.090   190709658.280         -70.101          27.000  
C19  23365668.584   121671300.410       -3576.583          27.000  
C22  22187069.911   115533888.940       -1045.556          28.000  
C36  23203046.465   120824386.820       -2028.429          30.000  
G26  20105313.481   105654195.818        -714.677          27.000  
G32  21241686.686   111625867.364       -2233.445          32.000  
J01  36201072.519   190237942.287        -174.360          24.000  
R05  19177265.455   102513473.781        -250.003          30.000  
> 2021  9 30 12  8  5.9987103  0  9
C04  38366923.432   199786658.276        -685.527          31.000  
C06  36263918.911   188835681.839         -99.662          24.000  
C16  36623633.286   190708947.949         -70.647          22.000  
C19  23366204.613   121674096.062       -3576.189          30.000  
C22  22187120.276   115534153.147       -1044.160          26.000  
C36  23203285.400   120825634.871       -2028.028          28.000  
G31  21541321.154   113200444.7041      -1415.283          30.000  
J03  37262731.448   195816935.7691       -604.593          17.000  
R05  19177161.427   102512917.448        -249.871          29.000  
> 2021  9 30 12  8  6.9987100  0 11
C06  36263848.160   188835312.466         -98.360          22.000  
C19  23366800.601   121677204.334       -3576.988          30.000  
C22  22187232.099   115534729.429       -1045.447          27.000  
C36  23203584.293   120827194.225       -2028.056          28.000  
G29  23784990.394   124991079.9741      -1491.331          23.000  
G31  21541500.729   113201386.619       -1414.227          27.000  
G32  21242297.963   111629074.8911      -2233.954          31.000  
J01  36200903.436   190237028.6721       -173.149          25.000  
J03  37262756.031   195817069.112        -607.196          19.000  
R04  20749232.006   111111194.2861      -4017.737          22.000  
R05  19177118.557   102512688.310        -251.159          28.000  
> 2021  9 30 12  8  7.9987095  0 10
C04  38366944.417   199786779.6231       -684.882          31.000  
C06  36263716.252   188834630.789         -98.952          24.000  
C19  23367336.929   121680000.109       -3576.451          31.000  
C22  22187281.565   115534995.406       -1048.260          20.000  
C36  23203824.726   120828441.516       -2028.497          27.000  
G26  20105330.569   105654293.7591       -715.891          29.000  
G31  21541619.447   113202011.993       -1412.529          33.000  
J03  37262721.255   195816888.622        -607.612          20.000  
R04  20749837.886   111114439.042       -4020.083          21.000  
R05  19177017.527   102512148.997        -251.442          29.000  
> 2021  9 30 12  8  8.9987090  0  9
C04  38366927.029   199786683.840        -684.756          32.000  
C16  36623286.127   190707134.6781        -72.228          23.000  
C19  23367875.656   121682796.026       -3576.737          24.000  
C22  22187333.429   115535263.675       -1049.291          27.000  
C36  23204064.261   120829689.753       -2029.356          31.000  
G26  20105317.678   105654221.996        -716.083          26.000  
G29  23785251.513   124992487.6211      -1491.989          26.000  
J01  36200670.797   190235801.1491       -174.280          25.000  
R05  19176916.797   102511610.126        -252.476          29.000  
> 2021  9 30 12  8  9.9987085  0 11
C06  36263450.636   188833267.1711        -98.186          27.000  
C16  36623147.622   190706424.892         -69.466          25.000  
C19  23368412.285   121685591.878       -3576.294          25.000  
C22  22187385.593   115535532.604       -1048.845          27.000  
C36  23204305.294   120830938.714       -2029.296          31.000  
G26  20105305.387   105654150.804        -717.002          26.000  
G29  23785380.124   124993192.087       -1492.362          26.000  
G31  21541858.382   113203263.0371      -1414.105          35.000  
G32  21243134.384   111633415.5561      -2235.910          37.000  
J01  36200555.677   190235186.740        -172.322          24.000  
R05  19176814.867   102511065.394        -252.911          32.000  
> 2021  9 30 12  8 10.9987082  0 12
C06  36263378.985   188832897.268         -99.135          23.000  
C16  36623071.475   190706026.118         -70.212          20.000  
C19  23369010.071   121688699.759       -3576.720          26.000  
C22  22187494.417   115536112.282       -1048.538          27.000  
C36  23204603.587   120832499.049       -2028.504          30.000  
G26  20105352.154   105654395.573        -717.693          27.000  
G29  23785567.494   124994211.761       -1492.163          27.000  
G31  21542038.557                       -1416.775          31.000  
G32  21243456.661                       -2236.569          36.000  
J01  36200497.817   190234887.208        -173.647          26.000  
R04  20751716.685   111124500.4411      -4023.100          32.000  
R05  19176777.693   102510866.643        -253.535          28.000  
> 2021  9 30 12  8 11.9987077  0 10
C04  38366933.325   199786712.6811       -687.228          21.000  
C06  36263249.175   188832215.883         -99.298          26.000  
C19  23369544.301   121691495.438       -3575.064          19.000  
C22  22187545.382   115536380.214       -1048.724          30.000  
C36  23204843.421   120833746.897       -2028.501          32.000  
G26  20105339.263   105654325.836        -717.760          29.000  
G29  23785697.604   124994916.245       -1492.357          25.000  
G31  21542159.074                       -1413.049          34.000  
R04  20752323.465   111127749.777       -4023.338          24.000  
R05  19176673.665   102510310.903        -254.341          28.000  
> 2021  9 30 12  8 12.9987072  0  9
C04  38366916.237   199786619.119        -686.878          32.000  
C06  36263116.667   188831534.930        -101.275          22.000  
C16  36622795.666   190704603.5851        -68.914          26.000  
C22  22187597.546   115536649.184       -1049.656          27.000  
C36  23205082.955   120834994.786       -2028.539          32.000  
G26  20105326.672   105654255.998        -718.389          31.000  
G31  21542276.892   113205427.6461      -1413.605          35.000  
R04  20752926.048   111130975.780       -4024.048          27.000  
R05  19176569.637   102509754.848        -254.269          26.000  
> 2021  9 30 12  8 13.9987069  0  9
C04  38366957.608   199786837.171        -684.671          33.000  
C06  36263045.916   188831166.603         -99.236          21.000  
C16  36622718.919   190704202.657         -67.664          20.000  
C22  22187708.469   115537229.959       -1048.996          28.000  
C36  23205385.146                       -2028.803          32.000  
G26  20105374.339   105654501.883        -719.057          27.000  
G29  23786019.581   124996375.7481      -1494.501          23.000  
G31  21542455.269   113206368.799       -1412.517          35.000  
R04  20753592.187   111134543.072       -4024.192          33.000  
> 2021  9 30 12  8 14.9987064  0 11
C06  36262914.007   188830486.138         -99.682          24.000  
C16  36622582.813   190703490.356         -68.715          23.000  
C22  22187762.731   115537498.181       -1049.012          29.000  
C36  23205625.280   120837778.1761      -2028.328          34.000  
G26  20105359.349   105654433.502        -719.863          29.000  
G29  23786156.287   124997082.231       -1492.894          22.000  
G31  21542573.387   113206994.593       -1414.657          35.000  
G32  21244621.355   111641228.4431      -2237.900          36.000  
J01  36200092.198   190232744.6981       -177.183          19.000  
R04  20754196.868   111137781.621       -4024.815          31.000  
R05  19176420.640   102508957.8731       -256.461          20.000  
> 2021  9 30 12  8 15.9987059  0 10
C06  36262782.698   188829804.673         -99.511          24.000  
C16  36622448.506   190702778.343         -69.592          24.000  
C22  22187814.895   115537767.093       -1050.422          30.000  
C36  23205863.615   120839026.315       -2027.496          33.000  
G26  20105344.660   105654365.885        -720.495          29.000  
G29  23786290.893   124997788.299       -1494.959          17.000  
G31  21542693.604   113207620.290       -1412.259          35.000  
G32  21244902.560   111642678.641       -2237.773          36.000  
R04  20754799.152   111141006.842       -4025.496          32.000  
R05  19176317.811   102508408.503        -256.939          21.000  
> 2021  9 30 12  8 16.9987054  0 10
C06  36262650.489   188829123.273         -99.479          24.000  
C16  36622313.300   190702068.235         -71.350          24.000  
C22  22187868.258   115538037.712       -1052.632          28.000  
C36  23206101.650   120840274.855       -2028.462          33.000  
G26  20105332.068   105654299.000        -721.177          28.000  
G31  21542815.919   113208246.414       -1410.429          34.000  
G32  21245175.971   111644128.946       -2238.566          30.000  
J01  36199859.559   190231522.9971       -175.601          21.000  
R04  20755406.531   111144258.662       -4025.887          33.000  
R05  19176212.284   102507844.447        -258.169          25.000  
> 2021  9 30 12  8 17.9987052  0  9
C22  22188010.360   115538778.275       -1052.590          32.000  
C36  23206430.822   120841990.275       -2028.515          31.000  
G26  20105411.813   105654705.437        -721.827          28.000  
G29  23786649.445   124999674.5361      -1497.679          23.000  
G31  21543019.478                       -1413.960          29.000  
G32  21245542.317   111646052.971       -2240.166          33.000  
J01  36199830.779   190231382.417        -174.050          26.000  
R04  20756098.152   111147963.079       -4028.033          30.000  
R05  19176197.894   102507767.013        -259.527          26.000  
> 2021  9 30 12  8 18.9987046  0 10
C06  36262451.727   188828070.7181        -97.099          20.000  
C16  36622104.045   190700960.6871        -70.393          21.000  
C19  23373439.804   121711686.1071      -3578.852          26.000  
C22  22188033.744   115538894.846       -1054.185          27.000  
C36  23206640.677   120843081.518       -2027.775          29.000  
G26  20105369.243   105654481.857        -721.825          28.000  
G31  21543107.917   113209809.4541      -1412.214          29.000  
J01  36199682.082   190230612.672        -176.200          22.000  
R04  20756671.355   111151032.190       -4028.899          26.000  
R05  19176059.990   102507029.988        -261.855          27.000  
> 2021  9 30 12  8 19.9987041  0  9
C16  36621965.841   190700249.558         -69.635          24.000  
C19  23373977.932   121714483.908       -3578.824          28.000  
C22  22188086.507   115539167.875       -1053.955          26.000  
C36  23206880.811   120844328.901       -2028.038          29.000  
G26  20105358.750   105654415.998        -722.074          27.000  
G32  21246066.954   111648799.4481      -2239.292          31.000  
J01  36199566.062   190230000.907        -175.110          25.000  
R04  20757276.037   111154270.073       -4029.965          26.000  
R05  19175956.562   102506477.075        -262.606          27.000  
> 2021  9 30 12  8 20.9987036  0 11
C06  36262191.507   188826699.9011        -96.935          19.000  
C16  36621829.135   190699537.164         -68.664          27.000  
C19  23374515.460   121717283.633       -3581.367          29.000  
C22  22188138.072   115539441.712       -1054.946          27.000  
C36  23207121.844   120845577.838       -2029.148          25.000  
G26  20105347.657   105654350.450        -723.184          29.000  
G29  23787025.685   125001648.4191      -1499.443          20.000  
G31  21543346.252   113211056.2101      -1410.028          30.000  
G32  21246342.163   111650251.309       -2238.112          32.000  
R04  20757885.215   111157532.084       -4026.956          27.000  
R05  19175855.232   102505935.032        -263.918          26.000  
> 2021  9 30 12  8 21.9987034  0 10
C16  36621780.869   190699292.781         -67.429          27.000  
C22  22188280.773   115540184.496       -1055.628          26.000  
C36  23207452.215   120847293.566       -2027.250          28.000  
G26  20105428.601   105654758.757        -724.099          29.000  
G29  23787249.930   125002835.689       -1503.149          18.000  
G31  21543554.607   113212150.788       -1409.084          32.000  
G32  21246707.011   111652174.896       -2239.461          30.000  
J01  36199418.564   190229243.9841       -172.778          27.000  
R04  20758575.637   111161229.857       -4031.255          26.000  
R05  19175845.039   102505880.811        -264.635          26.000  
> 2021  9 30 12  8 22.9987028  0 10
C06  36261992.745   188825643.2991        -94.700          21.000  
C16  36621612.385   190698423.603         -66.929          26.000  
C22  22188305.356   115540304.104       -1056.048          28.000  
C36  23207660.271   120848383.859       -2026.862          28.000  
G26  20105388.429   105654537.840        -725.234          29.000  
G31  21543642.447   113212614.707       -1409.915          31.000  
G32  21246952.541   111653470.678       -2242.347          32.000  
J01  36199267.768   190228472.671        -175.012          26.000  
R04  20759150.039   111164304.872       -4031.340          24.000  
R05  19175712.530   102505172.304        -264.413          25.000  
> 2021  9 30 12  8 23.9987023  0 10
C06  36261860.836   188824957.233         -95.153          23.000  
C16  36621475.080   190697710.653         -67.997          26.000  
C22  22188359.019   115540579.784       -1055.550          26.000  
C36  23207898.906   120849630.134       -2027.075          27.000  
G26  20105378.236   105654475.316        -725.075          29.000  
G29  23787482.568   125004109.1571      -1502.427          19.000  
G31  21543760.265   113213236.512       -1409.760          29.000  
J01  36199147.252   190227860.751        -176.735          28.000  
R04  20759751.723   111167527.569       -4030.991          26.000  
R05  19175610.301   102504625.857        -264.949          25.000  
> 2021  9 30 12  8 24.9987018  0 11
C06  36261729.227   188824272.283         -95.862          24.000  
C16  36621337.476   190696997.677         -67.470          27.000  
C22  22188412.082   115540855.105       -1056.332          28.000  
C36  23208140.239   120850876.957       -2027.232          27.000  
G26  20105368.043   105654412.688        -724.814          28.000  
G29  23787612.379   125004822.850       -1500.358          20.000  
G31  21543878.084   113213858.556       -1409.946          31.000  
G32  21247506.557   111656380.4861      -2243.888          34.000  
J01  36199029.134   190227249.779        -177.746          27.000  
R04  20760353.107   111170747.824       -4030.847          28.000  
R05  19175515.267   102504117.868        -265.377          24.000  
> 2021  9 30 12  8 25.9987016  0 10
C06  36261687.556   188824056.589         -97.075          27.000  
C16  36621290.108   190696752.943         -66.883          28.000  
C22  22188555.383   115541600.237       -1057.476          29.000  
C36  23208468.212   120852590.936       -2025.608          29.000  
G26  20105445.390   105654822.813        -725.541          30.000  
G31  21544085.840   113214953.802       -1410.676          32.000  
G32  21247873.803   111658308.746       -2243.156          31.000  
J01  36199000.354   190227112.268        -177.894          30.000  
R04  20761041.730   111174435.640       -4030.502          27.000  
R05  19175510.770   102504094.443        -266.410          26.000  
> 2021  9 30 12  8 26.9987011  0  9
C06  36261555.048   188823372.559         -95.967          25.000  
C16  36621153.403   190696039.570         -67.428          27.000  
C22  22188608.446   115541876.971       -1057.489          30.000  
C36  23208706.547   120853835.963       -2025.517          31.000  
G26  20105433.098   105654761.278        -726.672          30.000  
G32  21248150.212   111659765.803       -2243.598          26.000  
J01  36198882.835   190226502.144        -177.237          30.000  
R04  20761641.914   111177649.103       -4032.036          30.000  
R05  19175408.841   102503549.055        -266.276          25.000  
> 2021  9 30 12  8 27.9987005  0  8
C06  36261392.560   188822530.988         -95.376          25.000  
C16  36620986.419   190695170.749         -67.966          24.000  
C22  22188630.331   115541998.755       -1059.015          28.000  
C36  23208916.402   120854925.145       -2027.412          31.000  
G26  20105391.427   105654542.345        -725.738          29.000  
G31  21544299.892   113216042.1421      -1410.151          31.000  
J01  36198734.737   190225733.684        -176.035          32.000  
R05  19175277.532   102502846.942        -266.419          26.000  
> 2021  9 30 12  8 28.9987000  0  9
C06  36261261.551   188821846.314         -97.042          28.000  
C16  36620848.814   190694457.926         -67.621          26.000  
C22  22188683.094   115542277.263       -1059.839          29.000  
C36  23209154.737   120856171.767       -2026.931          29.000  
G26  20105377.936   105654480.686        -727.065          30.000  
G29  23788220.058   125007982.5071      -1499.620          23.000  
G31  21544417.410   113216665.248       -1410.936          30.000  
J01  36198617.519   190225121.674        -175.919          29.000  
R05  19175174.403   102502296.444        -267.591          24.000  
> 2021  9 30 12  8 29.9986998  0  6
C06  36261219.280   188821630.851         -97.079          23.000  
C22  22188826.395   115543025.104       -1060.394          30.000  
C36  23209483.309   120857886.565       -2026.470          33.000  
G26  20105456.782   105654892.950        -727.484          33.000  
G31  21544625.166   113217761.037       -1410.441          27.000  
R05  19175164.810   102502244.649        -269.613          26.000  
> 2021  9 30 12  8 30.9986993  0  8
C06  36261088.871   188820947.645         -98.171          20.000  
C22  22188879.159   115543304.975       -1060.490          32.000  
C36  23209723.743   120859132.134       -2026.202          26.000  
G26  20105444.790   105654832.742        -727.789          27.000  
G29  23788577.411   125009881.3281      -1501.311          23.000  
G31  21544746.882   113218384.933       -1413.100          24.000  
G32  21249332.593   111665907.2171      -2244.195          30.000  
R05  19175069.476   102501735.191        -271.856          26.000  
> 2021  9 30 12  8 31.9986988  0  7
C06  36260959.360   188820265.245         -98.185          18.000  
C16  36620530.434   190692791.5531        -69.275          17.000  
C22  22188933.121   115543585.349       -1061.142          28.000  
C36  23209961.178   120860378.211       -2025.594          26.000  
G26  20105436.696   105654773.915        -729.203          23.000  
G31  21544866.499   113219010.606       -1413.559          24.000  
R05  19174974.142   102501225.840        -274.395          20.000  
> 2021  9 30 12  8 32.9986985  0  8
C06  36260888.609   188819892.629         -94.395          20.000  
C22  22189047.342   115544177.648       -1060.273          29.000  
C36  23210260.071   120861935.678       -2025.978          25.000  
G26  20105486.162   105655030.222        -728.266          23.000  
G29  23788914.677   125011622.0681      -1499.592          25.000  
G31  21545044.576   113219950.580       -1411.799          25.000  
G32  21249954.363   111669135.7941      -2244.886          26.000  
R05  19174940.565   102501045.926        -274.390          20.000  
> 2021  9 30 12  8 33.9986980  0  7
C22  22189101.605   115544457.191       -1058.886          28.000  
C36  23210499.605   120863181.191       -2026.750          23.000  
G26  20105470.872   105654970.761        -727.428          22.000  
G29  23789051.682   125012335.235       -1501.183          24.000  
G31  21545162.095   113220575.295       -1412.761          22.000  
G32  21250235.868   111670593.790       -2246.382          29.000  
R05  19174839.235   102500504.394        -277.254          21.000  
> 2021  9 30 12  8 34.9986975  0  8
C22  22189157.066   115544736.702       -1059.804          24.000  
C36  23210740.639   120864427.730       -2027.005          26.000  
G26  20105457.681   105654911.097        -728.423          27.000  
G29  23789186.889   125013049.011       -1501.949          27.000  
G31  21545279.014   113221199.996       -1412.120          27.000  
G32  21250512.576   111672052.851       -2246.923          27.000  
J01  36198085.987   190222233.8651       -172.246          23.000  
R05  19174740.903   102499979.205        -273.728          23.000  
> 2021  9 30 12  8 35.9986970  0  8
C22  22189211.628   115545015.317       -1059.607          20.000  
C36  23210982.871   120865675.014       -2028.607          23.000  
G26  20105445.989   105654852.247        -730.211          30.000  
G29  23789322.395   125013764.568       -1504.974          28.000  
G31  21545396.832   113221824.352       -1412.999          31.000  
G32  21250788.985   111673512.091       -2247.020          31.000  
J01  36197969.667   190221617.821        -172.464          20.000  
R05  19174656.062   102499524.949        -273.283          15.000  
> 2021  9 30 12  8 36.9986964  0  7
C22  22189237.111   115545138.688       -1060.101          23.000  
C36  23211192.726   120866766.092       -2027.490          23.000  
G26  20105406.117   105654637.498        -731.107          22.000  
G31  21545484.671   113222291.208       -1410.908          28.000  
G32  21251035.714   111674813.888       -2247.740          31.000  
J01  36197824.568   190220845.569        -174.660          26.000  
R05  19174530.449   102498854.104        -274.246          17.000  
> 2021  9 30 12  8 37.9986962  0  7
C22  22189381.011   115545886.677       -1060.238          25.000  
C36  23211519.799   120868481.060       -2026.176          24.000  
G26  20105485.562   105655053.137        -729.698          23.000  
G31  21545693.327   113223386.364       -1408.381          24.000  
G32  21251399.962   111676746.796       -2248.480          25.000  
J01  36197797.286   190220705.740        -176.668          22.000  
R05  19174520.855   102498802.929        -275.581          19.000  
> 2021  9 30 12  8 38.9986957  0  6
C22  22189434.974   115546167.989       -1062.499          27.000  
C36  23211759.034   120869725.419       -2024.475          22.000  
G26  20105474.470   105654995.248        -729.509          24.000  
G31  21545814.143   113224007.207       -1407.826          23.000  
G32  21251680.268   111678207.726       -2250.015          26.000  
R05  19174418.326   102498254.866        -278.056          24.000  
> 2021  9 30 12  8 39.9986954  0  5
C22  22189548.895   115546762.346       -1064.566          23.000  
C36  23212058.526   120871280.564       -2025.619          25.000  
G26  20105521.537   105655252.473        -731.734          23.000  
G31  21545988.922   113224941.915       -1408.157          22.000  
G32  21252023.830   111679984.524       -2250.255          21.000  
> 2021  9 30 12  8 40.9986949  0  7
C22  22189604.057   115547046.073       -1063.568          22.000  
C36  23212295.962   120872525.304       -2025.179          24.000  
G26  20105511.644   105655196.742        -732.113          28.000  
G29  23790135.132   125017986.9431      -1505.485          19.000  
G31  21546105.542   113225562.011       -1409.063          25.000  
G32  21252297.241   111681446.774       -2250.005          26.000  
J01  36197510.085   190219194.7521       -180.638          21.000  
> 2021  9 30 12  8 41.9986944  0  6
C22  22189659.518   115547328.972       -1063.263          25.000  
C36  23212531.899   120873769.827       -2025.653          23.000  
G26  20105501.451   105655141.741        -733.202          27.000  
G29  23790271.838   125018703.904       -1504.882          21.000  
G31  21546223.060   113226183.408       -1408.721          29.000  
G32  21252573.649   111682909.084       -2249.535          23.000  
> 2021  9 30 12  8 42.9986939  0  7
C22  22189713.181   115547613.902       -1067.089          25.000  
C36  23212769.634   120875014.112       -2024.626          25.000  
G26  20105490.359   105655087.409        -733.292          29.000  
G29  23790410.042   125019420.833       -1505.122          19.000  
G31  21546342.378   113226805.025       -1409.381          29.000  
G32  21252850.957   111684371.228       -2251.351          23.000  
J01  36197276.847   190217979.2671       -177.776          19.000  
> 2021  9 30 12  8 43.9986934  0  5
C22  22189766.244   115547900.678       -1067.106          29.000  
C36  23213007.669   120876257.801       -2024.319          27.000  
G26  20105481.365   105655033.661        -733.908          25.000  
G29  23790546.747   125020138.281       -1505.166          22.000  
G31  21546462.295   113227426.504       -1409.522          27.000  
> 2021  9 30 12  8 44.9986929  0  6
C22  22189821.107   115548187.809       -1067.635          30.000  
C36  23213245.704   120877501.196       -2023.875          30.000  
G26  20105470.872   105654980.496        -735.754          24.000  
G29  23790684.952   125020856.750       -1506.943          25.000  
G31  21546581.612   113228048.342       -1410.021          31.000  
G32  21253412.469   111687298.4171      -2252.096          23.000  
> 2021  9 30 12  8 45.9986926  0  5
C22  22189935.327   115548786.377       -1067.137          33.000  
G26  20105521.237   105655243.414        -735.177          28.000  
G31  21546760.888   113228985.872       -1410.956          28.000  
G32  21253750.934   111689077.766       -2251.914          28.000  
J01  36196993.543   190216467.3161       -179.094          24.000  
> 2021  9 30 12  8 46.9986921  0  6
C22  22189989.290   115549073.140       -1067.658          29.000  
G26  20105512.543   105655191.417        -735.624          30.000  
G29  23791032.411   125022616.5941      -1513.285          18.000  
G31  21546879.606   113229610.632       -1414.612          28.000  
G32  21254026.743   111690542.535       -2253.827          28.000  
J01  36196876.324   190215858.274        -178.624          26.000  
> 2021  9 30 12  8 47.9986918  0  5
C22  22190104.410   115549673.076       -1068.669          26.000  
G26  20105563.508   105655454.504        -736.763          28.000  
G31  21547057.682   113230552.856       -1415.138          29.000  
G32  21254363.410   111692323.969       -2254.697          28.000  
J01  36196820.862   190215564.363        -178.501          26.000  
> 2021  9 30 12  8 48.9986913  0  5
C22  22190159.272   115549961.351       -1069.162          29.000  
G26  20105555.114   105655404.152        -737.726          31.000  
G31  21547175.501   113231178.904       -1413.093          30.000  
G32  21254643.117   111693791.013       -2254.530          25.000  
J01  36196705.742   190214953.998        -176.444          20.000  
> 2021  9 30 12  8 49.9986908  0  5
C22  22190214.434   115550249.726       -1069.656          28.000  
G29  23791507.882   125025112.9021      -1513.950          18.000  
G31  21547293.019   113231805.061       -1414.107          28.000  
G32  21254920.425   111695259.017       -2256.351          25.000  
J01  36196588.223   190214343.210        -176.617          23.000  
> 2021  9 30 12  8 50.9986903  0  5
C22  22190269.896   115550538.821       -1069.320          30.000  
G26  20105536.227   105655304.0041       -737.547          28.000  
G29  23791646.086   125025839.533       -1514.906          18.000  
G31  21547410.838   113232431.590       -1415.104          29.000  
G32  21255200.731   111696726.207       -2253.779          24.000  
> 2021  9 30 12  8 51.9986898  0  4
C22  22190324.758   115550827.707       -1070.046          30.000  
G26  20105526.334   105655254.279        -739.003          26.000  
G31  21547530.755   113233058.964       -1414.010          26.000  
G32  21255479.538   111698191.656       -2253.720          25.000  
> 2021  9 30 12  8 52.9986895  0  3
C22  22190439.878   115551428.790       -1069.414          30.000  
G26  20105574.600   105655520.646        -739.470          26.000  
G31  21547710.630   113233999.682       -1412.435          27.000  
> 2021  9 30 12  8 53.9986890  0  4
C22  22190495.040   115551719.379       -1071.568          27.000  
G26  20105564.707   105655472.429        -739.763          28.000  
G31  21547829.048   113234623.562       -1412.154          26.000  
G32  21256101.607   111701438.7661      -2256.510          21.000  
> 2021  9 30 12  8 54.9986888  0  3
C22  22190640.739   115552478.573       -1071.813          28.000  
G26  20105644.752   105655896.709        -740.060          26.000  
G31  21548039.203   113235719.985       -1410.864          28.000  
> 2021  9 30 12  8 55.9986883  0  4
C22  22190696.201   115552769.566       -1071.077          31.000  
G26  20105636.657   105655849.179        -740.718          29.000  
G31  21548156.422   113236343.101       -1411.565          26.000  
J01  36196047.698   190211458.4551       -177.726          18.000  
> 2021  9 30 12  8 56.9986877  0  5
C22  22190722.582   115552904.159       -1071.250          29.000  
G26  20105597.085   105655644.730        -740.327          28.000  
G29  23792579.040   125030840.9951      -1514.485          15.000  
G31  21548244.261   113236810.188       -1412.743          24.000  
G32  21257003.982   111706167.3951      -2263.125          21.000  
> 2021  9 30 12  8 57.9986872  0  3
C22  22190777.444   115553195.438       -1073.097          27.000  
G26  20105587.791   105655598.077        -741.597          28.000  
G31  21548362.979   113237434.591       -1411.755          27.000  
> 2021  9 30 12  8 58.9986867  0  4
C22  22190834.105   115553488.481       -1074.432          31.000  
G26  20105579.697   105655551.421        -741.171          29.000  
G29  23792852.151   125032297.6771      -1513.268          17.000  
G31  21548482.896   113238057.969       -1411.103          30.000  
> 2021  9 30 12  8 59.9986862  0  3
C22  22190892.565   115553782.411       -1074.677          29.000  
G26  20105570.703   105655505.937        -743.580          29.000  
G31  21548602.213   113238681.786       -1411.104          29.000  
> 2021  9 30 12  9  0.9986860  0  4
C22  22191040.063   115554544.871       -1074.951          30.000  
G26  20105651.047   105655934.194        -743.205          29.000  
G29  23793213.101   125034218.8681      -1511.782          18.000  
G31  21548809.969   113239777.477       -1410.417          30.000  
> 2021  9 30 12  9  1.9986857  0  3
C22  22191158.481   115555151.463       -1074.960          27.000  
G26  20105702.912   105656205.020        -744.047          29.000  
G31  21548987.746   113240714.968       -1409.930          28.000  
> 2021  9 30 12  9  2.9986852  0  4
C22  22191215.741   115555445.653       -1074.537          26.000  
G26  20105695.417   105656160.867        -743.614          30.000  
G31  21549109.462   113241337.379       -1410.553          26.000  
G32  21258835.115   111715791.6131      -2261.109          20.000  
> 2021  9 30 12  9  3.9986847  0  8
C07  36276082.990   188899257.7851       -215.482          28.000  
C19  23398452.688   121841898.3571      -3590.209          23.000  
C22  22191272.102   115555740.443       -1075.024          24.000  
C36  23218173.993   120903190.4611      -2023.612          32.000  
G26  20105688.821   105656116.962        -745.359          26.000  
G29  23793692.469   125036720.7201      -1521.586          18.000  
G31  21549226.681   113241960.543       -1410.448          28.000  
J01  36195249.050   190207203.2141       -181.194          18.000  
> 2021  9 30 12  9  4.9986842  0  7
C07  36275970.868   188898691.907        -214.109          23.000  
C19  23398994.413   121844707.962       -3587.867          21.000  
C22  22191329.063   115556036.030       -1078.123          24.000  
C36  23218412.028   120904433.708       -2024.653          28.000  
G26  20105681.926   105656075.159        -746.840          27.000  
G31  21549344.499   113242583.477       -1411.044          28.000  
G32  21259394.527   111718736.8651      -2259.143          20.000  
> 2021  9 30 12  9  5.9986836  0  9
C07  36275831.165   188897969.973        -215.788          28.000  
C19  23399503.161   121847358.765       -3588.110          27.000  
C22  22191356.943   115556176.923       -1077.548          28.000  
C36  23218621.283   120905521.976       -2025.373          28.000  
G26  20105644.752   105655876.289        -745.557          30.000  
G29  23793946.094   125038026.7961      -1519.363          18.000  
G31  21549433.538   113243049.604       -1411.780          26.000  
G32  21259641.556   111720050.468       -2259.297          19.000  
J01  36194995.426   190205832.6981       -181.431          18.000  
> 2021  9 30 12  9  6.9986831  0  7
C07  36275724.139   188897405.615        -216.550          28.000  
C19  23400041.888   121850167.168       -3589.540          29.000  
C22  22191413.604   115556474.333       -1078.452          31.000  
C36  23218860.817   120906766.850       -2025.650          27.000  
G26  20105638.756   105655835.207        -747.518          27.000  
G31  21549550.756   113243673.126       -1410.850          28.000  
J01  36194879.107   190205224.158        -177.646          19.000  
> 2021  9 30 12  9  7.9986826  0  6
C07  36275616.213   188896841.860        -216.886          28.000  
C19  23400580.315   121852973.482       -3586.450          22.000  
C22  22191469.965   115556773.150       -1080.337          30.000  
C36  23219099.152   120908011.050       -2023.608          27.000  
G26  20105631.261   105655794.950        -747.047          29.000  
G31  21549667.076   113244295.665       -1412.084          26.000  
> 2021  9 30 12  9  8.9986826  0  8
C07  36275657.885   188897058.328        -215.844          28.000  
C19  23401271.337   121856562.121       -3589.405          27.000  
C22  22191676.822   115557852.928       -1079.487          30.000  
C36  23219488.283   120910035.272       -2026.424          28.000  
G26  20105773.663   105656541.931        -747.071          31.000  
G29  23794513.601   125041018.8031      -1525.050          19.000  
G31  21549934.491   113245708.198       -1414.031          25.000  
G32  21260632.670   111725262.1241      -2264.492          19.000  
> 2021  9 30 12  9  9.9986821  0  8
C07  36275549.959   188896493.777        -216.023          29.000  
C19  23401811.863   121859371.241       -3591.113          25.000  
C22  22191733.483   115558150.974       -1077.817          27.000  
C36  23219728.417   120911280.099       -2024.622          26.000  
G26  20105766.168   105656502.309        -748.670          31.000  
G29  23794654.803   125041756.352       -1524.046          19.000  
G31  21550050.810   113246334.325       -1412.911          26.000  
G32  21260921.670   111726740.062       -2266.285          20.000  
> 2021  9 30 12  9 10.9986816  0  7
C07  36275440.835   188895929.286        -216.328          28.000  
C19  23402352.089   121862182.067       -3591.803          28.000  
C22  22191790.443   115558448.299       -1078.685          30.000  
C36  23219967.051   120912524.129       -2023.752          30.000  
G26  20105758.973   105656463.208        -748.372          31.000  
G32  21261217.565   111728218.587       -2268.127          24.000  
J01  36194560.127   190203577.7541       -180.713          22.000  
> 2021  9 30 12  9 11.9986811  0  6
C07  36275332.910   188895364.934        -217.246          28.000  
C19  23402892.914   121864993.396       -3593.492          26.000  
C22  22191848.303   115558747.251       -1080.986          32.000  
C36  23220205.386   120913767.530       -2024.525          30.000  
G26  20105750.579   105656424.053        -749.923          30.000  
J01  36194445.607   190202972.032        -181.665          23.000  
> 2021  9 30 12  9 12.9986806  0  7
C07  36275225.584   188894801.830        -217.648          26.000  
C19  23403432.841   121867806.335       -3593.881          26.000  
C22  22191907.962   115559047.884       -1081.591          27.000  
C36  23220445.220   120915012.142       -2025.707          26.000  
G26  20105742.484   105656386.340        -750.281          31.000  
G31  21550409.962   113248210.9421      -1413.644          29.000  
J01  36194330.486   190202364.957        -180.785          25.000  
> 2021  9 30 12  9 13.9986801  0  8
C07  36275118.558   188894238.708        -217.377          27.000  
C19  23403969.469   121870619.156       -3594.077          27.000  
C22  22191967.920   115559350.014       -1082.975          27.000  
C36  23220684.455   120916257.393       -2025.991          26.000  
G26  20105734.390   105656349.085        -751.191          29.000  
G29  23795220.811   125044701.5741      -1525.925          19.000  
G31  21550529.279   113248836.751       -1413.914          27.000  
J01  36194211.769   190201758.022        -180.012          20.000  
> 2021  9 30 12  9 14.9986796  0  7
C07  36275010.333   188893676.405        -219.137          28.000  
C19  23404509.395   121873432.637       -3593.433          31.000  
C22  22192026.080   115559652.558       -1083.154          32.000  
C36  23220924.289   120917502.940       -2026.039          27.000  
G26  20105726.295   105656312.988        -751.854          28.000  
G31  21550647.097   113249462.274       -1412.820          28.000  
J01  36194093.950   190201149.628        -180.240          20.000  
> 2021  9 30 12  9 15.9986790  0  8
C07  36274872.428   188892958.450        -218.507          26.000  
C19  23405019.642   121876090.021       -3595.219          27.000  
C22  22192054.261   115559799.639       -1084.099          33.000  
C36  23221138.041   120918593.441       -2027.327          26.000  
G26  20105688.821   105656119.519        -752.219          28.000  
G31  21550734.937   113249930.396       -1413.991          26.000  
G32  21262609.202   111735765.2081      -2266.890          20.000  
J01  36193946.752   190200384.239        -180.821          22.000  
> 2021  9 30 12  9 16.9986790  0  7
C07  36274914.699   188893177.395        -219.016          27.000  
C19  23405708.265   121879683.528       -3593.564          21.000  
C22  22192260.518   115560882.932       -1082.016          29.000  
C36  23221526.272   120920620.403       -2027.137          26.000  
G26  20105830.623   105656871.612        -752.778          29.000  
G29  23795749.645   125047551.2261      -1527.897          19.000  
G31  21551002.352   113251345.034       -1413.835          27.000  
> 2021  9 30 12  9 17.9986785  0  6
C07  36274807.373   188892616.011        -219.077          25.000  
C22  22192316.579   115561185.290       -1084.144          31.000  
C36  23221766.106   120921867.699       -2026.831          26.000  
G26  20105822.229   105656836.662        -753.484          30.000  
G31  21551122.269   113251970.436       -1412.561          26.000  
G32  21263329.004   111739515.7051      -2269.961          19.000  
> 2021  9 30 12  9 18.9986780  0  7
C07  36274699.448   188892054.532        -219.094          27.000  
C22  22192373.839   115561489.592       -1085.510          30.000  
C36  23222005.040   120923113.420       -2025.384          23.000  
G26  20105815.334   105656802.178        -753.776          32.000  
G31  21551242.185   113252594.280       -1410.430          24.000  
G32  21263612.308   111740998.745       -2271.844          19.000  
J01  36193753.686   190199355.8001       -182.357          19.000  
> 2021  9 30 12  9 19.9986775  0  8
C07  36274593.322   188891492.032        -217.987          26.000  
C22  22192431.999   115561795.154       -1085.722          29.000  
C36  23222243.375   120924357.939       -2025.658          27.000  
G26  20105809.038   105656768.969        -754.927          30.000  
G29  23796163.359   125049769.6311      -1528.335          18.000  
G31  21551362.402   113253216.973       -1409.546          24.000  
G32  21263902.207   111742482.535       -2272.074          19.000  
J01  36193637.666   190198749.929        -181.551          19.000  
> 2021  9 30 12  9 20.9986770  0  8
C07  36274486.595   188890930.264        -220.187          26.000  
C19  23407869.169   121890934.9861      -3595.650          20.000  
C22  22192490.459   115562100.611       -1086.149          30.000  
C36  23222481.710   120925602.691       -2025.815          28.000  
G26  20105803.042   105656736.690        -755.364          31.000  
G29  23796303.662   125050511.979       -1534.021          17.000  
G31  21551479.321   113253839.260       -1410.895          23.000  
J01  36193522.546   190198144.772        -183.779          20.000  
> 2021  9 30 12  9 21.9986765  0  6
C07  36274376.572   188890370.186        -220.580          23.000  
C19  23408409.096   121893748.848       -3593.836          20.000  
C22  22192548.318   115562406.709       -1086.464          29.000  
C36  23222719.446   120926847.664       -2025.170          26.000  
G26  20105796.147   105656704.360        -755.432          31.000  
G31  21551599.538   113254463.869       -1413.801          22.000  
