     3.03           OBSERVATION DATA    M: Mixed            RINEX VERSION / TYPE
Geo++ RINEX Logger  Geo++               20210912 115942 UTC PGM / RUN BY / DATE
************************************************************COMMENT
This file was generated by the Geo++ RINEX Logger App       COMMENT
for Android devices (Version 2.1.6). If you encounter       COMMENT
any issues, please send an email to android@geopp.de        COMMENT
Filtering Mode: MORE                                        COMMENT
************************************************************COMMENT
Geo++                                                       MARKER NAME
GEODETIC                                                    MARKER TYPE
Geo++               Geo++                                   OBSERVER / AGENCY
unknown             HUAWEI              ELS-AN00            REC # / TYPE / VERS
unknown             ELS-AN00                                ANT # / TYPE
 -2417086.0347  5385839.5621  2406629.3091                  APPROX POSITION XYZ
        0.0000        0.0000        0.0000                  ANTENNA: DELTA H/E/N
G    8 C1C L1C D1C S1C C5Q L5Q D5Q S5Q                      SYS / # / OBS TYPES
R    4 C1C L1C D1C S1C                                      SYS / # / OBS TYPES
E   12 C1B L1B D1B S1B C1C L1C D1C S1C C5Q L5Q D5Q S5Q      SYS / # / OBS TYPES
C    4 C2I L2I D2I S2I                                      SYS / # / OBS TYPES
J    8 C1C L1C D1C S1C C5Q L5Q D5Q S5Q                      SYS / # / OBS TYPES
  2021     9    12    12     0    0.9979612     GPS         TIME OF FIRST OBS
 24 R01  1 R02 -4 R03  5 R04  6 R05  1 R06 -4 R07  5 R08  6 GLONASS SLOT / FRQ #
    R09 -2 R10 -5 R11  0 R12 -1 R13 -2 R14 -7 R15  0 R16 -1 GLONASS SLOT / FRQ #
    R17  4 R18 -3 R19  3 R20  2 R21  4 R22 -3 R23  3 R24  2 GLONASS SLOT / FRQ #
G L1C                                                       SYS / PHASE SHIFT
G L5Q -0.25000                                              SYS / PHASE SHIFT
R L1C                                                       SYS / PHASE SHIFT
E L1B                                                       SYS / PHASE SHIFT
E L1C +0.50000                                              SYS / PHASE SHIFT
E L5Q -0.25000                                              SYS / PHASE SHIFT
C L2I                                                       SYS / PHASE SHIFT
J L1C                                                       SYS / PHASE SHIFT
J L5Q -0.25000                                              SYS / PHASE SHIFT
 C1C    0.000 C1P    0.000 C2C    0.000 C2P    0.000        GLONASS COD/PHS/BIS
                                                            END OF HEADER
> 2021  9 12 12  0  0.9979612  0  1
G10  21655966.586   113803001.640       -4224.308          28.000  
> 2021  9 12 12  0  1.9979604  0  1
G10  21656531.395   113805965.568       -4223.845          26.000  
> 2021  9 12 12  0  2.9979597  0  2
G10  21657125.284   113809087.156       -4225.703          30.000  
G32  20843136.597   109531282.4401       -816.748          19.000  
> 2021  9 12 12  0  3.9979589  0  1
G10  21657690.393   113812053.235       -4227.142          26.000  
> 2021  9 12 12  0  4.9979579  0  2
G10  21658195.543   113814703.862       -4226.053          26.000  
G32  20842905.457   109530082.4641       -820.060          20.000  
> 2021  9 12 12  0  5.9979571  0  2
G10  21658759.453   113817669.090       -4225.189          27.000  
G32  20842821.215   109529641.446        -819.062          20.000  
> 2021  9 12 12  0  6.9979564  0  2
G10  21659353.342   113820792.141       -4226.345          27.000  
G32  20842766.653   109529357.240        -820.733          20.000  
> 2021  9 12 12  0  7.9979556  0  1
G10  21659919.350   113823759.376       -4226.343          26.000  
> 2021  9 12 12  0  8.9979546  0  1
G10  21660425.100   113826410.708       -4227.058          24.000  
> 2021  9 12 12  0  9.9979538  0  1
G10  21660988.710   113829377.512       -4227.028          24.000  
> 2021  9 12 12  0 10.9979530  0  2
G10  21661555.317   113832344.129       -4228.720          23.000  
G32  20842369.728   109527276.6281       -819.091          18.000  
> 2021  9 12 12  0 11.9979523  0  1
G10  21662147.707   113835470.707       -4229.596          24.000  
> 2021  9 12 12  0 12.9979512  0  1
G10  21662623.478   113837966.621       -4227.389          24.000  
> 2021  9 12 12  0 13.9979505  0  1
G10  21663214.968   113841091.926       -4227.954          30.000  
> 2021  9 12 12  0 14.9979497  0  1
G10  21663779.178   113844058.597       -4226.225          30.000  
> 2021  9 12 12  0 15.9979489  0  1
G10  21664343.387   113847025.837       -4228.429          35.000  
> 2021  9 12 12  0 16.9979479  0  1
G10  21664847.038   113849679.274       -4228.884          35.000  
> 2021  9 12 12  0 17.9979471  0  1
G10  21665410.049   113852648.579       -4229.902          33.000  
> 2021  9 12 12  0 18.9979464  0  1
G10  21666003.638   113855775.485       -4230.214          36.000  
> 2021  9 12 12  0 19.9979456  0  1
G10  21666567.847   113858746.028       -4232.286          33.000  
> 2021  9 12 12  0 20.9979446  0  1
G10  21667071.199   113861401.428       -4231.485          33.000  
> 2021  9 12 12  0 21.9979438  0  1
G10  21667636.607   113864371.982       -4230.577          34.000  
> 2021  9 12 12  0 22.9979430  0  2
G10  21668205.314   113867343.628       -4231.666          34.000  
G32  20841254.500   109521397.0391       -818.782          16.000  
> 2021  9 12 12  0 23.9979423  0  2
G10  21668799.502   113870472.339       -4231.134          32.000  
G32  20841199.338   109521113.354        -820.590          17.000  
> 2021  9 12 12  0 24.9979412  0  1
G10  21669274.374   113872971.263       -4232.460          33.000  
> 2021  9 12 12  0 25.9979405  0  1
G10  21669867.963   113876100.553       -4232.233          34.000  
> 2021  9 12 12  0 26.9979397  0  0
> 2021  9 12 12  0 27.9979389  0  1
G10  21671003.576                       -4234.172          34.000  
> 2021  9 12 12  0 28.9979379  0  1
G10  21671509.926   113884549.8811      -4232.196          32.000  
> 2021  9 12 12  0 29.9979372  0  1
G10  21672104.115   113887681.303       -4235.637          32.000  
> 2021  9 12 12  0 30.9979361  0  1
G10  21672583.782   113890182.960       -4237.584          31.000  
> 2021  9 12 12  0 31.9979356  0  2
G10  21673239.429   113893632.364       -4236.515          28.000  
G32  20840440.263   109517161.4341       -823.486          17.000  
> 2021  9 12 12  0 32.9979346  0  1
G10  21673745.478   113896293.258       -4236.003          26.000  
> 2021  9 12 12  0 33.9979338  0  2
G10  21674313.285   113899269.636       -4237.324          24.000  
G32  20840213.620   109515965.2281       -818.326          18.000  
> 2021  9 12 12  0 34.9979328  0  2
G10  21674816.936   113901930.109       -4234.788          28.000  
G32  20840068.821   109515208.398        -818.295          19.000  
> 2021  9 12 12  0 35.9979323  0  2
G10  21675470.184   113905376.618       -4234.479          29.000  
G32  20840076.615   109515239.230        -819.435          20.000  
> 2021  9 12 12  0 36.9979313  0  2
G10  21675973.536   113908036.591       -4235.519          27.000  
G32  20839935.713   109514484.327        -820.723          21.000  
> 2021  9 12 12  0 37.9979305  0  0
> 2021  9 12 12  0 38.9979295  0  1
G32  20839714.466   109513291.4731       -821.564          21.000  
> 2021  9 12 12  0 39.9979290  0  2
G10  21677714.131   113917128.5971      -4241.354          23.000  
G32  20839721.961   109513325.863        -822.833          21.000  
> 2021  9 12 12  0 40.9979279  0  2
G10  21678194.998   113919637.733       -4242.819          20.000  
G32  20839553.178   109512417.826        -827.306          21.000  
> 2021  9 12 12  0 41.9979272  0  2
G10  21678792.484   113922777.586       -4243.321          19.000  
G32  20839500.414   109512142.778        -828.013          26.000  
> 2021  9 12 12  0 42.9979261  0  1
G32  20839323.836   109511236.603        -825.687          31.000  
> 2021  9 12 12  0 43.9979256  0  1
G32  20839325.635   109511275.156        -827.503          28.000  
> 2021  9 12 12  0 44.9979246  0  4
C03  35897928.981   186929936.4531      -1327.267          30.000  
C05  39317962.841                       -1332.544          28.000  
G10  21680441.043   113931408.6641      -4241.855          25.000  
G32  20839178.437   109510526.940        -826.879          29.000  
> 2021  9 12 12  0 45.9979238  0  6
C05  39317979.030   204739033.6531      -1332.502          32.000  
C16  37153133.621   193466115.7221       -875.451          33.000  
C33  23635592.720   123076733.4791      -3716.100          27.000  
G10  21681012.148   113934392.978       -4246.047          21.000  
G31  21091707.415   110837669.8261      -1433.154          25.000  
G32  20839093.895   109510094.108        -827.537          32.000  
> 2021  9 12 12  0 46.9979228  0  3
C16  37153000.813   193465429.752        -875.585          29.000  
G10  21681519.097   113937063.219       -4245.558          22.000  
G32  20838948.796   109509346.503        -828.098          31.000  
> 2021  9 12 12  0 47.9979223  0  2
G10  21682178.940   113940520.762       -4245.752          21.000  
G32  20838955.092   109509387.380        -828.907          27.000  
> 2021  9 12 12  0 48.9979213  0  2
C16  37152887.791   193464837.3791       -874.187          30.000  
G31  21091762.277   110838029.0551      -1432.048          20.000  
> 2021  9 12 12  0 49.9979205  0  4
C16  37152819.139   193464463.061        -874.917          33.000  
C33  23637443.938   123086426.4071      -3710.226          17.000  
G31  21091794.055   110838201.365       -1433.214          29.000  
J02  38683650.866   203283957.1751      -2153.848          23.000  
> 2021  9 12 12  0 50.9979195  0  3
C16  37152689.029   193463777.018        -875.146          33.000  
J02  38683759.091   203284535.572       -2153.571          24.000  
R02  19161752.695   102250783.2121       -906.114          34.000  
> 2021  9 12 12  0 51.9979187  0  6
C07  37031024.555   192830357.9511       -205.876          27.000  
C16  37152623.974   193463402.508        -874.291          33.000  
G10  21684345.540   113951835.3001      -4244.738          26.000  
G32  20838528.187   109507028.8101       -828.602          30.000  
J02  38683926.075   203285427.831       -2151.181          22.000  
R02  19161687.340   102250410.003        -907.124          32.000  
> 2021  9 12 12  0 52.9979180  0  5
C07  37030851.875   192829471.533        -206.473          27.000  
C16  37152584.401   193463183.974        -873.929          33.000  
G10  21684943.626   113954976.300       -4243.607          26.000  
G32  20838479.321   109506754.458        -828.487          29.000  
R02  19161650.765   102250197.513        -907.644          30.000  
> 2021  9 12 12  0 53.9979169  0  6
C07  37030559.577   192827960.558        -205.702          25.000  
C16  37152423.712                        -873.779          33.000  
G10  21685423.294   113957485.675       -4243.803          25.000  
G31  21091823.434   110838279.8091      -1433.340          34.000  
G32  20838304.842   109505850.401        -829.751          28.000  
R02  19161494.873   102249344.918        -907.130          31.000  
> 2021  9 12 12  0 54.9979162  0  7
C07  37030388.096   192827074.152        -206.631          26.000  
C16  37152376.645   193462200.7731       -875.062          32.000  
C33  23639710.369   123098286.0021      -3716.071          16.000  
G10  21686024.378   113960627.225       -4245.932          23.000  
G31  21091883.393   110838611.014       -1434.501          34.000  
G32  20838254.776   109505577.009        -830.156          28.000  
R02  19161456.500   102249132.046        -906.828          32.000  
> 2021  9 12 12  0 55.9979154  0  5
C07  37030188.434   192826031.862        -206.283          26.000  
C16  37152306.194   193461826.076        -872.918          32.000  
G31  21091916.070   110838784.925       -1433.619          35.000  
G32  20838176.531   109505146.471        -829.661          27.000  
R02  19161386.048   102248759.796        -909.536          32.000  
> 2021  9 12 12  0 56.9979146  0  4
C07  37029989.072   192824989.588        -206.776          27.000  
C16  37152232.744   193461451.382        -873.642          32.000  
G10  21687162.989   113966599.9251      -4246.178          21.000  
R02  19161315.597   102248389.945        -910.412          31.000  
> 2021  9 12 12  0 57.9979136  0  5
C07  37029728.852   192823635.262        -206.955          28.000  
C16  37152104.733   193460764.294        -875.533          32.000  
G31  21091917.869   110838818.3471      -1434.993          34.000  
G32  20837951.986   109503970.1181       -831.203          24.000  
R02  19161185.188   102247700.827        -911.274          33.000  
> 2021  9 12 12  0 58.9979128  0  6
C07  37029527.991   192822593.118        -206.644          25.000  
C16  37152034.582   193460389.271        -874.865          32.000  
C32  24666352.939   128444171.6851       1444.315          27.000  
G10  21688253.035   113972538.2861      -4248.102          22.000  
G31  21091949.347   110838993.035       -1435.058          34.000  
R02  19161113.237   102247332.395        -911.896          33.000  
> 2021  9 12 12  0 59.9979118  0  3
C16  37151901.774   193459703.138        -877.428          32.000  
G31  21091921.766   110838852.077       -1434.467          31.000  
R02  19160982.828   102246644.702        -912.602          32.000  
> 2021  9 12 12  1  0.9979113  0  5
C07  37029161.645   192820663.7731       -205.267          23.000  
C32  24665348.634   128438942.5991       1441.710          23.000  
G10  21689425.823   113978673.1161      -4248.976          15.000  
G31  21092044.082   110839499.119       -1435.114          29.000  
R02  19161005.312   102246757.621        -912.945          31.000  
> 2021  9 12 12  1  1.9979103  0  6
C07  37028902.624   192819308.176        -205.441          24.000  
C16  37151775.861   193459109.0251       -873.253          25.000  
G10  21689941.466   113981348.086       -4251.023          14.000  
G31  21092016.501   110839358.896       -1435.672          34.000  
G32  20837594.633   109502099.8911       -831.303          22.000  
R02  19160876.401   102246071.259        -913.708          23.000  
> 2021  9 12 12  1  2.9979095  0  5
C07  37028705.361   192818265.843        -208.001          24.000  
C16  37151702.711   193458733.366        -873.619          27.000  
C32  24664244.199   128433244.2611       1443.248          17.000  
G31  21092046.780   110839534.601       -1436.638          35.000  
R02  19160811.946   102245705.494        -913.872          26.000  
> 2021  9 12 12  1  3.9979085  0  8
C06  36546892.413   190309258.5081       -923.855          25.000  
C07  37028447.239   192816913.884        -210.132          24.000  
C13  38730226.622   201678453.4151      -3147.005          20.000  
C16  37151570.203   193458045.730        -873.526          29.000  
C32  24663655.107   128430237.012        1446.690          17.000  
G31  21092023.396                       -1436.455          35.000  
G32  20837367.091   109500927.6131       -832.965          23.000  
R02  19160681.536   102245020.118        -914.874          28.000  
> 2021  9 12 12  1  4.9979080  0  8
C06  36546922.992   190309402.529        -924.598          25.000  
C07  37028337.815   192816342.666        -208.418          24.000  
C13  38730681.407   201680820.352       -3148.879          20.000  
C16  37151587.291   193458138.329        -873.193          27.000  
C32  24663219.508   128428008.401        1448.351          17.000  
G31  21092144.812                       -1438.367          35.000  
J02  38686054.002   203296581.7321      -2154.362          26.000  
R02  19160702.522   102245135.277        -915.668          26.000  
> 2021  9 12 12  1  5.9979069  0  8
C06  36546773.395   190308608.568        -922.786          24.000  
C07  37028048.216   192814834.035        -208.203          24.000  
C13  38730955.418   201682251.131       -3147.997          21.000  
C16  37151426.303   193457293.794        -872.432          27.000  
C32  24662605.833   128424841.686        1450.690          17.000  
G10  21692163.228   113992996.1731      -4249.596          13.000  
G31  21092087.851   110839682.8131      -1437.077          34.000  
R02  19160542.432   102244291.544        -916.647          30.000  
> 2021  9 12 12  1  6.9979062  0  7
C06  36546739.519   190308438.087        -922.269          23.000  
C07  37027880.332   192813947.556        -204.900          23.000  
C16  37151383.732   193457073.804        -873.151          25.000  
C32  24662105.480   128422299.802        1447.561          17.000  
G32  20837169.827   109499804.3431       -834.229          26.000  
J02  38686337.606   203298056.2791      -2154.853          26.000  
R02  19160504.659   102244088.764        -917.687          31.000  
> 2021  9 12 12  1  7.9979052  0  9
C06  36546617.203   190307799.770        -923.921          22.000  
C16  37151248.826   193456386.790        -875.218          24.000  
C23  22549343.914   117420350.9381       -903.643          23.000  
E04  24941887.091   131070245.6841        486.949          29.000  
G26  21378387.850   112344185.7061       1339.445          29.000  
G31  21092125.026   110839878.9801      -1437.112          29.000  
G32  20837026.227   109499063.527        -835.251          26.000  
J02  38686447.030   203298635.332       -2154.652          27.000  
R02  19160376.647   102243406.689        -918.054          27.000  
> 2021  9 12 12  1  8.9979046  0  7
C07  37027481.608   192811862.6121       -207.513          22.000  
C13  38732075.442   201688099.4721      -3143.382          21.000  
E04  24941613.081   131068813.344         487.751          30.000  
G26  21377951.052   112341903.312        1332.889          28.000  
G31  21092215.563   110840371.133       -1437.668          32.000  
J02  38686675.472   203299843.653       -2153.042          26.000  
R02  19160368.553   102243365.345        -918.919          27.000  
> 2021  9 12 12  1  9.9979036  0 10
C07  37027221.388   192810510.363        -209.670          23.000  
C09  37632978.431   195964630.5911       -986.476          27.000  
C16  37151099.529   193455639.2001       -873.172          24.000  
C23  22549208.408   117419665.2621       -907.448          21.000  
E04  24941220.053   131066750.030         487.518          29.000  
G10  21694398.480   114004817.2691      -4258.690          13.000  
G26  21377399.434   112338991.564        1334.212          27.000  
G31  21092186.783   110840233.796       -1438.188          31.000  
J02  38686783.097   203300421.012       -2153.070          27.000  
R02  19160242.040   102242685.172        -920.129          27.000  
> 2021  9 12 12  1 10.9979028  0 12
C07  37027020.527   192809471.227        -209.977          20.000  
C09  37632927.766   195964368.203        -986.416          27.000  
C13  38732749.975   201691581.4751      -3147.369          20.000  
C16  37151026.080   193455263.032        -872.999          25.000  
C23  22549143.353   117419322.869        -906.158          22.000  
C32  24659974.855   128411215.1821       1442.700          24.000  
E04  24940886.683   131065002.377         487.041          28.000  
G26  21376904.477   112336395.925        1336.165          28.000  
G31  21092216.762   110840411.756       -1438.891          30.000  
G32  20836776.200   109497786.5491       -835.177          31.000  
J02  38686952.780   203301314.208       -2153.736          27.000  
R02  19160178.784   102242325.748        -920.837          29.000  
> 2021  9 12 12  1 11.9979018  0 12
C06  36546305.419   190306189.3531       -924.476          20.000  
C07  37026762.106   192808120.033        -210.264          22.000  
C09  37632817.443   195963793.602        -986.246          27.000  
C13  38733053.065   201693167.941       -3148.370          19.000  
C23  22549018.339   117418665.938        -903.198          25.000  
C32  24659395.356   128407942.487        1442.558          20.000  
G10  21695467.540   114010498.1741      -4258.771          15.000  
G26  21376350.461   112333484.496        1336.007          30.000  
G31  21092188.582   110840275.086       -1438.681          26.000  
G32  20836634.398   109497046.553        -835.899          32.000  
J02  38687063.403   203301892.726       -2155.044          28.000  
R02  19160053.171   102241646.961        -921.295          31.000  
> 2021  9 12 12  1 12.9979013  0 10
C06  36546329.103   190306332.942        -924.334          24.000  
C07  37026653.281   192807549.559        -210.276          18.000  
C09  37632856.416   195963999.168        -986.090          28.000  
C23  22549041.124   117418789.536        -904.491          23.000  
C32  24658964.854   128405718.686        1443.686          19.000  
G26  21375946.340   112331360.748        1335.856          29.000  
G31  21092305.801   110840927.121       -1442.925          22.000  
G32  20836642.193   109497094.604        -835.943          33.000  
J02  38687326.022   203303260.236       -2155.159          27.000  
R02  19160076.855   102241768.635        -922.141          32.000  
> 2021  9 12 12  1 13.9979003  0 10
C06  36546206.488   190305697.040        -925.528          22.000  
C07  37026392.462   192806196.434        -207.542          18.000  
C09  37632745.492   195963424.485        -986.008          29.000  
C16  37150778.151   193453980.6401       -872.236          24.000  
C23  22548917.309   117418133.887        -906.406          26.000  
C32  24658391.651   128402714.697        1442.316          19.000  
G26  21375392.024   112328450.099        1334.889          28.000  
G32  20836498.292   109496354.966        -837.460          33.000  
J02  38687435.746   203303840.048       -2154.927          27.000  
R02  19159947.944   102241091.305        -923.152          33.000  
> 2021  9 12 12  1 14.9978995  0  9
C06  36546145.330   190305373.285        -922.920          19.000  
C07  37026192.201   192805155.582        -208.740          19.000  
C09  37632694.827   195963162.195        -986.416          29.000  
C13  38734177.887   201699018.3511      -3147.257          20.000  
C16  37150707.700   193453603.391        -871.276          24.000  
C23  22548853.753   117417790.988        -905.813          25.000  
G26  21374900.964   112325855.186        1334.355          29.000  
J02  38687605.128   203304734.723       -2156.081          27.000  
R02  19159880.491   102240734.868        -923.818          31.000  
> 2021  9 12 12  1 15.9978985  0 10
C06  36546020.317   190304734.098        -921.786          19.000  
C09  37632584.504   195962587.287        -985.755          29.000  
C16  37150577.890   193452914.240        -872.658          24.000  
C23  22548729.639   117417136.933        -908.085          24.000  
C33  23649461.718   123148844.1771      -3728.337          28.000  
E04  24939137.394   131055792.8441        485.898          24.000  
G10  21697699.795   114022340.8411      -4260.264          17.000  
G26  21374348.746   112322945.851        1332.996          30.000  
J02  38687714.253   203305314.093       -2153.983          27.000  
R02  19159750.081   102240059.113        -924.467          30.000  
> 2021  9 12 12  1 16.9978980  0 11
C06  36546047.598   190304875.897        -922.663          22.000  
C07  37025821.357   192803231.0191       -208.333          19.000  
C09  37632624.076   195962793.499        -987.639          28.000  
C16  37150598.576   193453006.907        -872.656          26.000  
C23  22548756.621   117417265.372        -909.534          26.000  
C33  23650029.525   123151791.188       -3727.175          27.000  
G10  21698356.640   114025812.095       -4258.288          18.000  
G26  21373945.525   112320824.747        1333.169          29.000  
G32  20836283.041   109495405.7421       -838.087          34.000  
J02  38687972.974   203306678.808       -2152.347          26.000  
R02  19159771.966   102240184.176        -925.438          33.000  
> 2021  9 12 12  1 17.9978970  0  9
C06  36545923.184   190304237.194        -922.324          17.000  
C09  37632514.053   195962218.968        -985.423          29.000  
C16  37150470.265   193452319.236        -875.452          25.000  
C23  22548634.006   117416613.543        -908.785          25.000  
C33  23650446.237   123153957.241       -3727.051          27.000  
G26  21373394.207   112317916.901        1331.643          30.000  
G32  20836141.839   109494667.831        -837.983          33.000  
J02  38688082.698   203307256.279       -2153.611          28.000  
R02  19159644.854   102239510.185        -926.154          32.000  
> 2021  9 12 12  1 18.9978962  0  9
C07  37025359.377   192800843.3661       -212.740          18.000  
C09  37632463.388   195961955.770        -985.797          28.000  
C23  22548572.848   117416272.538        -908.134          26.000  
C33  23650922.007   123156435.669       -3727.986          27.000  
G10  21699432.895   114031489.8781      -4256.276          18.000  
G26  21372901.948   112315325.142        1330.615          30.000  
G32  20836059.996   109494245.428        -840.405          33.000  
J02  38688251.781   203308149.619       -2155.130          28.000  
R02  19159578.900   102239156.934        -926.978          32.000  
> 2021  9 12 12  1 19.9978952  0 10
C06  36545735.814   190303272.2311       -923.378          18.000  
C09  37632353.963   195961380.519        -985.871          29.000  
C13  38735914.285   201708039.6281      -3146.411          19.000  
C16  37150273.001   193451256.7901       -871.997          27.000  
C23  22548446.935   117415619.433        -908.248          26.000  
C33  23651336.920   123158603.071       -3729.316          26.000  
G26  21372350.030   112312419.058        1330.342          29.000  
G32  20835920.592   109493508.230        -839.327          33.000  
J02  38688363.004   203308728.964       -2154.998          28.000  
R02  19159452.987   102238484.555        -927.963          33.000  
> 2021  9 12 12  1 20.9978944  0  9
C09  37632304.198   195961117.475        -986.120          28.000  
C13  38736281.530   201709937.284       -3147.017          18.000  
C16  37150204.349   193450880.098        -872.402          27.000  
C23  22548383.379   117415279.911        -910.127          25.000  
C33  23651812.391   123161083.190       -3729.456          26.000  
G26  21371857.471   112309828.729        1329.800          29.000  
G32  20835836.950   109493086.367        -838.084          34.000  
J02  38688534.185   203309623.979       -2155.818          28.000  
R02  19159385.833   102238132.814        -928.474          33.000  
> 2021  9 12 12  1 21.9978936  0  7
C09  37632252.634   195960854.716        -985.913          29.000  
C16  37150134.197   193450504.568        -873.994          28.000  
C23  22548317.425   117414941.577        -912.993          26.000  
C33  23652286.663   123163563.212       -3729.177          25.000  
G26  21371364.612   112307238.627        1329.912          29.000  
J02  38688704.767   203310519.065       -2156.291          27.000  
R02  19159319.879   102237781.622        -929.010          33.000  
> 2021  9 12 12  1 22.9978929  0 10
C09  37632229.849   195960747.728        -985.762          26.000  
C13  38737043.903   201713892.3081      -3149.515          18.000  
C16  37150093.425   193450285.388        -872.991          33.000  
C23  22548282.649   117414762.383        -913.123          25.000  
C25  22984685.134   119687287.1031      -3111.606          24.000  
C33  23652791.513   123166199.584       -3729.194          25.000  
G10  21701675.942   114043324.4011      -4258.479          19.000  
G26  21370901.433   112304805.645        1329.992          19.000  
J02  38688908.326   203311572.403       -2155.155          26.000  
R02  19159284.204   102237591.077        -929.761          36.000  
> 2021  9 12 12  1 23.9978918  0  8
C05  39318115.435   204739743.9791      -1328.089          32.000  
C09  37632086.848   195960016.120        -985.930          20.000  
C13  38737319.712   201715323.504       -3146.806          18.000  
C16  37149930.938   193449441.009        -872.816          30.000  
C25  22984949.251   119688680.035       -3108.960          24.000  
G31  21092488.974   110841802.4951      -1441.805          28.000  
G32  20835539.856   109491509.4351       -840.533          31.000  
R02  19159130.710   102236761.432        -930.535          36.000  
> 2021  9 12 12  1 24.9978911  0 12
C03  35898104.359   186930833.3411      -1332.167          30.000  
C05  39318158.006   204739976.962       -1323.134          32.000  
C09  37632064.664   195959908.077        -983.749          23.000  
C13  38737715.737   201717377.858       -3146.879          19.000  
C16  37149889.267   193449221.340        -873.556          31.000  
C23  22548084.186   117413776.8001       -910.991          27.000  
C25  22985333.285   119690697.076       -3110.820          26.000  
C33  23653687.293   123170851.5861      -3733.042          22.000  
G31  21092557.027   110842141.788       -1442.074          28.000  
G32  20835487.092   109491247.099        -840.782          35.000  
J02  38689186.234   203313047.5201      -2154.959          24.000  
R02  19159097.733   102236572.492        -931.349          35.000  
> 2021  9 12 12  1 25.9978903  0 14
C05  39318170.597   204740052.030       -1323.833          33.000  
C09  37632011.900   195959643.481        -984.170          24.000  
C13  38738081.784   201719274.440       -3144.752          20.000  
C16  37149818.216   193448845.985        -873.009          31.000  
C23  22548016.433   117413438.937        -910.264          28.000  
C25  22985688.839   119692559.396       -3111.801          27.000  
C32  24652133.483   128370127.8771       1441.006          28.000  
C33  23654165.162   123173334.643       -3730.885          21.000  
G26  21369368.294   112296719.7691       1328.773          21.000  
G31  21092595.100   110842323.665       -1442.392          30.000  
G32  20835404.350   109490827.107        -841.477          36.000  
J01  36930229.834   194069666.8501       -323.651          25.000  
J02  38689355.916   203313941.711       -2154.032          27.000  
R02  19159035.376   102236224.351        -932.104          35.000  
> 2021  9 12 12  1 26.9978895  0 12
C05  39318183.788   204740126.957       -1324.114          33.000  
C09  37631960.636   195959379.352        -986.097          24.000  
C16  37149744.767   193448470.317        -873.313          30.000  
C23  22547951.078   117413101.140        -911.431          30.000  
C25  22986045.592   119694421.393       -3110.894          27.000  
C32  24651622.037   128367438.264        1440.040          28.000  
C33  23654644.231   123175817.457       -3732.253          23.000  
G31  21092631.975   110842505.935       -1443.031          33.000  
G32  20835320.408                        -840.483          36.000  
J01  36930049.958   194068730.029        -323.561          25.000  
J02  38689524.999   203314834.261       -2153.539          27.000  
R02  19158972.419   102235877.152        -933.027          34.000  
> 2021  9 12 12  1 27.9978885  0 13
C05  39318137.920   204739890.105       -1324.663          33.000  
C13  38738753.919   201722750.2621      -3140.895          20.000  
C16  37149610.160   193447782.500        -873.770          30.000  
C23  22547825.465   117412451.784        -911.930          29.000  
C25  22986341.187   119695970.932       -3111.062          27.000  
C32  24651050.933   128364438.052        1438.266          25.000  
C33  23655061.242   123177988.815       -3732.420          21.000  
G26  21368315.423   112291227.8641       1326.425          21.000  
G31  21092606.492   110842373.365       -1443.065          34.000  
G32  20835184.002   109489612.6591       -840.141          36.000  
J01  36929813.122   194067477.866        -323.610          23.000  
J02  38689633.224   203315412.203       -2154.103          27.000  
R02  19158848.305   102235210.797        -933.981          34.000  
> 2021  9 12 12  1 28.9978877  0 14
C05  39318152.609   204739966.766       -1326.386          33.000  
C09  37631796.949   195958539.1111       -984.687          23.000  
C13  38739120.265   201724642.917       -3142.423          21.000  
C16  37149537.310   193447407.163        -873.295          31.000  
C23  22547762.209   117412115.051        -912.197          31.000  
C25  22986697.940   119697832.801       -3110.434          27.000  
C32  24650539.187   128361751.636        1436.400          25.000  
C33  23655539.711   123180472.432       -3731.422          22.000  
G10  21704982.353   114060699.9081      -4260.849          20.000  
G26  21367817.768   112288638.777        1328.700          21.000  
G31  21092644.866                       -1438.986          34.000  
G32  20835105.157   109489193.565        -841.966          35.000  
J02  38689802.607   203316306.053       -2154.513          27.000  
R02  19158783.850   102234865.195        -934.757          35.000  
> 2021  9 12 12  1 29.9978870  0 14
C05  39318197.578   204740201.613       -1328.282          33.000  
C09  37631776.563   195958430.900        -983.788          23.000  
C13  38739515.092   201726694.139       -3146.504          21.000  
C16  37149494.440   193447187.957        -872.825          33.000  
C23  22547730.131   117411935.378        -912.785          30.000  
C25  22987085.272   119699851.015       -3111.882          28.000  
C32  24650055.322   128359221.673        1437.958          27.000  
G10  21705583.437   114063857.448       -4260.022          20.000  
G26  21367354.288   112286206.377        1330.847          21.000  
G31  21092710.520                       -1444.319          35.000  
G32  20835058.689   109488932.436        -842.192          36.000  
J01  36929488.447   194065760.5221       -322.557          25.000  
J02  38690003.768   203317357.804       -2154.688          28.000  
R02  19158747.875   102234680.356        -935.572          35.000  
> 2021  9 12 12  1 30.9978862  0 14
C05  39318213.467   204740282.414       -1331.071          33.000  
C09  37631724.699   195958166.400        -984.252          24.000  
C13  38739880.239   201728592.099       -3148.362          21.000  
C16  37149420.991   193446811.982        -873.480          31.000  
C23  22547666.275   117411599.274        -912.860          31.000  
C25  22987444.124   119701713.623       -3111.473          27.000  
C32  24649541.178   128356534.519        1438.562          27.000  
C33  23656522.430   123185592.9911      -3731.770          20.000  
G26  21366865.327   112283616.917        1327.663          21.000  
G31  21092748.594   110843120.8041      -1442.624          35.000  
G32  20834978.045   109488514.116        -841.931          35.000  
J01  36929308.871   194064822.734        -323.280          24.000  
J02  38690175.849   203318253.032       -2155.308          27.000  
R02  19158684.319   102234336.428        -936.401          35.000  
> 2021  9 12 12  1 31.9978852  0 14
C05  39318171.196   204740052.867       -1332.530          34.000  
C09  37631614.975   195957589.454        -983.666          24.000  
C13  38740184.229   201730179.301       -3149.117          21.000  
C16  37149291.181   193446122.644        -871.637          31.000  
C23  22547543.660   117410951.053        -913.327          32.000  
C25  22987742.417   119703264.372       -3111.687          27.000  
C32  24648969.174   128353535.992        1436.728          26.000  
C33  23656937.643   123187763.615       -3731.466          21.000  
G26  21366312.510   112280715.123        1323.401          20.000  
G31  21092722.512   110842989.103       -1443.676          36.000  
G32  20834835.344   109487781.026        -841.828          35.000  
J01  36929069.637   194063568.705        -321.328          24.000  
J02  38690287.671   203318831.921       -2154.526          26.000  
R02  19158560.804   102233673.467        -937.245          35.000  
> 2021  9 12 12  1 32.9978844  0 13
C03  35898127.144   186931006.9111      -1328.995          31.000  
C05  39318188.285   204740136.943       -1333.775          32.000  
C09  37631563.411   195957324.642        -983.934          24.000  
C16  37149222.828                        -873.109          32.000  
C23  22547483.402   117410615.784        -913.968          33.000  
C25  22988101.269   119705127.005       -3111.003          27.000  
C32  24648453.231   128350849.918        1436.734          27.000  
G10  21707235.294   114072533.8491      -4256.374          18.000  
G31  21092755.789   110843172.671       -1445.821          35.000  
G32  20834757.098   109487363.224        -843.344          37.000  
J01  36928889.162   194062629.940        -321.747          23.000  
J02  38690460.352   203319725.388       -2154.266          26.000  
R02  19158494.850   102233331.101        -937.685          35.000  
> 2021  9 12 12  1 33.9978836  0 13
C05  39318204.773   204740222.371       -1335.006          31.000  
C09  37631511.247   195957059.096        -983.850          24.000  
C16  37149149.079   193445374.9761       -873.963          32.000  
C23  22547418.347   117410280.695        -913.927          32.000  
C25  22988457.422   119706988.822       -3111.187          26.000  
C32  24647937.588   128348163.926        1437.982          27.000  
C33  23657891.582   123192733.1841      -3733.491          18.000  
G10  21707803.400   114075528.335       -4256.291          16.000  
G31  21092791.464   110843356.603       -1443.530          36.000  
G32  20834677.353   109486945.859        -843.670          37.000  
J01  36928711.985   194061691.083        -321.777          23.000  
J02  38690631.533   203320619.507       -2154.552          27.000  
R02  19158430.395   102232989.342        -938.439          35.000  
> 2021  9 12 12  1 34.9978829  0 12
C03  35898186.503   186931323.3241      -1329.689          31.000  
C05  39318251.241   204740464.938       -1335.710          33.000  
C09  37631491.461   195956949.981        -984.337          23.000  
C13  38741303.654   201736029.0611      -3147.207          22.000  
C16  37149104.410   193445154.916        -872.896          32.000  
C23  22547380.873   117410102.246        -916.423          32.000  
C25  22988844.454   119709007.034       -3111.200          26.000  
G10  21708403.585   114078682.959       -4258.714          17.000  
G31  21092855.320   110843698.310       -1445.453          35.000  
G32  20834627.587   109486686.391        -842.939          36.000  
J02  38690834.792   203321672.438       -2156.071          27.000  
R02  19158395.918   102232808.277        -939.103          35.000  
> 2021  9 12 12  1 35.9978819  0 12
C05  39318208.671   204740239.302       -1335.235          34.000  
C09  37631377.839   195956374.223        -985.307          23.000  
C13  38741604.945   201737614.372       -3146.343          22.000  
C16  37148974.600   193444466.336        -873.510          31.000  
C23  22547256.159                        -912.932          31.000  
C25  22989143.647   119710558.766       -3114.137          26.000  
G10  21708913.232   114081366.918       -4260.781          18.000  
G31  21092831.637   110843567.533       -1444.437          35.000  
G32  20834486.385   109485954.507        -843.384          35.000  
J01  36928327.351   194059656.6621       -323.033          22.000  
J02  38690946.315   203322253.388       -2155.809          26.000  
R02  19158274.802   102232148.060        -940.077          34.000  
> 2021  9 12 12  1 36.9978811  0 11
C05  39318225.159   204740325.839       -1335.658          33.000  
C09  37631325.675   195956111.268        -985.395          21.000  
C16  37148901.151   193444089.862        -873.378          31.000  
C23  22547190.205   117409145.6871       -916.457          31.000  
C25  22989503.698   119712423.239       -3113.480          27.000  
C32  24646356.482   128339951.5401       1436.451          25.000  
G31  21092867.312   110843752.205       -1444.908          35.000  
G32  20834407.240   109485538.101        -844.669          35.000  
J01  36928146.876   194058719.899        -323.973          22.000  
J02  38691116.597   203323149.326       -2155.910          27.000  
R02  19158208.848   102231808.550        -940.809          35.000  
> 2021  9 12 12  1 37.9978803  0 12
C05  39318242.547   204740412.415       -1335.526          32.000  
C09  37631273.811   195955847.240        -982.585          21.000  
C13  38742334.940   201741413.4841      -3147.310          22.000  
C16  37148830.400   193443713.364        -871.664          32.000  
C23  22547125.450   117408812.160        -916.709          31.000  
C25  22989862.549   119714287.471       -3113.488          27.000  
C33  23659770.682   123202533.4231      -3739.183          17.000  
G31  21092899.689   110843937.012       -1446.341          35.000  
G32  20834331.992   109485121.925        -844.661          33.000  
J01  36927970.298   194057783.086        -323.781          22.000  
J02  38691286.280   203324044.968       -2156.733          27.000  
R02  19158142.894   102231469.781        -941.521          35.000  
> 2021  9 12 12  1 38.9978796  0 13
C05  39318289.315   204740654.749       -1334.756          33.000  
C09  37631252.826   195955737.589        -983.296          23.000  
C13  38742726.469   201743468.129       -3148.612          22.000  
C16  37148788.129   193443492.999        -872.661          32.000  
C23  22547093.972   117408635.190        -915.388          30.000  
C25  22990251.680   119716307.989       -3113.217          27.000  
C32  24645349.480   128334736.2151       1436.710          25.000  
G10  21710670.016   114090535.7061      -4269.214          19.000  
G31  21092970.440   110844279.643       -1446.550          33.000  
G32  20834278.029   109484863.696        -843.912          34.000  
J01  36927822.201   194057003.819        -323.386          22.000  
J02  38691485.042   203325098.914       -2156.634          24.000  
R02  19158110.216   102231291.772        -942.173          35.000  
> 2021  9 12 12  1 39.9978785  0 12
C03  35898145.131   186931100.9721      -1329.249          30.000  
C05  39318215.266   204740272.112       -1334.537          32.000  
C07  37020912.256   192777681.1601       -214.236          23.000  
C09  37631112.223   195955003.518        -983.711          22.000  
C16  37148622.644   193442647.969        -873.482          33.000  
C23  22546941.977   117407834.019        -914.770          30.000  
C25  22990519.994   119717704.206       -3113.426          26.000  
C32  24644741.500   128331581.195        1438.364          26.000  
G31  21092910.782   110843992.409       -1445.220          34.000  
G32  20834109.246   109483975.497        -846.334          34.000  
J02  38691566.586   203325521.486       -2155.175          25.000  
R02  19157955.823   102230474.482        -942.778          35.000  
> 2021  9 12 12  1 40.9978778  0 12
C03  35898191.299   186931337.555       -1329.720          30.000  
C05  39318262.333   204740513.672       -1334.277          32.000  
C07  37020743.772   192776803.830        -215.753          24.000  
C09  37631093.336   195954895.632        -985.314          24.000  
C16  37148581.272   193442428.099        -874.602          32.000  
C23  22546909.000   117407658.294        -917.604          30.000  
C25  22990907.926   119719725.279       -3114.589          26.000  
C32  24644255.237   128329050.952        1434.302          27.000  
G32  20834060.980   109483718.503        -845.541          33.000  
J01  36927409.087   194054812.4471       -321.018          25.000  
J02  38691766.547   203326573.624       -2155.129          26.000  
R02  19157922.246   102230298.041        -944.053          35.000  
> 2021  9 12 12  1 41.9978770  0 13
C03  35898206.589   186931418.507       -1330.223          30.000  
C05  39318278.822   204740598.712       -1333.625          31.000  
C07  37020546.509   192775770.225        -213.779          23.000  
C09  37631041.772   195954631.730        -984.695          22.000  
C16  37148511.121   193442051.375        -871.018          34.000  
C23  22546846.043   117407326.208        -918.288          29.000  
C25  22991266.777   119721591.034       -3114.089          25.000  
C32  24643740.493   128326367.835        1434.185          26.000  
G26  21361350.944   112254615.3821       1322.367          20.000  
G31  21093004.317   110844521.9261      -1447.592          31.000  
G32  20833981.835   109483303.668        -847.975          31.000  
J02  38691935.331   203327469.048       -2155.259          24.000  
R02  19157861.089   102229962.677        -944.755          35.000  
> 2021  9 12 12  1 42.9978762  0 12
C05  39318295.011   204740683.320       -1333.426          32.000  
C09  37630991.707   195954367.502        -984.158          23.000  
C16  37148440.370   193441674.773        -872.306          34.000  
C23  22546781.288   117406994.566        -915.200          28.000  
C25  22991628.327   119723456.050       -3113.925          27.000  
C32  24643226.050   128323684.333        1434.481          25.000  
G26  21360862.882   112252033.117        1321.400          24.000  
G31  21093040.292   110844708.300       -1446.724          30.000  
G32  20833901.190   109482889.259        -845.627          31.000  
J01  36927057.430   194052934.7141       -322.358          26.000  
J02  38692105.912   203328364.410       -2156.857          25.000  
R02  19157799.931   102229627.921        -945.322          35.000  
> 2021  9 12 12  1 43.9978752  0 13
C05  39318251.541   204740455.316       -1332.998          32.000  
C07  37020083.929   192773387.0591       -211.932          22.000  
C09  37630881.982   195953790.624        -984.830          25.000  
C16  37148305.463   193440986.026        -871.375          33.000  
C23  22546653.577   117406350.853        -917.527          26.000  
C25  22991929.019   119725009.077       -3114.642          27.000  
C32  24642651.048   128320687.995        1434.664          25.000  
E01  23377445.032   122849302.8011      -1486.933          28.000  
G31  21093014.210   110844579.959       -1446.848          28.000  
G32  20833757.590   109482160.270        -845.905          31.000  
J01  36926820.594   194051682.270        -323.830          24.000  
J02  38692215.636   203328946.159       -2156.866          24.000  
R02  19157677.016   102228973.908        -946.399          35.000  
> 2021  9 12 12  1 44.9978744  0 13
C05  39318267.130   204740539.105       -1332.543          32.000  
C07  37019885.167   192772349.594        -211.308          23.000  
C16  37148232.913   193440609.492        -872.116          33.000  
C23  22546585.524   117406019.157        -917.498          26.000  
C25  22992287.870   119726874.389       -3113.115          26.000  
C32  24642137.803   128318004.116        1435.370          23.000  
E01  23377487.302   122849524.465       -1487.924          29.000  
G26  21359822.902   112246553.1721       1322.411          24.000  
G31  21093048.986   110844765.984       -1445.969          27.000  
G32  20833682.642   109481746.635        -846.817          31.000  
J01  36926644.316   194050745.539        -324.154          26.000  
J02  38692383.520   203329841.896       -2155.364          25.000  
R02  19157614.360   102228640.715        -947.112          36.000  
> 2021  9 12 12  1 45.9978737  0 12
C05  39318313.898   204740778.618       -1332.181          29.000  
C07  37019716.084   192771468.931        -213.140          23.000  
C16  37148190.343   193440391.284        -872.344          27.000  
C23  22546550.448   117405844.576        -918.413          27.000  
C25  22992674.303   119728895.197       -3115.522          25.000  
C32  24641650.041   128315475.854        1435.584          24.000  
E01  23377561.051   122849911.671       -1486.152          30.000  
G26  21359361.822   112244128.586        1320.943          24.000  
G31  21093113.441   110845110.341       -1447.326          25.000  
G32  20833639.172   109481490.755        -849.409          34.000  
J01  36926499.816   194049967.191        -325.336          23.000  
R02  19157581.682   102228468.328        -947.968          35.000  
> 2021  9 12 12  1 46.9978729  0 11
C05  39318330.686   204740862.495       -1332.965          28.000  
C16  37148117.493   193440013.526        -868.868          25.000  
C23  22546487.791   117405514.114        -917.802          30.000  
C25  22993034.354   119730761.209       -3114.769          20.000  
C32  24641133.798   128312790.749        1436.671          23.000  
E01  23377602.423   122850129.335       -1486.725          25.000  
G26  21358871.361   112241548.808        1318.477          26.000  
G32  20833560.027   109481077.592        -847.022          28.000  
J01  36926323.238   194049031.588        -324.856          28.000  
J02  38692757.961   203331786.0181      -2154.479          20.000  
R02  19157522.623   102228136.562        -948.131          29.000  
> 2021  9 12 12  1 47.9978719  0  8
C07  37019258.900   192769085.3441       -212.850          19.000  
C16  37147984.086   193439321.573        -869.703          30.000  
C23  22546361.579   117404870.689        -917.905          32.000  
C32  24640556.398   128309793.698        1435.307          24.000  
G31  21093120.037   110845169.5461      -1448.139          32.000  
G32  20833422.722   109480348.584        -845.630          20.000  
J01  36926083.404   194047780.652        -324.409          28.000  
R02  19157395.511   102227484.510        -947.642          28.000  
> 2021  9 12 12  1 48.9978711  0 12
C07  37019058.939   192768049.481        -212.965          30.000  
C09  37630602.276   195952297.3721       -983.031          25.000  
C16  37147910.637   193438942.423        -869.440          31.000  
C23  22546294.725   117404540.325        -919.072          30.000  
C25  22993700.193   119734176.9621      -3110.833          22.000  
C32  24640039.256   128307108.819        1437.712          23.000  
G10  21716225.770   114119535.9221      -4270.368          18.000  
G31  21093153.314   110845357.246       -1447.661          30.000  
G32  20833345.375   109479933.235        -845.941          26.000  
J01  36925902.929   194046845.035        -323.758          24.000  
J02  38693041.265   203333259.4041      -2154.845          27.000  
R02  19157331.056   102227152.896        -948.529          30.000  
> 2021  9 12 12  1 49.9978701  0 11
C07  37018800.518   192766702.497        -215.875          28.000  
C09  37630493.451   195951720.209        -985.656          26.000  
C16  37147777.529   193438251.114        -870.424          34.000  
C23  22546169.412   117403898.577        -919.859          30.000  
G10  21716738.415   114122230.735       -4269.360          19.000  
G26  21357274.966   112233183.5861       1315.450          24.000  
G31  21093127.831   110845229.646       -1447.892          31.000  
G32  20833205.072   109479204.079        -846.709          31.000  
J01  36925665.794   194045593.756        -324.908          27.000  
J02  38693150.989   203333838.355       -2154.505          29.000  
R02  19157206.642   102226502.087        -949.538          31.000  
> 2021  9 12 12  1 50.9978696  0 11
C07  37018691.693   192766137.706        -216.313          23.000  
C09  37630533.624   195951925.011        -984.772          21.000  
C16  37147792.518   193438343.239        -875.104          36.000  
C25  22994443.078   119738059.6501      -3113.541          25.000  
C32  24639041.247   128301895.4561       1434.438          21.000  
G26  21356875.643   112231080.602        1315.631          23.000  
G31  21093253.445   110845889.964       -1448.186          28.000  
G32  20833214.965   109479263.249        -847.406          32.000  
J01  36925577.055   194045131.022        -324.847          24.000  
J02  38693410.010   203335204.818       -2154.542          27.000  
R02  19157233.623   102226652.481        -950.984          32.000  
> 2021  9 12 12  1 51.9978685  0 11
C09  37630395.419   195951191.248        -982.651          24.000  
C16  37147630.630   193437499.491        -872.847          28.000  
C25  22994710.193   119739456.637       -3114.314          24.000  
C32  24638435.666   128298744.158        1433.198          27.000  
G10  21717883.322   114128246.2061      -4266.276          21.000  
G26  21356296.144   112228031.713        1315.881          26.000  
G31  21093197.983   110845605.201       -1448.384          29.000  
G32  20833044.084   109478378.070        -848.381          30.000  
J01  36925307.841   194043721.905        -323.376          28.000  
J02  38693488.855   203335626.860       -2154.362          26.000  
R02  19157079.530   102225844.167        -952.021          26.000  
> 2021  9 12 12  1 52.9978678  0 10
C07  37018233.011   192763758.7761       -215.658          18.000  
C09  37630376.832   195951080.731        -981.879          27.000  
C16  37147589.259   193437278.170        -871.220          27.000  
C25  22995097.525   119741478.819       -3115.898          29.000  
C32  24637947.004   128296218.359        1432.953          28.000  
G26  21355835.063   112225613.140        1315.785          25.000  
G32  20832994.318   109478123.865        -849.126          32.000  
J01  36925159.144   194042941.950        -322.506          29.000  
J02  38693688.817   203336678.603       -2154.211          27.000  
R02  19157044.754   102225676.543        -952.762          25.000  
> 2021  9 12 12  1 53.9978668  0 11
C07  37017974.589   192762413.519        -215.786          18.000  
C09  37630270.706   195950501.681        -981.965          26.000  
C16  37147456.451   193436587.654        -869.733          27.000  
C25  22995395.819   119743032.725       -3114.890          27.000  
C32  24637369.004   128293223.759        1433.720          25.000  
G26  21355286.143   112222721.476        1316.399          24.000  
G31  21093239.954   110845824.4211      -1449.833          34.000  
G32  20832854.315   109477397.737        -848.894          32.000  
J01  36924920.210   194041689.047        -322.588          30.000  
J02  38693800.040   203337257.791       -2154.813          28.000  
R02  19156919.740   102225029.607        -953.368          28.000  
> 2021  9 12 12  1 54.9978662  0 13
C07  37017834.586   192761691.744        -213.961          23.000  
C09  37630281.498   195950547.517        -983.073          24.000  
C16  37147443.860   193436521.035        -870.642          28.000  
C23  22545899.898   117402416.2081       -924.658          31.000  
C25  22995811.931   119745210.587       -3114.215          27.000  
C32  24636910.921   128290853.312        1433.637          25.000  
G10  21719623.318   114137422.6221      -4270.687          20.000  
G26  21354856.840   112220458.838        1318.091          23.000  
G31  21093334.988                       -1447.692          33.000  
G32  20832839.325   109477302.813        -850.494          31.000  
J01  36924801.792   194041067.505        -324.680          30.000  
J02  38694031.479   203338467.671       -2155.080          28.000  
R02  19156922.738   102225023.382        -953.835          28.000  
> 2021  9 12 12  1 55.9978652  0 11
C07  37017572.868   192760344.703        -214.927          22.000  
C09  37630172.674   195949968.931        -981.787          27.000  
C16  37147312.251   193435830.501        -870.819          29.000  
C23  22545776.983   117401779.452        -923.558          30.000  
C25  22996110.224   119746763.961       -3115.282          27.000  
C32  24636336.219   128287858.105        1433.905          25.000  
G31  21093308.606   110846097.1061      -1449.211          32.000  
G32  20832700.522   109476577.419        -849.507          32.000  
J01  36924563.756   194039816.894        -325.060          29.000  
J02  38694143.902   203339047.557       -2155.334          29.000  
R02  19156802.522   102224377.928        -954.933          30.000  
> 2021  9 12 12  1 56.9978644  0 12
C07  37017372.606   192759310.365        -214.386          23.000  
C09  37630124.407   195949701.939        -983.311          26.000  
C16  37147239.701   193435452.743        -871.444          27.000  
C23  22545713.427   117401453.683        -922.631          29.000  
C25  22996467.877   119748630.834       -3115.908          30.000  
C32  24635819.077   128285177.070        1431.493          24.000  
G10  21720713.963   114143132.5431      -4273.846          19.000  
G31  21093343.082   110846286.102       -1449.277          30.000  
G32  20832621.077   109476166.304        -848.985          29.000  
J01  36924384.780   194038880.667        -322.815          28.000  
J02  38694315.083   203339942.439       -2155.346          29.000  
R02  19156749.458   102224053.335        -955.572          31.000  
> 2021  9 12 12  1 57.9978634  0 10
C09  37630013.484   195949123.564        -982.923          26.000  
C16  37147109.291   193434763.673        -872.217          27.000  
C23  22545590.812   117400814.494        -921.854          30.000  
C25  22996765.870   119750185.157       -3115.136          29.000  
G26  21353271.538   112212100.3831       1310.910          24.000  
G31  21093317.900   110846159.408       -1449.182          29.000  
G32  20832482.273   109475439.876        -849.517          31.000  
J01  36924145.246   194037628.340        -324.339          28.000  
J02  38694426.306   203340522.222       -2154.938          28.000  
R02  19156631.940   102223409.387        -956.128          31.000  
> 2021  9 12 12  1 58.9978629  0  8
C09  37630051.857   195949325.955        -983.051          26.000  
C16  37147127.279   193434854.417        -870.957          29.000  
C23  22545617.794   117400954.896        -920.627          30.000  
C25  22997212.861   119752520.017       -3116.151          28.000  
G31  21093443.513   110846821.147       -1449.596          30.000  
J01  36924055.908   194037164.962        -324.419          27.000  
J02  38694686.826   203341890.077       -2155.387          26.000  
R02  19156661.020   102223565.861        -956.521          30.000  
> 2021  9 12 12  1 59.9978619  0  9
C09  37629940.035   195948747.634        -982.020          28.000  
C16  37146995.070   193434163.352        -869.682          30.000  
C23  22545494.879   117400313.548        -919.696          29.000  
C25  22997510.255   119754074.737       -3115.705          28.000  
C32  24634245.467   128276977.5641       1432.291          25.000  
G26  21352319.097   112207114.5741       1310.032          23.000  
J01  36923819.372   194035913.918        -325.255          27.000  
J02  38694798.948   203342469.705       -2154.659          27.000  
R02  19156544.100   102222922.955        -957.363          31.000  
> 2021  9 12 12  2  0.9978611  0 10
C09  37629888.170   195948480.780        -981.488          29.000  
C16  37146922.521   193433783.396        -869.178          31.000  
C23  22545431.622   117399984.786        -920.931          30.000  
C25  22997867.608   119755940.788       -3114.956          29.000  
C32  24633732.822   128274296.029        1432.173          27.000  
G10  21722984.291   114155017.7211      -4270.840          20.000  
G26  21351830.435   112204543.337        1310.477          26.000  
J01  36923641.895   194034979.042        -325.008          26.000  
J02  38694969.230   203343364.153       -2154.633          28.000  
R02  19156487.140   102222600.745        -958.184          32.000  
> 2021  9 12 12  2  1.9978601  0 10
C09  37629775.748   195947901.477        -981.799          28.000  
C16  37146788.813   193433091.474        -869.509          30.000  
C23  22545308.408   117399345.593        -922.515          31.000  
C25  22998166.201   119757494.538       -3115.732          29.000  
G10  21723494.837   114157714.072       -4272.365          20.000  
G26  21351283.014   112201658.235        1308.702          24.000  
G32  20832159.096                        -853.988          29.000  
J01  36923405.059   194033728.264        -324.870          27.000  
J02  38695079.554   203343943.929       -2156.510          28.000  
R02  19156369.022   102221959.436        -958.926          32.000  
> 2021  9 12 12  2  2.9978596  0 12
C09  37629813.522   195948102.889        -981.760          28.000  
C16  37146807.101   193433179.775        -868.356          30.000  
C23  22545335.089   117399487.797        -923.144          30.000  
C25  22998613.191   119759829.909       -3116.555          28.000  
G10  21724155.880   114161200.740       -4275.670          19.000  
G25  22329308.242   117341305.8611      -4266.798          24.000  
G26  21350885.490   112199562.467        1307.851          23.000  
G31  21093562.231   110847422.1701      -1451.309          25.000  
G32  20832171.388   109473797.7021       -850.488          31.000  
J01  36923316.920   194033265.866        -325.138          24.000  
J02  38695340.373   203345311.998       -2155.765          26.000  
R02  19156400.500   102222118.744        -959.596          31.000  
> 2021  9 12 12  2  3.9978586  0 10
C09  37629701.999   195947523.575        -981.978          28.000  
C16  37146673.693   193432487.072        -869.248          30.000  
C23  22545213.074   117398850.089        -923.657          30.000  
C25  22998911.185   119761384.565       -3115.592          28.000  
C33  23671930.264   123265908.2241      -3744.283          24.000  
G10  21724666.426   114163900.823       -4274.899          21.000  
G32  20832030.186   109473073.034        -851.310          32.000  
J01  36923077.985   194032015.587        -325.178          27.000  
J02  38695448.898   203345891.860       -2154.261          27.000  
R02  19156279.384   102221478.999        -960.724          32.000  
> 2021  9 12 12  2  4.9978578  0 12
C09  37629649.236   195947256.044        -981.343          28.000  
C16  37146600.544   193432107.248        -869.302          30.000  
C23  22545151.017   117398524.630        -924.342          29.000  
C25  22999269.737   119763251.545       -3115.991          28.000  
C32  24631645.067   128263411.8321       1431.357          25.000  
C33  23672409.632   123268403.755       -3744.433          25.000  
G25  22330394.090   117347001.3651      -4265.750          25.000  
G31  21093584.116   110847490.5591      -1451.387          28.000  
G32  20831950.441   109472664.306        -851.912          31.000  
J01  36922897.510   194031080.238        -324.910          28.000  
J02  38695618.581   203346786.445       -2155.283          26.000  
R02  19156219.425   102221160.074        -961.100          33.000  
> 2021  9 12 12  2  5.9978568  0 11
C09  37629538.612   195946676.229        -981.105          27.000  
C16  37146468.635   193431415.720        -869.779          31.000  
C23  22545027.802   117397887.813        -924.166          30.000  
C25  22999566.531   119764807.109       -3117.004          25.000  
C32  24631070.665   128260418.811        1431.050          26.000  
C33  23672829.641   123270587.484       -3744.848          25.000  
G25  22330904.337   117349691.432       -4265.983          25.000  
G31  21093561.931   110847366.402       -1451.281          31.000  
J01  36922657.676   194029829.543        -324.932          26.000  
J02  38695728.305   203347365.816       -2154.984          27.000  
R02  19156102.506   102220521.756        -961.801          32.000  
> 2021  9 12 12  2  6.9978563  0 13
C09  37629575.487   195946876.341        -979.555          27.000  
C16  37146486.023   193431504.651        -869.763          30.000  
C23  22545056.282   117398031.370        -924.877          29.000  
C25  23000014.721   119767143.300       -3116.766          28.000  
C32  24630645.859   128258207.216        1431.116          25.000  
C33  23673398.347   123273551.129       -3744.188          25.000  
G10  21726416.615   114173097.6641      -4275.431          20.000  
G26  21348881.077   112189121.6081       1310.568          26.000  
G31  21093690.542   110848030.431       -1452.224          28.000  
G32  20831823.029   109472005.7851       -852.732          31.000  
J01  36922567.438   194029366.919        -324.342          27.000  
J02  38695990.024   203348733.078       -2155.019          28.000  
R02  19156134.284   102220683.896        -962.297          32.000  
> 2021  9 12 12  2  7.9978552  0 11
C09  37629433.086   195946138.671        -979.662          28.000  
C16  37146322.336   193430658.157        -871.117          30.000  
C23  22544900.990   117397239.173        -925.277          26.000  
C25  23000283.635   119768543.148       -3116.717          27.000  
C32  24630041.177   128255058.315        1431.802          27.000  
C33  23673786.878   123275579.257       -3745.724          25.000  
G26  21348299.180   112186077.994        1310.039          25.000  
G32  20831662.040   109471124.898        -852.664          32.000  
J01  36922300.024   194027957.702        -323.779          27.000  
J02  38696070.668   203349154.980       -2154.991          29.000  
R02  19155986.187   102219886.845        -962.984          32.000  
> 2021  9 12 12  2  8.9978545  0 13
C09  37629411.201   195946026.157        -980.795          26.000  
C16  37146278.866   193430436.031        -870.725          29.000  
C23  22544867.113   117397071.829        -925.735          26.000  
C25  23000675.164   119770567.322       -3116.695          26.000  
C32  24629557.012   128252533.591        1431.937          25.000  
C33  23674297.125   123278231.216       -3744.713          24.000  
G25  22332641.334   117358867.6841      -4266.758          23.000  
G26  21347839.898   112183666.186        1308.181          25.000  
G31  21093698.636   110848098.8231      -1451.485          26.000  
G32  20831619.170                        -854.107          32.000  
J01  36922151.327   194027178.741        -324.354          28.000  
J02  38696270.329   203350207.318       -2155.350          29.000  
R02  19155957.706   102219730.219        -963.797          33.000  
> 2021  9 12 12  2  9.9978534  0 12
C09  37629271.497   195945289.314        -979.490          26.000  
C16  37146114.280   193429588.983        -869.976          28.000  
C23  22544711.221   117396280.603        -925.802          27.000  
C25  23000944.378   119771966.940       -3116.967          27.000  
C32  24628952.931   128249385.542        1429.904          25.000  
C33  23674685.956   123280258.763       -3745.399          25.000  
G10  21727987.827   114181359.0831      -4276.314          19.000  
G26  21347262.198   112180625.269        1307.958          23.000  
G31  21093644.074   110847817.572       -1451.888          29.000  
G32  20831452.486   109470018.0311       -854.068          32.000  
J01  36921883.912   194025770.012        -323.806          27.000  
R02  19155806.911   102218934.563        -964.631          33.000  
> 2021  9 12 12  2 10.9978529  0 13
C09  37629309.271   195945488.138        -979.826          26.000  
C16  37146131.069   193429678.149        -869.512          29.000  
C23  22544738.502   117396425.866        -925.420          26.000  
C25  23001394.366   119774302.910       -3115.442          25.000  
C32  24628528.125   128247174.100        1430.502          26.000  
C33  23675254.362   123283224.241       -3746.874          25.000  
E01                                                                                                                                  23378423.554    91741954.6851      -1118.704          24.000  
G10  21728650.668   114184846.159       -4274.340          19.000  
G26  21346861.975   112178530.458        1307.921          22.000  
G31  21093770.287   110848481.864       -1452.446          30.000  
J01  36921795.773   194025306.168        -323.890          27.000  
J02  38696610.594   203351995.3281      -2154.780          27.000  
R02  19155838.089   102219099.515        -965.124          33.000  
> 2021  9 12 12  2 11.9978519  0  9
C16  37145998.261   193428986.208        -868.922          33.000  
C25  23001696.557   119775856.552       -3114.521          23.000  
C33  23675674.372   123285409.795       -3746.973          27.000  
G10  21729166.011   114187545.853       -4275.757          20.000  
G25  22334292.891   117367569.2791      -4266.520          22.000  
G26  21346312.755   112175646.920        1307.450          19.000  
G31  21093745.404   110848358.777       -1452.833          30.000  
G32  20831318.778   109469363.4331       -855.771          33.000  
R02  19155716.973   102218465.170        -965.997          34.000  
> 2021  9 12 12  2 12.9978511  0  9
C05  39318447.006                       -1335.325          30.000  
C16  37145925.711   193428605.875        -868.445          34.000  
C33  23676152.840   123287908.991       -3749.496          22.000  
G10  21729741.913   114190562.493       -4278.247          23.000  
G25  22334863.096   117370577.034       -4269.670          24.000  
G31  21093781.979   110848551.266       -1452.979          26.000  
G32  20831239.333   109468957.952        -856.015          35.000  
J01  36921387.755   194023120.2641       -324.463          26.000  
R02  19155655.516   102218151.877        -966.954          35.000  
> 2021  9 12 12  2 13.9978501  0 10
C09  37629027.766   195944063.9271       -984.607          22.000  
C16  37145792.603   193427914.470        -870.111          34.000  
C25  23002361.796   119779276.8791      -3116.308          24.000  
C33  23676570.451   123290097.323       -3750.481          22.000  
G10  21730256.956   114193265.411       -4278.348          26.000  
G26  21345275.473   112170194.7491       1307.708          21.000  
G32  20831098.431   109468237.540        -855.700          31.000  
J01  36921153.617   194021869.428        -324.345          25.000  
J02  38696999.425   203354049.5201      -2156.061          24.000  
R02  19155537.397   102217519.516        -967.767          34.000  
> 2021  9 12 12  2 14.9978493  0 11
C05  39318417.326   204741331.0041      -1334.306          30.000  
C09  37628972.305   195943798.203        -982.942          21.000  
C16  37145719.154                        -870.129          33.000  
C23  22544384.447   117394510.7621       -925.968          30.000  
C25  23002722.447   119781144.691       -3117.027          26.000  
G10  21730834.356   114196283.436       -4278.370          26.000  
G25  22335942.349   117376284.9281      -4272.456          24.000  
G32  20831018.986   109467831.947        -855.403          28.000  
J01  36920976.740   194020933.650        -325.047          27.000  
J02  38697169.107   203354944.048       -2155.329          25.000  
R02  19155475.940   102217207.857        -968.649          33.000  
> 2021  9 12 12  2 15.9978486  0 12
C07  37013436.031   192738724.0971       -216.982          28.000  
C09  37628948.921   195943687.846        -981.950          23.000  
C16  37145678.982   193427283.9381       -868.565          34.000  
C23  22544352.669   117394344.765        -927.441          32.000  
C25  23003114.275   119783170.246       -3118.916          27.000  
C33  23677560.066   123295256.5031      -3750.100          21.000  
G10  21731439.637   114199458.952       -4278.531          26.000  
G31  21093865.621   110848969.1741      -1452.543          20.000  
G32  20830973.117   109467584.714        -855.741          27.000  
J01  36920827.743   194020156.367        -325.943          26.000  
J02  38697366.671   203355996.295       -2154.232          26.000  
R02  19155446.260   102217057.145        -969.745          34.000  
> 2021  9 12 12  2 16.9978478  0 13
C07  37013240.267   192737692.038        -216.481          28.000  
C09  37628895.258   195943419.578        -979.745          24.000  
C16  37145607.631   193426904.801        -870.670          34.000  
C23  22544296.308   117394023.857        -928.046          32.000  
C25  23003474.926   119785039.769       -3118.427          26.000  
C33  23678037.935   123297757.447       -3749.509          23.000  
G10  21732014.040   114202477.824       -4279.760          25.000  
G25  22337119.034   117382466.4761      -4270.842          23.000  
G31  21093905.793   110849161.139       -1452.535          27.000  
G32  20830895.771   109467180.441        -856.320          28.000  
J01  36920653.264   194019222.040        -324.909          25.000  
J02  38697534.854   203356889.941       -2154.542          26.000  
R02  19155384.803   102216747.365        -970.654          34.000  
> 2021  9 12 12  2 17.9978468  0 14
C05  39318433.215   204741428.0811      -1332.568          31.000  
C07  37012982.445   192736347.693        -216.852          28.000  
C16  37145474.523   193426213.302        -870.641          34.000  
C23  22544174.593                        -928.067          31.000  
C25  23003775.318   119786597.338       -3118.767          26.000  
C32  24624741.746   128227634.1641       1434.187          17.000  
C33  23678458.244   123299946.161       -3750.166          23.000  
G10  21732529.083   114205180.809       -4278.497          23.000  
G25  22337628.681   117385161.791       -4270.869          23.000  
G31  21093883.608   110849038.797       -1453.523          28.000  
G32  20830758.766   109466461.456        -856.951          25.000  
J01  36920417.327   194017972.151        -325.972          24.000  
J02  38697645.477   203357468.864       -2154.178          26.000  
R02  19155263.687   102216118.473        -971.357          33.000  
> 2021  9 12 12  2 18.9978460  0 11
C07  37012783.083   192735316.117        -217.580          29.000  
C09  37628728.273   195942570.2611       -979.279          22.000  
C16  37145401.374   193425834.002        -869.134          33.000  
C23  22544111.037   117393112.4071       -929.521          31.000  
C25  23004132.970   119788466.616       -3116.883          25.000  
C33  23678940.311   123302448.425       -3751.576          23.000  
G10  21733102.886   114208199.244       -4279.428          21.000  
G31  21093919.883   110849232.893       -1455.225          30.000  
G32  20830682.619   109466058.135        -858.103          26.000  
J02  38697817.858   203358364.327       -2156.700          26.000  
R02  19155204.028   102215810.235        -971.902          33.000  
> 2021  9 12 12  2 19.9978452  0 14
C05  39318466.492   204741594.9971      -1332.389          31.000  
C07  37012583.122   192734284.542        -217.716          29.000  
C16  37145328.524   193425454.560        -869.483          32.000  
C23  22544047.780   117392792.851        -931.147          30.000  
C25  23004491.222   119790335.292       -3118.295          25.000  
C32  24623711.060   128222275.3341       1427.734          18.000  
C33  23679422.977   123304950.800       -3751.366          24.000  
G10  21733679.687   114211219.094       -4280.374          24.000  
G25  22338772.989   117391185.1391      -4274.177          23.000  
G31  21093956.758   110849427.897       -1455.610          32.000  
G32  20830607.071   109465655.771        -857.224          25.000  
J01  36920067.469   194016104.9881       -328.485          21.000  
J02  38697989.639   203359260.324       -2156.362          27.000  
R02  19155142.571   102215502.574        -972.540          32.000  
> 2021  9 12 12  2 20.9978445  0 12
C03  36498009.454   190054712.5331      -1329.117          31.000  
C07  37012415.538   192733409.034        -217.311          29.000  
C09  37628654.525   195942188.2211       -980.028          22.000  
C16  37145285.354   193425231.150        -869.899          33.000  
C23  22544018.101   117392629.759        -929.510          30.000  
C25  23004879.753   119792360.303       -3118.214          25.000  
C32  24623225.096   128219759.284        1417.417          18.000  
C33  23679934.722   123307608.333       -3749.973          24.000  
G10  21734284.968   114214395.886       -4279.615          24.000  
G31  21094022.712   110849780.544       -1456.058          31.000  
J01  36919918.772   194015330.375        -326.882          24.000  
R02  19155114.390   102215355.624        -973.331          33.000  
> 2021  9 12 12  2 21.9978435  0 10
C07  37012157.417   192732066.137        -219.646          27.000  
C09  37628546.000   195941606.621        -980.184          23.000  
C16  37145152.546   193424539.435        -868.206          34.000  
C23  22543894.886   117391998.518        -930.220          31.000  
C25  23005178.946   119793917.124       -3118.394          24.000  
C32  24622649.195   128216781.314        1416.408          18.000  
C33  23680355.331   123309797.677       -3751.149          21.000  
G31  21093996.930   110849661.320       -1455.872          27.000  
J02  38698299.625   203360892.8211      -2154.419          25.000  
R02  19154994.473   102214729.541        -974.112          34.000  
> 2021  9 12 12  2 22.9978427  0 14
C03  36497977.076   190054560.5781      -1329.156          31.000  
C07  37011958.354   192731036.494        -218.593          29.000  
C09  37628491.138   195941337.076        -979.739          22.000  
C16  37145079.996   193424159.799        -868.837          33.000  
C23  22543830.731   117391679.921        -931.744          30.000  
C25  23005537.198   119795786.474       -3118.742          25.000  
C33  23680838.297   123312301.045       -3753.193          24.000  
G10  21735376.812   114220121.4971      -4281.331          21.000  
G25  22340460.521   117400064.1611      -4272.319          21.000  
G31  21094034.104   110849856.887       -1455.993          29.000  
G32  20830355.545   109464291.3051       -858.535          26.000  
J01  36919503.260   194013145.2721       -325.046          22.000  
J02  38698468.708   203361786.086       -2154.141          25.000  
R02  19154934.815   102214424.061        -974.584          32.000  
> 2021  9 12 12  2 23.9978419  0 10
C07  37011760.192   192730006.223        -218.419          30.000  
C16  37145006.547   193423779.838        -867.141          32.000  
C23  22543765.376   117391361.396        -932.236          30.000  
C32  24621617.009   128211449.6151       1420.371          17.000  
C33  23681321.562   123314804.387       -3750.979          25.000  
G10  21735950.615   114223141.669       -4280.404          21.000  
G31  21094070.379   110850052.277       -1455.786          31.000  
G32  20830277.899   109463889.061        -857.878          27.000  
J02  38698636.891   203362680.214       -2154.648          26.000  
R02  19154877.854   102214119.126        -975.400          33.000  
> 2021  9 12 12  2 24.9978412  0 12
C07  37011592.907   192729131.239        -217.671          30.000  
C16  37144963.377   193423555.956        -868.343          32.000  
C23  22543737.195   117391199.379        -930.174          30.000  
C25  23006281.583   119799682.1811      -3118.188          24.000  
C33  23681833.608   123317462.134       -3750.779          24.000  
G25  22341629.712   117406248.0651      -4274.078          22.000  
G31  21094137.233   110850406.062       -1456.643          30.000  
G32  20830231.131   109463644.339        -858.049          25.000  
J01  36919180.083   194011432.0501       -326.108          19.000  
J02  38698835.354   203363731.953       -2154.390          24.000  
R02  19154852.671   102213974.869        -975.660          34.000  
R03  21368778.602   114388744.1831       2166.000          26.000  
> 2021  9 12 12  2 25.9978401  0 12
C03  36497962.386   190054487.7991      -1328.318          30.000  
C07  37011304.807   192727631.552        -217.648          29.000  
C16  37144799.091   193422707.712        -870.460          33.000  
C23  22543586.400   117390413.319        -931.637          30.000  
C25  23006551.096   119801084.000       -3117.486          24.000  
C33  23682224.237   123319495.908       -3751.206          25.000  
G25  22342112.078   117408790.176       -4275.622          19.000  
G26  21339305.706   112138786.0501       1298.268          23.000  
G31  21094084.169   110850130.236       -1457.386          26.000  
J02  38698914.799   203364152.634       -2153.333          22.000  
R02  19154707.572   102213191.456        -977.250          33.000  
R03  21367993.746   114384542.555        2166.566          20.000  
> 2021  9 12 12  2 26.9978394  0 12
C07  37011136.623   192726756.570        -218.032          29.000  
C09  37628249.205   195940111.7061       -980.615          22.000  
C16  37144753.522   193422483.910        -869.322          33.000  
C23  22543554.322   117390252.157        -933.063          30.000  
C25  23006936.629   119803108.133       -3117.726          25.000  
C33  23682736.583   123322153.996       -3750.610          25.000  
G25  22342714.361   117411963.321       -4275.346          21.000  
G31  21094154.021   110850484.298       -1456.497          25.000  
G32  20830024.274   109462525.1071       -859.686          24.000  
J01  36918761.273   194009247.3241       -325.502          21.000  
J02  38699112.662   203365204.548       -2155.300          22.000  
R02  19154680.890   102213049.086        -977.913          33.000  
> 2021  9 12 12  2 27.9978386  0 12
C07  37010938.760   192725725.722        -218.603          28.000  
C16  37144683.671   193422103.814        -868.654          32.000  
C23  22543490.466   117389935.206        -932.559          29.000  
C25  23007293.382   119804976.430       -3117.190          24.000  
C33  23683217.450   123324656.316       -3751.903          26.000  
E19  23887098.506                       -1686.665          26.000  
G25  22343286.665   117414978.955       -4276.492          22.000  
G26  21338360.460   112133824.0131       1300.944          25.000  
G31  21094193.294   110850680.770       -1456.195          21.000  
G32  20829954.123   109462124.651        -860.058          24.000  
J02  38699284.443   203366099.020       -2154.651          24.000  
R02  19154623.930   102212747.503        -978.466          33.000  
> 2021  9 12 12  2 28.9978378  0 13
C03  36498037.934   190054883.6981      -1329.246          31.000  
C07  37010740.897   192724695.497        -218.801          30.000  
C16  37144609.622   193421723.758        -870.159          32.000  
C23  22543429.309   117389618.500        -933.490          29.000  
C25  23007653.733   119806844.962       -3116.949          23.000  
C33  23683695.918   123327159.940       -3753.721          23.000  
E19  23887180.049                       -1686.820          26.000  
G25  22343858.669   117417993.765       -4274.624          22.000  
G26  21337875.996   112131262.696        1300.274          24.000  
G32  20829882.772   109461724.370        -860.209          24.000  
J01  36918405.120   194007379.6431       -328.299          21.000  
J02  38699456.524   203366994.940       -2156.750          24.000  
R02  19154575.064   102212446.836        -979.507          33.000  
> 2021  9 12 12  2 29.9978368  0 14
C03  36497993.565   190054651.954       -1329.614          31.000  
C05  39318512.660   204741814.2721      -1335.845          31.000  
C07  37010482.476   192723353.218        -219.378          29.000  
C16  37144476.814   193421031.438        -868.919          32.000  
C23  22543307.893   117388989.684        -932.116          29.000  
C25  23007953.225   119808402.467       -3119.590          23.000  
E19  23887203.433   125528089.4511      -1686.098          28.000  
G10  21739297.498   114240799.5411      -4280.139          20.000  
G25  22344370.714   117420693.185       -4274.433          23.000  
G31  21094203.187   110850755.8691      -1455.588          22.000  
G32  20829749.065   109461010.154        -860.824          25.000  
J01  36918167.385   194006133.045        -328.704          23.000  
J02  38699569.246   203367577.307       -2157.509          23.000  
R02  19154467.738   102211827.248        -980.401          33.000  
> 2021  9 12 12  2 30.9978360  0 10
C03  36498009.754   190054732.397       -1329.310          31.000  
C05  39318530.048   204741901.436       -1336.477          31.000  
C07  37010284.313   192722323.933        -219.188          28.000  
C16  37144403.065   193420651.318        -868.459          32.000  
C23  22543246.735   117388672.683        -932.008          30.000  
C25  23008312.976   119810273.441       -3119.615          23.000  
C33  23684595.296   123331859.3851      -3754.361          26.000  
G26  21336850.406   112125825.8721       1300.292          26.000  
J02  38699741.327   203368473.329       -2155.906          23.000  
R02  19154414.675   102211528.167        -981.029          33.000  
> 2021  9 12 12  2 31.9978353  0 13
C03  36498055.322   190054968.590       -1328.760          31.000  
C07  37010117.029   192721450.151        -218.764          28.000  
C09  37627965.302   195938603.0201       -980.025          21.000  
C16  37144357.796   193420427.360        -867.241          31.000  
C23  22543216.156   117388511.906        -932.234          29.000  
C25  23008699.409   119812300.694       -3119.397          23.000  
C33  23685105.543   123334521.725       -3755.290          26.000  
E19  23887397.998   125529099.5481      -1688.002          27.000  
G26  21336392.023   112123422.816        1300.635          25.000  
G31  21094297.322   110851304.1971      -1456.503          19.000  
J01  36917840.911   194004425.3321       -326.885          24.000  
J02  38699940.689   203369525.851       -2155.035          25.000  
R02  19154390.691   102211389.564        -981.690          32.000  
> 2021  9 12 12  2 32.9978345  0 10
C07  37009916.468   192720418.996        -216.527          26.000  
C09  37627915.536   195938332.416        -976.442          13.000  
C16  37144285.246   193420047.950        -867.956          27.000  
C23  22543155.298   117388194.510        -930.708          29.000  
C33  23685584.911   123337027.416       -3754.126          25.000  
G26  21335905.460   112120862.543        1299.566          20.000  
G32  20829551.202   109459970.9591       -862.169          20.000  
J01  36917663.433   194003492.365        -327.623          25.000  
R02  19154337.028   102211091.734        -981.664          24.000  
R03  21363444.395   114360189.9021       2162.793          29.000  
> 2021  9 12 12  2 33.9978335  0  6
C09  37627802.215   195937747.676        -976.908          13.000  
C16  37144153.638   193419354.602        -866.881          24.000  
G25  22346635.946   117432608.8681      -4281.207          18.000  
G32  20829415.696   109459258.326        -862.545          21.000  
J01  36917427.497   194002244.064        -325.896          24.000  
R02  19154226.705   102210473.969        -982.785          20.000  
> 2021  9 12 12  2 34.9978327  0  5
C16  37144081.987   193418973.020        -867.197          23.000  
C23  22542973.025   117387246.8471       -933.512          16.000  
C33  23686489.085   123341729.7101      -3757.040          21.000  
G26  21334884.966   112115430.9831       1295.362          20.000  
J01  36917251.519   194001309.682        -325.752          20.000  
> 2021  9 12 12  2 35.9978319  0  6
C16  37144008.238   193418590.870        -866.905          24.000  
C23  22542913.066   117386931.210        -934.215          18.000  
C25  23010067.961   119819478.2781      -3122.305          18.000  
G10  21742728.322   114258790.1931      -4289.165          17.000  
G25  22347780.254   117438377.6261      -4274.808          18.000  
G31  21094391.157   110851782.6991      -1459.702          19.000  
> 2021  9 12 12  2 36.9978312  0  5
C09  37627679.000   195937095.1381       -978.287          13.000  
C16  37143965.068   193418364.826        -867.396          23.000  
G25  22348382.837   117441547.958       -4272.046          18.000  
G26  21333947.216   112110483.1161       1287.214          17.000  
G31  21094461.009   110852139.261       -1459.443          24.000  
> 2021  9 12 12  2 37.9978301  0  8
C07  37008803.638   192714643.2471       -219.455          17.000  
C16  37143802.581   193417514.445        -866.465          27.000  
C33  23687872.627   123348941.1771      -3758.699          15.000  
G10  21743820.167   114264536.6451      -4291.860          15.000  
G25  22348867.601   117444089.829       -4276.329          18.000  
G32  20829036.158   109457356.3431       -862.073          18.000  
R02  19153945.499   102208980.2531       -987.271          20.000  
R03  21360105.906   114342318.5941       2161.844          26.000  
> 2021  9 12 12  2 38.9978294  0  7
C05  39318601.998   204742281.8461      -1333.161          29.000  
C07  37008635.755   192713770.107        -220.518          18.000  
C16  37143759.111   193417288.769        -868.005          29.000  
G10  21744429.944   114267724.960       -4286.809          14.000  
G25  22349465.687   117447264.992       -4277.288          18.000  
R02  19153928.411   102208846.759        -985.567          20.000  
R03  21359505.722   114339105.879        2165.532          19.000  
> 2021  9 12 12  2 39.9978286  0  6
C07  37008437.292   192712741.463        -221.665          19.000  
C16  37143686.861   193416907.800        -868.499          27.000  
C23  22542654.345   117385528.4501       -937.293          19.000  
C25  23011471.890   119826808.5411      -3119.599          17.000  
G32  20828917.740   109456720.8331       -864.938          18.000  
R02  19153861.857   102208551.605        -986.043          20.000  
> 2021  9 12 12  2 40.9978278  0  3
G25  22350611.194   117453298.3711      -4281.343          17.000  
G31  21094565.037   110852627.0851      -1460.595          22.000  
R02  19153803.997   102208258.791        -988.725          21.000  
> 2021  9 12 12  2 41.9978268  0  3
C23  22542473.870   117384593.0771       -937.834          18.000  
G25  22351119.042   117456005.646       -4284.582          15.000  
R02  19153690.376   102207647.579        -988.204          21.000  
> 2021  9 12 12  2 42.9978260  0  8
C25  23012482.790   119832110.2961      -3117.551          18.000  
C33  23690255.677   123361332.7211      -3768.662          13.000  
G10  21746678.388   114279518.9391      -4288.042          14.000  
G25  22351693.744   117459029.491       -4283.015          12.000  
G31  21094584.223   110852708.1381      -1457.368          21.000  
G32  20828626.042   109455220.1991       -865.378          24.000  
R02  19153643.009   102207356.540        -989.675          21.000  
R03  21356822.579   114324742.6381       2161.267          23.000  
> 2021  9 12 12  2 43.9978250  0  7
C16  37143274.046   193414754.6911       -867.145          22.000  
C23  22542291.296   117383657.4061       -935.613          18.000  
C33  23690680.783   123363540.635       -3766.764          13.000  
G25  22352206.689   117461736.486       -4281.306          10.000  
G32  20828487.838   109454509.483        -864.515          23.000  
R02  19153538.681   102206747.001        -990.647          20.000  
R03  21356111.472   114320936.619        2161.444          24.000  
> 2021  9 12 12  2 44.9978245  0  4
C33  23691253.387   123366527.758       -3767.273          14.000  
G10  21747863.767   114285727.0121      -4287.611          15.000  
G32  20828501.628   109454586.164        -864.566          26.000  
R02  19153571.358   102206938.170        -991.436          20.000  
> 2021  9 12 12  2 45.9978235  0  5
C16  37143163.123   193414148.6381       -865.990          21.000  
C32  24610120.268   128151355.6111       1423.803          21.000  
G26  21329416.452   112086728.3461       1295.046          19.000  
G31  21094672.662   110853149.5821      -1460.874          25.000  
G32  20828364.923   109453875.618        -865.140          26.000  
> 2021  9 12 12  2 46.9978227  0  4
C32  24609609.722   128148683.744        1423.176          22.000  
G10  21748951.714   114291464.5871      -4285.776          16.000  
G32  20828289.975   109453480.380        -865.252          26.000  
R02  19153382.489   102206041.8411       -992.491          19.000  
> 2021  9 12 12  2 47.9978217  0  3
C32  24609040.116   128145699.451        1423.993          22.000  
G32  20828155.968   109452770.278        -865.569          26.000  
R02  19153287.455   102205433.245        -991.327          18.000  
> 2021  9 12 12  2 48.9978212  0  5
C16  37142970.357   193413159.1991       -867.926          19.000  
C32  24608618.008   128143494.807        1423.565          24.000  
G26  21327972.052   112079224.6121       1290.537          20.000  
G31  21094824.357   110853907.1251      -1459.819          20.000  
G32  20828169.159   109452848.401        -866.189          27.000  
> 2021  9 12 12  2 49.9978202  0  4
C32  24608045.105   128140511.098        1422.759          24.000  
G10  21750650.038   114300374.5771      -4284.018          15.000  
G26  21327423.132   112076358.829        1290.133          21.000  
G32  20828033.353   109452139.153        -866.535          30.000  
> 2021  9 12 12  2 50.9978194  0  6
C16  37142763.200   193412085.7951       -869.466          19.000  
C32  24607530.361   128137838.988        1422.950          24.000  
G10  21751221.743   114303401.544       -4290.427          14.000  
G26  21326935.670   112073809.029        1288.616          21.000  
G31  21094843.244   110853990.0851      -1459.487          21.000  
G32  20827958.404   109451745.270        -866.551          30.000  
> 2021  9 12 12  2 51.9978184  0  5
C07  37005898.649   192699497.9151       -219.239          20.000  
C32  24606954.760   128134855.310        1422.180          24.000  
G10  21751738.885   114306116.911       -4289.705          11.000  
G31  21094824.657   110853875.596       -1461.676          21.000  
G32  20827824.097   109451036.592        -866.831          30.000  
> 2021  9 12 12  2 52.9978179  0  3
C07  37005791.624   192698937.875        -221.920          20.000  
C32  24606529.954   128132652.563        1422.598          24.000  
G32  20827842.085   109451115.929        -867.183          30.000  
> 2021  9 12 12  2 53.9978168  0  5
C32  24605924.973   128129512.298        1422.685          25.000  
G26  21325419.319   112065851.1531       1285.893          22.000  
G31  21094896.607   110854278.0821      -1461.984          19.000  
G32  20827678.998   109450250.176        -867.183          30.000  
R02  19152936.098   102203553.5151      -1001.187          19.000  
> 2021  9 12 12  2 54.9978161  0  3
C32  24605441.707   128126997.858        1421.507          24.000  
G26  21324965.134   112063462.952        1286.540          22.000  
G32  20827634.629   109450015.100        -868.371          30.000  
> 2021  9 12 12  2 55.9978150  0  4
C07  37005049.637   192695078.1821       -223.047          20.000  
C32  24604837.625   128123860.195        1419.388          24.000  
G26  21324393.130   112060443.523        1286.280          22.000  
G32  20827470.942   109449150.468        -868.317          30.000  
> 2021  9 12 12  2 56.9978145  0  5
C07  37004944.110   192694520.217        -222.814          20.000  
C16  37142288.629   193409647.1601       -866.301          19.000  
C32  24604414.318   128121660.902        1417.898          24.000  
G31  21095038.409   110855031.9811      -1460.776          18.000  
G32  20827486.531   109449230.990        -868.970          30.000  
> 2021  9 12 12  2 57.9978135  0  4
C32  24603842.015   128118680.654        1419.579          23.000  
G26  21323449.983   112055506.6631       1287.559          25.000  
G32  20827353.423   109448524.652        -868.504          29.000  
R02  19152696.864   102202284.8481      -1001.862          17.000  
> 2021  9 12 12  2 58.9978127  0  5
C07  37004487.826   192692152.8081       -220.263          19.000  
C32  24603329.969   128116011.391        1420.747          25.000  
G26  21322964.019   112052958.714        1287.853          24.000  
G31  21095049.201   110855121.4021      -1464.619          21.000  
G32  20827277.276   109448132.184        -867.638          27.000  
> 2021  9 12 12  2 59.9978117  0  5
C07  37004228.506   192690811.486        -220.059          19.000  
C32  24602758.565   128113028.967        1421.459          24.000  
G26  21322415.099   112050096.525        1285.309          24.000  
G32  20827143.269   109447424.634        -869.133          28.000  
R02  19152530.179   102201408.6941      -1001.400          17.000  
> 2021  9 12 12  3  0.9978112  0  5
C07  37004120.880   192690251.772        -222.838          19.000  
C32  24602337.356   128110827.473        1420.987          24.000  
G26  21322021.472   112048023.604        1285.177          25.000  
G32  20827157.659   109447506.317        -869.734          28.000  
R02  19152554.462   102201610.779       -1002.863          18.000  
> 2021  9 12 12  3  1.9978102  0  5
C07  37003864.558   192688912.914        -222.553          19.000  
C32  24601765.052   128107845.057        1421.764          22.000  
G26  21321479.447   112045162.522        1285.533          25.000  
G32  20827022.452   109446800.756        -870.106          29.000  
R02  19152438.743   102201014.725       -1007.131          17.000  
> 2021  9 12 12  3  2.9978094  0  2
G26  21320994.683   112042617.273        1284.885          25.000  
G32  20826947.204   109446410.475        -870.205          29.000  
> 2021  9 12 12  3  3.9978084  0  3
C07  37003409.473   192686547.7901       -222.727          19.000  
G26  21320449.660   112039757.151        1284.930          23.000  
G32  20826811.998   109445705.457        -870.688          28.000  
> 2021  9 12 12  3  4.9978076  0  5
C32  24600169.557   128099522.9021       1420.251          21.000  
G26  21319966.994   112037211.057        1285.415          23.000  
G31  21095183.209   110855886.5201      -1465.735          17.000  
G32  20826736.750   109445315.651        -870.553          28.000  
R02  19152227.988   102199875.6301      -1007.292          14.000  
> 2021  9 12 12  3  5.9978068  0  2
G32  20826662.402   109444925.949        -870.891          29.000  
R02  19152179.722   102199602.946       -1006.944          15.000  
> 2021  9 12 12  3  6.9978061  0  2
G26  21319026.245   112032282.1401       1283.966          24.000  
G32  20826617.133   109444693.996        -870.971          27.000  
> 2021  9 12 12  3  7.9978051  0  5
C32  24598604.041   128091361.6301       1418.994          19.000  
G26  21318481.223   112029423.157        1283.186          24.000  
G31  21095270.748   110856332.0151      -1464.446          17.000  
G32  20826483.126   109443989.610        -871.170          30.000  
R02  19152043.616   102198897.4161      -1008.988          16.000  
> 2021  9 12 12  3  8.9978043  0  5
C32  24598091.396   128088693.120        1421.240          20.000  
G26  21317994.360   112026879.863        1283.962          25.000  
G31  21095308.522   110856536.710       -1466.374          25.000  
G32  20826408.178   109443600.445        -871.449          27.000  
R02  19151992.651   102198625.445       -1006.853          16.000  
> 2021  9 12 12  3  9.9978035  0  5
C23  22540571.687   117374552.3011       -942.569          19.000  
G26  21317510.794   112024335.696        1283.093          24.000  
G31  21095346.595   110856741.960       -1465.750          23.000  
G32  20826332.930   109443211.625        -871.902          28.000  
R02  19151942.886   102198354.365       -1012.785          16.000  
> 2021  9 12 12  3 10.9978028  0  4
C32  24597100.582   128083507.2961       1420.865          19.000  
G26  21317056.909   112021950.734        1281.444          25.000  
G31  21095415.248   110857104.472       -1465.962          23.000  
G32  20826287.661   109442980.853        -872.238          27.000  
> 2021  9 12 12  3 11.9978017  0  4
C23  22540392.411   117373626.0801       -941.602          19.000  
G26  21316481.007   112018935.349        1281.902          25.000  
G31  21095362.784   110856837.639       -1465.948          24.000  
G32  20826122.475   109442120.029        -872.354          26.000  
> 2021  9 12 12  3 12.9978010  0  4
C32  24596022.528   128077859.8091       1419.233          19.000  
G26  21316025.922   112016551.068        1281.215          26.000  
G31  21095431.736   110857200.028       -1464.810          22.000  
G32  20826078.106   109441889.763        -872.638          26.000  
> 2021  9 12 12  3 13.9978002  0  5
C23  22540303.073   117373169.6741       -943.814          20.000  
G26  21315541.158   112014009.936        1280.034          26.000  
G31  21095469.211   110857405.907       -1469.877          20.000  
G32  20826005.257   109441502.048        -872.796          27.000  
J01  36909924.291   193962882.4781       -327.765          25.000  
> 2021  9 12 12  3 14.9977994  0  5
C23  22540243.414   117372865.246        -944.276          24.000  
G26  21315058.492   112011469.892        1279.991          24.000  
G31  21095506.085   110857612.875       -1465.899          16.000  
J01  36909746.814   193961949.442        -327.279          23.000  
R02  19151652.087   102196851.6921      -1012.587          18.000  
> 2021  9 12 12  3 15.9977984  0  5
C23  22540123.497   117372248.497        -945.037          24.000  
G26  21314514.369   112008614.662        1278.878          24.000  
G32  20825801.098   109440411.5311       -872.769          28.000  
J01  36909510.877   193960702.574        -328.890          25.000  
R02  19151542.363   102196264.427       -1013.551          18.000  
> 2021  9 12 12  3 16.9977976  0  6
C05  39318798.662   204743261.9631      -1334.300          25.000  
C23  22540063.539   117371945.022        -946.915          22.000  
G26  21314031.403   112006075.437        1278.617          25.000  
G32  20825727.349   109440024.022        -873.396          27.000  
J01  36909332.801   193959771.068        -327.373          25.000  
R02  19151500.392   102195998.238       -1013.802          19.000  
> 2021  9 12 12  3 17.9977969  0  4
G26  21313578.117   112003694.806        1276.391          23.000  
G32  20825682.680   109439794.665        -873.638          30.000  
J01  36909187.701   193958995.207        -327.527          26.000  
R02  19151483.004   102195891.938       -1013.625          20.000  
> 2021  9 12 12  3 18.9977961  0  4
C23  22539970.303   117371499.2981       -948.287          23.000  
G32  20825608.931   109439408.194        -874.205          27.000  
J01  36909010.524   193958061.898        -326.822          25.000  
R02  19151434.138   102195627.225       -1016.189          24.000  
> 2021  9 12 12  3 19.9977951  0  6
C23  22539847.089   117370886.211        -948.085          24.000  
E01  23380936.415   122867649.6591      -1524.372          24.000  
G26  21312554.925   111998305.6431       1273.020          13.000  
G32  20825477.622   109438706.376        -872.345          25.000  
J01  36908769.790   193956813.109        -325.544          21.000  
R02  19151322.016   102195044.188       -1017.172          24.000  
> 2021  9 12 12  3 20.9977943  0  4
C23  22539786.530   117370584.964        -947.600          27.000  
G32  20825402.374   109438320.472        -874.747          28.000  
J01  36908592.013   193955877.456        -324.097          20.000  
R02  19151271.651   102194781.651       -1017.102          28.000  
> 2021  9 12 12  3 21.9977935  0  6
C16  37140149.609   193398488.6541       -863.070          28.000  
C23  22539726.872   117370284.123        -948.511          27.000  
G26  21311589.294   111993233.9901       1277.684          17.000  
G32  20825327.126   109437934.770        -875.252          27.000  
J01  36908413.637   193954942.456        -326.354          24.000  
R02  19151220.686   102194519.449       -1018.171          28.000  
> 2021  9 12 12  3 22.9977928  0  4
C16  37140107.039   193398258.864        -863.078          29.000  
C23  22539698.392   117370140.593        -949.640          27.000  
G32  20825285.455   109437707.476        -876.119          26.000  
R02  19151201.499   102194417.757       -1017.960          29.000  
> 2021  9 12 12  3 23.9977917  0  7
C16  37139942.153   193397404.169        -862.336          28.000  
C23  22539550.294   117369372.905        -948.936          28.000  
G26  21310561.605   111987842.0071       1277.702          28.000  
G31  21095724.934   110858656.4981      -1463.763          17.000  
G32  20825122.967   109436849.682        -875.410          25.000  
J01  36908000.223   193952762.9841       -328.458          26.000  
R02  19151060.297   102193675.446       -1016.666          32.000  
> 2021  9 12 12  3 24.9977910  0  7
C16  37139896.585   193397173.971        -863.885          30.000  
C23  22539520.615   117369228.765        -948.829          32.000  
G26  21310110.118   111985461.466        1275.486          26.000  
G31  21095792.087   110859018.504       -1467.130          30.000  
G32  20825080.697   109436622.655        -876.032          30.000  
J01  36907856.323   193951989.179        -329.409          28.000  
R02  19151038.712   102193573.238       -1019.030          30.000  
> 2021  9 12 12  3 25.9977902  0  6
C16  37139822.536   193396787.932        -861.897          26.000  
C23  22539462.155   117368927.535        -947.853          22.000  
G26  21309631.349   111982926.857        1273.030          18.000  
G32  20825006.948   109436238.609        -876.301          27.000  
J01  36907679.145   193951058.734        -330.291          22.000  
R02  19150986.548   102193312.103       -1018.944          32.000  
> 2021  9 12 12  3 26.9977894  0  4
C16  37139747.288   193396401.010        -862.324          27.000  
G26  21309149.283   111980392.202        1274.488          20.000  
G32  20824932.899   109435853.729        -875.879          26.000  
R02  19150934.384   102193051.763       -1020.048          34.000  
> 2021  9 12 12  3 27.9977884  0  6
C16  37139612.381   193395701.302        -861.619          27.000  
C23  22539290.974   117368014.0321       -950.973          20.000  
G26  21308608.457   111977542.094        1276.097          19.000  
G31  21095853.844   110859326.4371      -1470.758          16.000  
G32  20824799.791   109435153.464        -875.000          26.000  
R02  19150824.060   102192472.768       -1021.224          33.000  
> 2021  9 12 12  3 28.9977876  0  5
C16  37139536.234   193395314.643        -862.795          26.000  
G31  21095894.616   110859537.066       -1471.063          19.000  
G32  20824727.541   109434768.175        -875.578          27.000  
J01  36907092.152   193947957.5331       -332.093          20.000  
R02  19150774.894   102192214.189       -1021.245          32.000  
> 2021  9 12 12  3 29.9977869  0  6
C16  37139492.464   193395083.612        -861.577          26.000  
C23  22539210.629   117367574.2121       -952.040          22.000  
G31  21095965.667   110859904.353       -1469.140          27.000  
G32  20824682.272   109434541.576        -876.448          28.000  
J01  36906948.251   193947184.996        -327.895          20.000  
R02  19150756.907   102192115.853       -1022.092          32.000  
> 2021  9 12 12  3 30.9977861  0  7
C16  37139418.715   193394697.115        -863.245          27.000  
C23  22539157.566   117367277.526        -952.695          22.000  
G26  21307192.837   111970094.7721       1277.519          20.000  
G31  21096006.439   110860112.866       -1469.230          26.000  
G32  20824609.123   109434158.241        -877.724          26.000  
J01  36906771.374   193946253.954        -329.506          20.000  
R02  19150705.942   102191858.587       -1023.241          33.000  
> 2021  9 12 12  3 31.9977851  0  7
C16  37139284.109   193393999.417        -863.025          26.000  
C23  22539045.144   117366669.315        -951.184          24.000  
G26  21306649.314   111967242.224        1274.824          20.000  
G31  21095987.252   110860006.534       -1469.274          25.000  
G32  20824476.315   109433461.164        -878.553          23.000  
J01  36906534.238   193945008.351        -330.691          20.000  
R02  19150598.017   102191282.612       -1024.357          34.000  
> 2021  9 12 12  3 32.9977843  0  7
C16  37139209.760   193393613.886        -861.977          27.000  
C23  22538991.481   117366371.130        -950.946          23.000  
G26  21306168.147   111964707.863        1272.775          20.000  
G31  21096028.623   110860215.423       -1469.647          27.000  
G32  20824401.967   109433079.431        -878.857          25.000  
J01  36906356.461   193944079.509        -329.871          20.000  
R02  19150550.350   102191027.540       -1025.183          33.000  
> 2021  9 12 12  3 33.9977833  0  6
C16  37139076.053   193392914.665        -863.028          27.000  
C23  22538875.761   117365761.686        -952.684          24.000  
G26  21305627.921   111961859.878        1272.144          21.000  
G31  21096007.338   110860109.452       -1469.532          26.000  
G32  20824270.657   109432382.390        -878.615          24.000  
R02  19150444.523   102190453.279       -1025.897          32.000  
> 2021  9 12 12  3 34.9977828  0  7
C16  37139090.742   193392997.289        -863.162          27.000  
C23  22538910.537   117365933.989        -953.241          23.000  
G26  21305236.991   111959799.955        1272.494          21.000  
G31  21096137.148   110860791.410       -1470.081          28.000  
G32  20824289.844   109432473.228        -878.659          28.000  
J01  36906036.283   193942374.9041       -327.541          18.000  
R02  19150485.595   102190679.694       -1026.664          32.000  
> 2021  9 12 12  3 35.9977818  0  5
C16  37138957.335   193392299.116        -861.818          27.000  
C23  22538796.616   117365325.894        -953.198          23.000  
G31  21096116.462   110860685.827       -1469.560          29.000  
G32  20824160.034   109431776.533        -878.852          26.000  
R02  19150377.969   102190106.906       -1027.407          32.000  
> 2021  9 12 12  3 36.9977810  0  6
C16  37138883.286   193391911.323        -860.844          27.000  
C23  22538743.253   117365030.454        -953.981          23.000  
G26  21304212.001   111954423.1001       1268.202          25.000  
G31  21096155.735   110860895.162       -1470.135          28.000  
G32  20824087.184   109431395.010        -879.228          24.000  
R02  19150330.302   102189854.659       -1028.043          32.000  
> 2021  9 12 12  3 37.9977800  0  6
C16  37138750.178   193391211.451        -861.640          28.000  
C23  22538626.034   117364423.071        -954.375          24.000  
G26  21303672.974   111951579.544        1268.250          23.000  
G31  21096135.050   110860790.584       -1470.964          28.000  
G32  20823955.576   109430698.931        -879.804          26.000  
R02  19150227.773   102189283.188       -1028.825          32.000  
> 2021  9 12 12  3 38.9977795  0  6
C16  37138766.667   193391292.926        -861.909          28.000  
C23  22538658.711   117364598.314        -956.982          22.000  
G26  21303281.145   111949523.990        1267.420          23.000  
G31  21096263.661   110861473.901       -1470.201          28.000  
G32  20823976.561   109430790.894        -879.940          26.000  
R02  19150278.438   102189512.336       -1029.369          30.000  
> 2021  9 12 12  3 39.9977784  0  6
C07  36995957.831   192647767.0051       -225.026          23.000  
C16  37138602.381   193390437.440        -861.798          28.000  
G26  21302710.640   111946524.512        1266.104          24.000  
G31  21096212.996   110861211.640       -1471.246          29.000  
G32  20823816.472   109429937.845        -880.153          24.000  
R02  19150144.731   102188782.337       -1030.197          32.000  
> 2021  9 12 12  3 40.9977777  0  7
C07  36995790.547   192646899.693        -225.443          23.000  
C16  37138557.711   193390207.110        -862.421          28.000  
C23  22538480.635   117363696.0601       -952.595          22.000  
G26  21302259.752   111944156.085        1265.282          25.000  
G31  21096281.348   110861580.536       -1472.397          29.000  
G32  20823777.799   109429715.177        -880.865          20.000  
R02  19150133.339   102188693.304       -1031.502          33.000  
> 2021  9 12 12  3 41.9977766  0  6
C07  36995504.545   192645408.711        -226.829          24.000  
C16  37138392.826   193389351.198        -860.436          27.000  
G26  21301689.247   111941157.669        1265.663          24.000  
G31  21096230.983   110861319.770       -1471.536          29.000  
G32  20823616.210   109428863.409        -881.316          21.000  
R02  19149997.832   102187965.543       -1032.347          31.000  
> 2021  9 12 12  3 42.9977761  0  5
C07  36995399.018   192644854.903        -225.301          24.000  
C16  37138407.515   193389431.441        -861.423          27.000  
G26  21301298.918   111939103.496        1266.692          24.000  
G31  21096359.894   110862003.327       -1470.891          27.000  
R02  19150044.300   102188198.256       -1032.866          32.000  
> 2021  9 12 12  3 43.9977751  0  5
C07  36995143.295   192643519.102        -224.904          23.000  
C16  37138274.408   193388732.951        -863.693          27.000  
G26  21300757.792   111936261.509        1266.645          25.000  
G31  21096337.709   110861899.390       -1471.814          29.000  
R02  19149938.473   102187631.577       -1033.656          33.000  
> 2021  9 12 12  3 44.9977743  0  6
C07  36994947.831   192642495.493        -225.515          23.000  
C16  37138200.958   193388346.807        -862.732          28.000  
C23  22538188.337   117362213.7561       -958.009          19.000  
G26  21300276.326   111933734.281        1267.444          26.000  
G31  21096375.783   110862111.351       -1472.879          29.000  
R02  19149891.106   102187385.638       -1034.430          33.000  
> 2021  9 12 12  3 45.9977733  0  5
C07  36994691.808   192641159.966        -225.497          23.000  
C16  37138067.251   193387648.377        -862.404          28.000  
C23  22538071.118   117361611.849        -958.328          19.000  
G26  21299735.200   111930892.052        1266.216          26.000  
R02  19149783.481   102186820.525       -1035.167          32.000  
> 2021  9 12 12  3 46.9977728  0  6
C07  36994585.381   192640605.043        -226.434          23.000  
C16  37138084.039   193387728.785        -859.838          27.000  
G26  21299341.872   111928838.847        1264.566          24.000  
G31  21096486.107   110862695.7601      -1473.284          26.000  
G32  20823309.523   109427286.8791       -883.146          18.000  
R02  19149828.749   102187055.975       -1035.789          28.000  
> 2021  9 12 12  3 47.9977718  0  6
C07  36994329.958   192639271.495        -227.588          23.000  
C16  37137949.732   193387027.831        -860.494          28.000  
C23  22537986.277   117361184.8691       -955.759          23.000  
G26  21298800.747   111925998.630        1264.650          28.000  
G32  20823176.715   109426594.451        -883.006          26.000  
R02  19149722.923   102186492.282       -1036.447          24.000  
> 2021  9 12 12  3 48.9977710  0  7
C07  36994132.695   192638248.324        -225.150          25.000  
C16  37137875.983   193386639.571        -862.232          25.000  
C23  22537927.218   117360891.105        -954.794          27.000  
G26  21298320.180   111923472.949        1265.822          25.000  
G31  21096507.692   110862806.3871      -1471.531          22.000  
G32  20823102.966   109426217.337        -883.255          23.000  
R02  19149675.256   102186248.596       -1036.834          31.000  
> 2021  9 12 12  3 49.9977700  0  6
C07  36993876.972   192636911.383        -223.807          23.000  
C16  37137741.077   193385940.263        -860.298          25.000  
G26  21297778.155   111920631.654        1265.244          24.000  
G31  21096486.406   110862703.741       -1474.260          27.000  
G32  20822970.158   109425525.122        -883.635          25.000  
R02  19149567.930   102185685.944       -1037.998          33.000  
> 2021  9 12 12  3 50.9977695  0  4
C07  36993770.246   192636354.761        -226.110          21.000  
G26  21297388.125   111918579.701        1263.337          24.000  
G32  20822986.347   109425621.633        -884.825          22.000  
R02  19149610.201   102185923.882       -1038.069          33.000  
> 2021  9 12 12  3 51.9977684  0  5
C16  37137591.480   193385163.5471       -860.356          27.000  
G26  21296817.920   111915583.377        1264.325          24.000  
G31  21096566.751   110863130.8481      -1473.449          22.000  
G32  20822824.459   109424773.553        -884.604          19.000  
R02  19149474.095   102185204.049       -1041.736          23.000  
> 2021  9 12 12  3 52.9977677  0  4
C16  37137548.610   193384930.357        -859.174          26.000  
G26  21296366.133   111913216.166        1264.132          26.000  
G32  20822781.288   109424555.003        -883.402          25.000  
R02  19149460.005   102185126.128       -1041.432          25.000  
> 2021  9 12 12  3 53.9977667  0  5
C07  36993063.335   192632660.3041       -226.267          19.000  
C16  37137414.903   193384228.673        -859.514          27.000  
G26  21295824.108   111910376.469        1264.596          20.000  
G31  21096623.711   110863402.3931      -1476.310          25.000  
R02  19149352.679   102184567.937       -1043.332          26.000  
> 2021  9 12 12  3 54.9977661  0  6
C07  36992929.328   192631950.217        -226.143          18.000  
C16  37137401.712   193384150.855        -858.875          23.000  
G26  21295405.897   111908164.526        1267.729          23.000  
G31  21096724.142   110863934.396       -1478.892          26.000  
G32  20822639.187   109423799.7341       -884.273          21.000  
R02  19149364.671   102184650.013       -1041.222          30.000  
> 2021  9 12 12  3 55.9977651  0  5
C07  36992673.605   192630616.045        -228.004          19.000  
C16  37137268.604   193383448.131        -859.249          21.000  
G31  21096704.355   110863836.609       -1477.331          18.000  
G32  20822507.278   109423109.985        -886.130          26.000  
R02  19149257.045   102184092.421       -1043.629          25.000  
> 2021  9 12 12  3 56.9977644  0  4
C07  36992506.621   192629754.082        -231.443          19.000  
G26  21294413.884   111902956.4001       1263.009          16.000  
G31  21096780.203   110864210.096       -1475.202          28.000  
R02  19149239.657   102184015.930       -1043.450          26.000  
> 2021  9 12 12  3 57.9977633  0  4
C16  37137056.950   193382357.7591       -859.441          21.000  
G31  21096734.934   110863952.411       -1474.371          26.000  
G32  20822306.717   109422046.4721       -885.912          29.000  
R02  19149105.950   102183299.497       -1043.090          27.000  
> 2021  9 12 12  3 58.9977626  0  5
C07  36992056.632   192627410.7121       -231.486          18.000  
G26  21293399.386   111897600.6871       1257.585          14.000  
G31  21096808.983   110864323.550       -1474.061          25.000  
G32  20822266.245   109421829.270        -885.692          28.000  
R02  19149088.862   102183223.454       -1043.850          26.000  
> 2021  9 12 12  3 59.9977618  0  6
C07  36991859.968   192626392.653        -231.247          18.000  
C16  37136934.635   193381733.5571       -859.006          25.000  
G26  21292922.117   111895084.350        1251.956          13.000  
G31  21096847.057   110864538.056       -1475.652          26.000  
G32  20822194.894   109421454.538        -885.645          26.000  
R02  19149045.692   102182987.863       -1044.713          33.000  
> 2021  9 12 12  4  0.9977610  0  4
C16  37136859.987   193381344.062        -860.321          24.000  
G31  21096888.428   110864754.109       -1476.658          31.000  
G32  20822124.143   109421078.865        -884.772          29.000  
R02  19149001.322   102182752.888       -1044.921          30.000  
> 2021  9 12 12  4  1.9977600  0  4
C16  37136723.581   193380643.697        -862.072          21.000  
G26  21291911.217   111889739.2261       1257.373          11.000  
G32  20821991.335   109420388.055        -885.225          28.000  
R02  19148900.892   102182198.715       -1046.926          19.000  
> 2021  9 12 12  4  2.9977592  0  4
C07  36991209.419   192623032.4201       -233.656          16.000  
G26  21291432.148   111887222.930        1256.029          10.000  
G32  20821918.186   109420013.615        -886.771          28.000  
R02  19148857.122   102181965.969       -1047.397          22.000  
> 2021  9 12 12  4  3.9977585  0  3
C16  37136600.067   193380025.4111       -860.036          24.000  
G31  21096995.754   110865235.4901      -1472.363          19.000  
G32  20821876.215   109419797.925        -887.683          28.000  
> 2021  9 12 12  4  4.9977577  0  3
C16  37136524.519   193379636.887        -859.255          24.000  
G32  20821803.665   109419425.482        -887.988          28.000  
R02  19148793.866   102181661.9401      -1048.315          25.000  
> 2021  9 12 12  4  5.9977567  0  4
C16  37136390.812   193378934.670        -857.467          24.000  
G31  21097025.133   110865615.1111      -1476.094          20.000  
G32  20821672.356   109418738.023        -888.228          29.000  
R02  19148687.140   102181110.686       -1048.745          22.000  
> 2021  9 12 12  4  6.9977559  0  3
C16  37136314.365   193378543.967        -858.547          23.000  
G32  20821602.205   109418365.890        -888.341          29.000  
R02  19148642.171   102180880.036       -1049.595          24.000  
> 2021  9 12 12  4  7.9977551  0  4
C16  37136239.416   193378153.545        -858.661          24.000  
G31  21097107.277   110866047.5311      -1477.467          21.000  
G32  20821533.852   109417993.926        -888.504          28.000  
R02  19148601.999   102180650.341       -1051.096          25.000  
> 2021  9 12 12  4  8.9977544  0  3
C16  37136194.148   193377920.083        -858.740          25.000  
G32  20821495.479   109417779.768        -889.115          29.000  
R02  19148587.609   102180581.779       -1051.719          25.000  
> 2021  9 12 12  4  9.9977533  0  5
C16  37136028.962   193377060.718        -857.340          23.000  
C23  22536481.019   117353436.9181       -961.998          25.000  
C25  23042933.309   119990495.6451      -3129.620          23.000  
G32  20821335.090   109416936.087        -889.751          30.000  
R02  19148463.794   102179874.091       -1053.185          25.000  
> 2021  9 12 12  4 10.9977526  0  4
C23  22536456.736   117353306.932        -964.078          26.000  
C25  23043319.742   119992532.524       -3130.664          23.000  
G32  20821295.517   109416723.013        -889.813          26.000  
R02  19148456.599   102179807.650       -1053.580          27.000  
> 2021  9 12 12  4 11.9977518  0  5
C16  37135912.643   193376438.0301       -860.322          20.000  
C23  22536404.272   117353022.990        -965.588          15.000  
C25  23043680.692   119994414.384       -3131.834          25.000  
G32  20821229.563   109416352.346        -889.978          20.000  
R02  19148417.327   102179581.642       -1054.171          29.000  
> 2021  9 12 12  4 12.9977510  0  3
C25  23044038.644   119996296.560       -3131.270          22.000  
G32  20821152.216   109415982.328        -890.543          19.000  
R02  19148378.054   102179356.267       -1054.900          28.000  
> 2021  9 12 12  4 13.9977500  0  4
C16  37135708.784   193375348.0391       -858.690          20.000  
C23  22536237.887   117352149.5471       -970.585          15.000  
G31  21097264.068   110866877.5791      -1475.372          20.000  
R02  19148277.623   102178811.820       -1055.663          28.000  
> 2021  9 12 12  4 14.9977492  0  3
C23  22536185.723   117351874.990        -975.507          14.000  
G32  20820957.651   109414927.4681       -890.517          19.000  
R02  19148238.051   102178587.801       -1055.981          28.000  
> 2021  9 12 12  4 15.9977485  0  4
C16  37135590.965   193374724.5561       -861.176          21.000  
C23  22536163.539   117351755.843        -973.840          13.000  
C25  23045093.913   120001790.4691      -3130.345          18.000  
R02  19148229.357   102178524.418       -1057.088          28.000  
> 2021  9 12 12  4 16.9977477  0  4
C16  37135517.816   193374334.967        -858.274          20.000  
G31  21097409.168   110867682.2001      -1477.382          19.000  
G32  20820851.524   109414346.4421       -892.436          18.000  
R02  19148188.285   102178301.833       -1057.906          27.000  
> 2021  9 12 12  4 17.9977467  0  1
R02  19148089.653   102177760.315       -1059.257          23.000  
> 2021  9 12 12  4 18.9977459  0  2
G31  21097430.153   110867804.0061      -1479.996          26.000  
R02  19148056.376   102177539.685       -1059.215          22.000  
> 2021  9 12 12  4 19.9977452  0  6
C16  37135261.194   193373004.8251       -858.150          20.000  
C23  22535909.614   117350463.1121       -962.541          16.000  
E19  23895367.681   125570939.6391      -1716.504          29.000  
G31  21097502.703   110868180.590       -1477.659          22.000  
J01  36897596.525   193898017.0001       -332.838          25.000  
R02  19148048.282   102177479.134       -1059.989          24.000  
> 2021  9 12 12  4 20.9977444  0  4
C16  37135186.845   193372612.786        -858.206          21.000  
C23  22535853.553   117350176.599        -962.938          18.000  
E19  23895453.722   125571394.856       -1715.250          28.000  
J01  36897416.650   193897090.091        -331.675          25.000  
> 2021  9 12 12  4 21.9977434  0  6
C23  22535738.433   117349578.645        -964.028          24.000  
C25  23047155.586   120012609.9011      -3130.299          19.000  
E01  23383568.592   122881481.4451      -1548.893          24.000  
G32  20820416.226   109412031.0451       -892.943          18.000  
J01  36897180.114   193895845.751        -332.095          25.000  
R02  19147900.784   102176721.4711      -1059.809          28.000  
> 2021  9 12 12  4 22.9977426  0  5
C16  37134982.686   193371525.2291       -861.283          21.000  
C23  22535682.971   117349295.191        -966.332          24.000  
E01  23383624.054   122881773.109       -1549.958          25.000  
G31  21097551.869   110868519.3391      -1481.827          14.000  
J01  36897002.337   193894917.965        -333.716          24.000  
> 2021  9 12 12  4 23.9977418  0  6
C16  37134909.537   193371137.463        -861.746          21.000  
C23  22535628.709   117349013.524        -968.169          24.000  
C25  23047877.187   120016374.5391      -3131.859          21.000  
E01  23383677.717   122882055.773       -1550.473          25.000  
J01  36896824.260   193893990.144        -331.796          26.000  
R02  19147804.851   102176287.7271      -1063.387          26.000  
> 2021  9 12 12  4 24.9977411  0  5
C23  22535603.826   117348889.452        -969.088          23.000  
C25  23048268.416   120018412.355       -3130.152          22.000  
G31  21097669.088   110869123.2411      -1486.886          13.000  
J01  36896675.563   193893219.369        -331.841          26.000  
R02  19147794.658   102176231.286       -1063.026          26.000  
> 2021  9 12 12  4 25.9977400  0  6
C16  37134699.682   193370046.4481       -857.278          19.000  
C23  22535458.427   117348140.012        -966.963          25.000  
C25  23048540.328   120019825.705       -3131.258          22.000  
G31  21097621.720   110868882.333       -1494.050          12.000  
J01  36896407.848   193891818.353        -331.960          25.000  
R02  19147662.149   102175534.845       -1063.757          28.000  
> 2021  9 12 12  4 26.9977393  0  5
C16  37134655.613   193369809.033        -855.112          19.000  
C23  22535434.443   117348015.439        -968.681          25.000  
G32  20820023.797   109410049.1031       -896.301          18.000  
J01  36896260.051   193891047.287        -331.728          26.000  
R02  19147654.355   102175478.811       -1063.948          28.000  
> 2021  9 12 12  4 27.9977382  0  7
C16  37134491.027   193368945.609        -852.906          19.000  
C23  22535290.243   117347266.069        -967.535          24.000  
C33  23740052.104   123620682.0571      -3789.446          24.000  
E19  23895885.723   125573645.6761      -1716.497          28.000  
G32  20819866.406   109409211.276        -895.025          19.000  
J01  36895993.535   193889645.888        -331.760          27.000  
R02  19147524.844   102174782.481       -1063.813          27.000  
> 2021  9 12 12  4 28.9977377  0  8
C16  37134506.916   193369018.288        -853.056          18.000  
C23  22535326.518   117347453.151        -967.673          24.000  
C33  23740629.504   123623690.927       -3789.340          23.000  
E19  23896062.300   125574575.096       -1717.052          28.000  
G31  21097776.413   110869734.2021      -1483.859          12.000  
G32  20819887.092   109409319.795        -896.669          19.000  
J01  36895905.996   193889189.664        -331.467          26.000  
R02  19147570.413   102175047.157       -1065.314          28.000  
> 2021  9 12 12  4 29.9977367  0  5
C23  22535212.297   117346860.554        -967.745          25.000  
C33  23741057.008   123625919.514       -3790.005          24.000  
E19  23896090.181   125574715.920       -1716.766          28.000  
J01  36895668.860   193887945.846        -332.523          27.000  
R02  19147468.783   102174513.254       -1066.393          28.000  
> 2021  9 12 12  4 30.9977359  0  8
C16  37134294.363   193367918.9501       -856.873          19.000  
C23  22535159.234   117346580.048        -968.274          23.000  
C33  23741545.070   123628462.480       -3793.138          23.000  
E19  23896179.219   125575172.372       -1718.119          27.000  
G31  21097795.600   110869859.4791      -1475.637          15.000  
G32  20819692.827   109408277.1271       -897.859          20.000  
J01  36895492.882   193887017.533        -331.877          28.000  
R02  19147425.913   102174300.203       -1067.136          25.000  
> 2021  9 12 12  4 31.9977349  0  8
C16  37134156.458   193367214.334        -856.495          20.000  
C23  22535045.912   117345987.349        -968.685          25.000  
C33  23741974.073   123630694.947       -3793.466          22.000  
E19  23896205.002   125575315.526       -1719.928          27.000  
G31  21097777.013   110869759.409       -1475.490          16.000  
G32  20819564.515   109407600.572        -899.425          20.000  
J01  36895256.046   193885774.313        -332.687          28.000  
R02  19147324.583   102173767.866       -1067.947          27.000  
> 2021  9 12 12  4 32.9977344  0  6
C16  37134170.549   193367292.538        -861.391          20.000  
C23  22535082.487   117346176.216        -969.928          27.000  
C33  23742554.472   123633708.826       -3794.686          22.000  
E19  23896380.680   125576247.785       -1720.471          28.000  
G31  21097906.823   110870446.835       -1475.440          16.000  
J01  36895171.504   193885319.734        -333.399          28.000  
> 2021  9 12 12  4 33.9977334  0  5
C23  22534969.465   117345585.270        -969.835          27.000  
E19  23896407.062   125576393.264       -1720.691          27.000  
G32  20819443.099   109407030.7141       -896.160          19.000  
J01  36894935.568   193884077.834        -333.530          29.000  
R02  19147280.214   102173505.3301      -1069.023          27.000  
> 2021  9 12 12  4 34.9977326  0  5
C23  22534917.301   117345304.376        -967.181          26.000  
C25  23051744.809   120036458.6791      -3132.688          20.000  
E19  23896494.901   125576853.055       -1719.071          26.000  
J01  36894759.589   193883150.452        -332.191          29.000  
R02  19147230.148   102173294.994       -1070.077          22.000  
> 2021  9 12 12  4 35.9977316  0  5
C23  22534802.781   117344711.406        -969.616          27.000  
E19  23896521.283   125576996.234       -1717.848          28.000  
G32  20819232.345   109405986.8531       -896.098          19.000  
J01  36894523.953   193881906.934        -332.286          26.000  
R02  19147128.519   102172765.862       -1070.798          18.000  
> 2021  9 12 12  4 36.9977311  0  5
C23  22534840.255   117344901.453        -970.904          27.000  
C33  23744475.542   123643736.6641      -3794.300          18.000  
E19  23896699.659   125577926.620       -1718.415          27.000  
J01  36894435.514   193881452.336        -333.946          26.000  
R02  19147181.582   102173037.345       -1071.951          21.000  
> 2021  9 12 12  4 37.9977300  0  5
C23  22534697.853   117344155.288        -971.033          29.000  
C25  23052773.097   120041802.1041      -3134.872          20.000  
E19  23896697.261   125577911.990       -1718.091          27.000  
G32  20819092.342   109405260.1541       -897.427          19.000  
R02  19147048.474   102172349.911       -1072.534          25.000  
> 2021  9 12 12  4 38.9977293  0  6
C23  22534674.469   117344033.669        -971.680          30.000  
C33  23745387.810   123648515.4241      -3794.124          19.000  
E19  23896814.480   125578528.664       -1721.017          27.000  
G32  20819057.866   109405054.859        -897.714          20.000  
J01  36894025.697   193879285.1061       -333.084          26.000  
R02  19147041.579   102172303.176       -1073.365          25.000  
> 2021  9 12 12  4 39.9977283  0  6
C23  22534562.647   117343444.466        -972.271          31.000  
C25  23053468.616   120045416.0801      -3133.744          20.000  
C33  23745815.314   123650748.892       -3794.071          20.000  
E19  23896843.260   125578675.074       -1722.658          25.000  
J01  36893788.562   193878042.528        -332.874          27.000  
R02  19146943.247   102171777.182       -1074.221          24.000  
> 2021  9 12 12  4 40.9977277  0  5
C23  22534571.641   117343480.496        -973.140          30.000  
C33  23746362.735   123653605.193       -3792.306          20.000  
G32  20818921.760   109404330.7661       -898.635          20.000  
J01  36893672.542   193877430.025        -333.316          27.000  
R02  19146972.627   102171891.768       -1075.011          24.000  
> 2021  9 12 12  4 41.9977267  0  7
C23  22534458.319   117342892.671        -972.907          28.000  
C25  23054195.912   120049181.2721      -3130.224          20.000  
E19  23897021.936   125579600.9731      -1725.396          22.000  
G31  21098149.055   110871618.5531      -1484.398          20.000  
G32  20818795.848   109403654.014        -898.690          20.000  
J01  36893434.807   193876187.958        -332.721          28.000  
R02  19146881.190   102171367.240       -1075.658          24.000  
> 2021  9 12 12  4 42.9977260  0  4
C23  22534436.734   117342772.747        -973.193          29.000  
G32  20818752.677   109403449.989        -898.812          20.000  
J01  36893287.908   193875418.102        -333.350          28.000  
R02  19146875.194   102171323.185       -1076.003          25.000  
> 2021  9 12 12  4 43.9977249  0  3
C23  22534294.333   117342029.060        -974.002          29.000  
J01  36893021.992   193874018.375        -333.360          28.000  
R02  19146748.682   102170639.872       -1076.860          27.000  
> 2021  9 12 12  4 44.9977244  0  4
C23  22534330.907   117342221.977        -972.956          30.000  
G32  20818618.970   109402728.6221       -899.835          21.000  
J01  36892935.952   193873564.193        -333.259          28.000  
R02  19146803.244   102170917.131       -1077.493          28.000  
> 2021  9 12 12  4 45.9977234  0  3
C23  22534217.886   117341633.889        -973.853          30.000  
C25  23055614.230   120056550.3091      -3129.881          17.000  
R02  19146709.109   102170395.210       -1078.214          25.000  
> 2021  9 12 12  4 46.9977226  0  5
C23  22534165.422   117341358.903        -973.981          30.000  
C25  23055974.881   120058432.221       -3131.966          18.000  
G32  20818427.403   109401691.7311       -899.219          23.000  
J01  36892523.737   193871395.5171       -333.166          27.000  
R02  19146673.734   102170193.609       -1078.580          23.000  
> 2021  9 12 12  4 47.9977216  0  4
C23  22534052.400   117340771.985        -975.340          30.000  
G32  20818298.192   109401015.979        -900.360          14.000  
J01  36892287.801   193870153.679        -333.710          27.000  
R02  19146580.198   102169673.102       -1079.362          23.000  
> 2021  9 12 12  4 48.9977208  0  3
C23  22533998.138   117340498.348        -974.871          28.000  
J01  36892111.223   193869226.392        -332.640          27.000  
R02  19146546.022   102169472.932       -1079.889          21.000  
> 2021  9 12 12  4 49.9977201  0  3
C23  22533975.953   117340379.368        -973.373          23.000  
C25  23057026.253   120063916.8031      -3126.541          18.000  
G32  20818186.369   109400456.6441       -901.510          17.000  
> 2021  9 12 12  4 50.9977193  0  3
C23  22533921.091   117340103.877        -973.291          22.000  
R02  19146489.361   102169234.5151      -1081.290          25.000  
R03  21273478.178   113878594.0971       2133.160          26.000  
> 2021  9 12 12  4 51.9977183  0  4
C23  22533806.570   117339516.329        -973.438          22.000  
G31  21098461.439   110873243.4011      -1484.761          24.000  
G32  20817991.205   109399422.4851       -899.817          28.000  
R02  19146396.725   102168716.074       -1081.606          26.000  
> 2021  9 12 12  4 52.9977175  0  4
C23  22533752.008   117339240.850        -973.946          25.000  
G31  21098503.110   110873467.840       -1485.026          26.000  
G32  20817924.051   109399062.631        -902.568          20.000  
R02  19146362.249   102168518.888       -1083.215          26.000  
> 2021  9 12 12  4 53.9977167  0  3
C23  22533700.144   117338966.315        -975.746          25.000  
R02  19146313.683   102168322.720       -1084.444          20.000  
R03  21271489.654   113867948.7451       2131.525          30.000  
> 2021  9 12 12  4 54.9977160  0  3
C23  22533678.259   117338849.947        -977.696          23.000  
G31  21098611.036   110874075.6481      -1485.405          25.000  
R03  21270883.774   113864705.519        2130.695          29.000  
> 2021  9 12 12  4 55.9977149  0  3
C23  22533536.457   117338110.972        -979.485          27.000  
G31  21098559.171   110873828.047       -1486.423          23.000  
G32  20817665.930   109397672.7561       -898.508          18.000  
> 2021  9 12 12  4 56.9977142  0  5
C23  22533514.572   117337997.240        -979.044          28.000  
G31  21098629.023   110874213.287       -1489.770          24.000  
G32  20817629.055   109397468.304        -897.818          19.000  
R02  19146185.072   102167575.7171      -1082.315          18.000  
R03  21269549.397   113857562.2751       2132.068          24.000  
> 2021  9 12 12  4 57.9977134  0  2
G31  21098670.994   110874442.046       -1487.733          24.000  
R03  21268912.338   113854152.063        2133.116          20.000  
> 2021  9 12 12  4 58.9977126  0  3
G31  21098712.665   110874667.625       -1484.371          22.000  
G32  20817492.350   109396747.6881       -900.936          19.000  
R03  21268274.980   113850740.370        2131.873          23.000  
> 2021  9 12 12  4 59.9977116  0  2
R02  19145998.601   102166674.7341      -1083.715          16.000  
R03  21267580.960   113847025.365        2128.635          22.000  
> 2021  9 12 12  5  0.9977108  0  2
C23  22533249.256   117336605.2531       -978.926          16.000  
R03  21266943.302   113843612.410        2127.785          21.000  
> 2021  9 12 12  5  1.9977101  0  3
C23  22533227.072   117336491.145        -980.061          18.000  
G32  20817262.409   109395511.9681       -898.153          17.000  
R03  21266339.520   113840379.668        2128.184          22.000  
> 2021  9 12 12  5  2.9977093  0  3
C23  22533175.507   117336222.370        -979.923          19.000  
R02  19145920.955   102166256.2291      -1089.759          15.000  
R03  21265710.855   113837014.851        2130.053          23.000  
> 2021  9 12 12  5  3.9977083  0  2
R02  19145819.325   102165745.086       -1091.281          15.000  
R03  21265012.638   113833277.194        2129.504          26.000  
> 2021  9 12 12  5  4.9977075  0  4
C23  22533013.020   117335374.2871       -982.464          21.000  
G31  21098892.840   110875567.0721      -1491.823          17.000  
G32  20817012.082   109394125.8781       -906.929          16.000  
R03  21264376.778   113829873.010        2130.159          28.000  
> 2021  9 12 12  5  5.9977068  0  2
C23  22532991.734   117335263.173        -980.386          22.000  
R03  21263769.099   113826620.138        2128.913          23.000  
> 2021  9 12 12  5  6.9977060  0  1
R03  21263129.941   113823198.796        2129.252          24.000  
> 2021  9 12 12  5  7.9977050  0  2
C23  22532831.645   117334414.6671       -981.846          18.000  
G31  21098993.271   110876101.6311      -1487.557          16.000  
> 2021  9 12 12  5  8.9977042  0  1
G31  21099037.640   110876327.215       -1484.592          15.000  
> 2021  9 12 12  5  9.9977034  0  2
G31  21099081.410   110876549.517       -1478.125          15.000  
R03  21261180.391   113812762.5701       2127.963          15.000  
> 2021  9 12 12  5 10.9977027  0  2
G31  21099157.857   110876926.609       -1483.970          13.000  
R03  21260570.313   113809496.800        2122.956          12.000  
> 2021  9 12 12  5 11.9977016  0  0
> 2021  9 12 12  5 12.9977009  0  2
G32  20816408.001   109390970.2701       -909.286          14.000  
R03  21259248.229   113802419.3081       2124.574          12.000  
> 2021  9 12 12  5 13.9977001  0  2
G31  21099227.109   110877288.4971      -1488.346          17.000  
G32  20816342.646   109390616.891        -906.779          15.000  
> 2021  9 12 12  5 14.9976993  0  2
G31  21099270.879   110877516.696       -1489.088          24.000  
R03  21257991.199   113795691.0331       2132.139          11.000  
> 2021  9 12 12  5 15.9976983  0  1
G31  21099254.090   110877429.551       -1488.651          23.000  
> 2021  9 12 12  5 16.9976975  0  1
G31  21099296.361   110877658.384       -1490.264          25.000  
> 2021  9 12 12  5 17.9976965  0  2
G31  21099281.072   110877572.647       -1489.739          26.000  
G32  20815949.018   109388565.8641       -902.762          17.000  
> 2021  9 12 12  5 18.9976960  0  2
G31  21099415.978   110878275.575       -1491.629          23.000  
G32  20815969.704   109388682.899        -905.775          18.000  
> 2021  9 12 12  5 19.9976950  0  1
G31  21099398.590   110878192.061       -1492.221          26.000  
> 2021  9 12 12  5 20.9976942  0  1
G31  21099439.662   110878423.296       -1490.452          26.000  
> 2021  9 12 12  5 21.9976932  0  2
G31  21099421.974   110878339.213       -1490.880          26.000  
G32  20815637.534   109386980.2531       -905.531          19.000  
> 2021  9 12 12  5 22.9976927  0  2
G31  21099556.281   110879042.962       -1492.647          21.000  
G32  20815660.618   109387101.014        -910.537          18.000  
> 2021  9 12 12  5 23.9976916  0  2
G31  21099510.413   110878802.919       -1493.172          25.000  
G32  20815502.927   109386278.592        -910.340          18.000  
> 2021  9 12 12  5 24.9976909  0  1
G31  21099584.162   110879193.047       -1493.184          24.000  
> 2021  9 12 12  5 25.9976901  0  1
G31  21099627.032   110879426.332       -1493.782          29.000  
> 2021  9 12 12  5 26.9976893  0  1
G31  21099669.603   110879657.801       -1489.204          23.000  
> 2021  9 12 12  5 27.9976886  0  2
G31  21099744.551   110880044.146       -1487.222          17.000  
G32  20815283.779   109385189.3991       -908.429          19.000  
> 2021  9 12 12  5 28.9976876  0  1
G32  20815155.468   109384523.974        -911.138          19.000  
> 2021  9 12 12  5 29.9976868  0  0
> 2021  9 12 12  5 30.9976860  0  1
G31  21099811.405   110880411.7731      -1488.650          17.000  
> 2021  9 12 12  5 31.9976852  0  1
G31  21099854.575   110880638.167       -1488.008          16.000  
> 2021  9 12 12  5 32.9976842  0  1
G32  20814837.688   109382825.0091       -917.740          17.000  
> 2021  9 12 12  5 33.9976835  0  1
G31  21099912.734   110880937.6021      -1492.565          14.000  
> 2021  9 12 12  5 34.9976827  0  0
> 2021  9 12 12  5 35.9976819  0  1
G32  20814673.401   109381942.6041       -910.075          13.000  
> 2021  9 12 12  5 36.9976809  0  2
G31  21099986.184   110881322.4951      -1494.000          14.000  
G32  20814546.589   109381277.640        -906.908          13.000  
> 2021  9 12 12  5 37.9976801  0  1
G32  20814482.134   109380926.106        -912.846          12.000  
> 2021  9 12 12  5 38.9976794  0  1
G31  21100104.901   110881950.2841      -1494.043          16.000  
> 2021  9 12 12  5 39.9976786  0  0
> 2021  9 12 12  5 40.9976776  0  1
G32  20814250.095   109379718.3721       -911.558          18.000  
> 2021  9 12 12  5 41.9976768  0  2
G31  21100178.650   110882333.4981      -1495.362          15.000  
G32  20814180.243   109379370.176        -911.325          20.000  
> 2021  9 12 12  5 42.9976758  0  1
G32  20814052.231   109378705.848        -911.604          20.000  
> 2021  9 12 12  5 43.9976753  0  0
> 2021  9 12 12  5 44.9976742  0  1
G32  20813926.019   109378009.9601       -914.059          23.000  
> 2021  9 12 12  5 45.9976735  0  2
C23  22530594.294   117322697.5271       -993.004          29.000  
G32  20813890.643   109377821.056        -913.525          25.000  
> 2021  9 12 12  5 46.9976724  0  3
C23  22530455.490   117321973.599        -992.866          30.000  
G31  21100285.976   110882883.5261      -1496.386          14.000  
G32  20813734.152   109377001.509        -914.445          28.000  
> 2021  9 12 12  5 47.9976719  0  2
C23  22530496.562   117322185.629        -992.163          28.000  
G31  21100424.180   110883589.855       -1493.303          17.000  
> 2021  9 12 12  5 48.9976709  0  2
C23  22530387.737   117321616.850        -992.119          25.000  
G32  20813629.824   109376469.8901       -916.136          32.000  
> 2021  9 12 12  5 49.9976701  0  2
C23  22530338.571   117321360.291        -992.953          26.000  
G31  21100460.155   110883739.8191      -1492.812          24.000  
> 2021  9 12 12  5 50.9976691  0  3
C23  22530228.847   117320792.283        -993.084          27.000  
G31  21100447.564   110883657.872       -1494.053          25.000  
G32  20813431.661   109375465.2371       -917.189          35.000  
> 2021  9 12 12  5 51.9976686  0  3
C23  22530269.919   117321005.226        -993.884          31.000  
G31  21100585.169   110884365.204       -1496.010          26.000  
G32  20813449.948   109375595.442        -918.039          38.000  
> 2021  9 12 12  5 52.9976676  0  3
C23  22530163.792   117320437.356        -992.889          26.000  
G31  21100572.278   110884285.867       -1496.380          33.000  
G32  20813322.836   109374938.712        -919.654          40.000  
> 2021  9 12 12  5 53.9976668  0  2
G31  21100617.247   110884522.608       -1498.381          36.000  
G32  20813259.880   109374597.101        -920.468          34.000  
> 2021  9 12 12  5 54.9976658  0  3
C23  22530006.101   117319610.1881       -990.791          19.000  
G31  21100598.360   110884445.309       -1497.821          32.000  
G32  20813133.667   109373942.106        -920.665          32.000  
> 2021  9 12 12  5 55.9976653  0  3
C23  22530046.873   117319820.972        -989.756          26.000  
G31  21100732.967   110885154.502       -1495.878          28.000  
G32  20813157.651   109374073.689        -919.115          28.000  
> 2021  9 12 12  5 56.9976643  0  1
G32  20813032.338   109373417.571        -919.116          25.000  
> 2021  9 12 12  5 57.9976635  0  1
G31  21100764.445   110885314.7581      -1498.865          21.000  
> 2021  9 12 12  5 58.9976625  0  2
G31  21100748.256   110885237.482       -1498.439          25.000  
G32  20812843.768   109372420.4691       -920.474          30.000  
> 2021  9 12 12  5 59.9976620  0  2
C23  22529827.725   117318634.0641       -995.049          19.000  
G31  21100882.263   110885947.925       -1498.158          31.000  
> 2021  9 12 12  6  0.9976609  0  2
G31  21100838.194   110885712.987       -1498.229          30.000  
G32  20812714.857   109371742.1851       -921.813          31.000  
> 2021  9 12 12  6  1.9976602  0  3
E01  23388463.604   122907205.5011      -1586.328          31.000  
G31  21100911.943   110886108.049       -1498.162          30.000  
J02  38733468.877   203545752.3591      -2150.579          25.000  
> 2021  9 12 12  6  2.9976591  0  5
C23  22529537.526   117317104.6621      -1001.832          19.000  
E01  23388439.320   122907077.539       -1586.120          28.000  
G31  21100867.274   110885873.789       -1499.191          28.000  
G32  20812525.089   109370750.1961       -922.525          25.000  
J02  38733551.320   203546168.483       -2147.864          23.000  
> 2021  9 12 12  6  3.9976584  0  5
C16  37126257.527   193326165.2371       -849.378          31.000  
C23  22529519.838   117317012.508       -1000.490          19.000  
G31  21100942.521   110886270.302       -1498.822          28.000  
G32  20812491.812   109370569.977        -922.409          25.000  
J02  38733750.083   203547214.141       -2148.111          21.000  
> 2021  9 12 12  6  4.9976576  0  5
C16  37126180.180   193325765.456        -849.492          31.000  
C23  22529469.773   117316763.968       -1001.127          19.000  
G31  21100989.289   110886508.935       -1499.715          26.000  
G32  20812426.157   109370232.038        -922.594          30.000  
J02  38733917.067   203548102.618       -2149.039          22.000  
> 2021  9 12 12  6  5.9976568  0  4
C16  37126102.534   193325365.516        -848.549          30.000  
G31  21101034.858   110886748.290       -1498.899          28.000  
G32  20812362.002   109369894.500        -923.046          29.000  
J02  38734085.251   203548992.941       -2151.047          23.000  
> 2021  9 12 12  6  6.9976558  0  5
C16  37125966.128   193324652.002        -846.998          32.000  
C23  22529314.180   117315954.7771       -998.730          20.000  
G31  21101021.367   110886672.164       -1499.552          28.000  
G32  20812236.988   109369242.373        -923.678          30.000  
J02  38734197.373   203549570.849       -2153.916          21.000  
> 2021  9 12 12  6  7.9976550  0  3
C16  37125889.082   193324250.460        -847.497          29.000  
G31  21101067.535   110886910.983       -1499.108          27.000  
J02  38734368.555   203550463.069       -2150.859          22.000  
> 2021  9 12 12  6  8.9976543  0  4
C16  37125842.614   193324005.126        -847.116          28.000  
C23  22529244.329   117315603.1321       -994.780          19.000  
G31  21101143.682   110887306.268       -1497.003          26.000  
G32  20812140.755   109368726.0211       -922.161          21.000  
> 2021  9 12 12  6  9.9976535  0  4
C16  37125765.867   193323603.449        -847.636          30.000  
C33  23789188.388   123876545.8871      -3821.356          25.000  
G31  21101190.750   110887543.695       -1499.038          22.000  
G32  20812080.197   109368388.032        -923.130          25.000  
> 2021  9 12 12  6 10.9976525  0  4
C16  37125627.363   193322890.499        -848.588          23.000  
C33  23789622.787   123878807.186       -3823.272          24.000  
G31  21101179.058   110887468.265       -1501.061          19.000  
G32  20811956.982   109367736.487        -924.771          27.000  
> 2021  9 12 12  6 11.9976517  0  4
C16  37125550.017   193322490.725        -849.609          25.000  
C33  23790115.945   123881382.019       -3824.266          21.000  
G31  21101224.626   110887709.372       -1500.718          21.000  
G32  20811895.225   109367400.804        -924.410          24.000  
> 2021  9 12 12  6 12.9976509  0  3
C16  37125472.370   193322090.586        -847.758          27.000  
C33  23790610.303   123883956.618       -3823.783          22.000  
G32  20811831.669   109367065.225        -925.421          25.000  
> 2021  9 12 12  6 13.9976502  0  3
C16  37125424.403   193321845.185        -847.646          29.000  
C33  23791134.940   123886687.047       -3823.240          23.000  
G32  20811798.991   109366888.342        -926.549          28.000  
> 2021  9 12 12  6 14.9976494  0  3
C16  37125347.057   193321443.766        -847.836          27.000  
C33  23791629.897   123889262.073       -3824.344          25.000  
G32  20811736.335   109366554.542        -926.602          27.000  
> 2021  9 12 12  6 15.9976484  0  4
C16  37125210.651   193320730.438        -847.579          29.000  
C33  23792064.896   123891525.445       -3824.750          25.000  
G31  21101380.518   110888519.1691      -1500.389          18.000  
G32  20811611.321   109365905.784        -926.999          26.000  
> 2021  9 12 12  6 16.9976479  0  3
C16  37125224.142   193320797.151        -847.088          31.000  
C33  23792648.292   123894569.860       -3824.984          23.000  
G32  20811636.804   109366045.159        -927.340          25.000  
> 2021  9 12 12  6 17.9976468  0  4
C16  37125056.858   193319927.147        -848.108          31.000  
C33  23793052.712   123896677.345       -3825.527          22.000  
G31  21101474.053   110888996.5721      -1497.275          19.000  
G32  20811483.610   109365239.289        -927.353          26.000  
> 2021  9 12 12  6 18.9976461  0  4
C16  37125009.191   193319682.624        -848.648          30.000  
C33  23793577.349   123899410.116       -3825.051          21.000  
G32  20811451.532   109365063.955        -927.485          28.000  
J01                                                                  36875437.066   144707134.7771       -254.410          21.000  
> 2021  9 12 12  6 19.9976451  0  5
C16  37124871.886   193318969.558        -847.541          29.000  
C33  23794012.348   123901674.507       -3825.515          22.000  
G31  21101531.913   110889311.7511      -1492.503          17.000  
G32  20811329.816   109364415.925        -927.187          27.000  
J01                                                                  36875202.029   144706214.368        -258.737          19.000  
> 2021  9 12 12  6 20.9976445  0  4
C16  37124853.599   193318879.775        -846.757          34.000  
C33  23794566.364   123904563.770       -3826.459          21.000  
G32  20811324.720   109364397.675        -927.430          28.000  
J01                                                                  36875087.208   144705766.732        -257.988          19.000  
> 2021  9 12 12  6 21.9976435  0  5
C06  36523100.883   190185369.6851       -897.900          27.000  
C16  37124716.594   193318165.323        -847.968          32.000  
C33  23795002.563   123906829.527       -3826.775          26.000  
G32  20811201.505   109363750.013        -928.447          28.000  
J01                                                                  36874851.272   144704847.060        -256.229          20.000  
> 2021  9 12 12  6 22.9976428  0  6
C06  36523064.309   190185173.943        -896.817          27.000  
C16  37124669.226   193317920.249        -847.797          28.000  
C33  23795527.499   123909563.976       -3827.336          28.000  
G31  21101699.198   110890178.1631      -1499.203          16.000  
G32  20811170.027   109363575.713        -928.916          30.000  
J01                                                                  36874705.273   144704278.745        -253.062          23.000  
> 2021  9 12 12  6 23.9976417  0  6
C06  36522907.517   190184354.083        -897.705          26.000  
C16  37124502.841   193317050.340        -848.591          30.000  
C33  23795933.118   123911675.815       -3829.433          27.000  
G31  21101652.730   110889946.809       -1503.541          16.000  
G32  20811016.233   109362771.756        -929.174          35.000  
J01                                                                  36874440.556   144703237.735        -252.954          23.000  
> 2021  9 12 12  6 24.9976410  0  4
C06  36522870.343   190184159.654        -898.961          26.000  
C16  37124456.673   193316806.448        -848.951          25.000  
G31  21101727.678   110890348.676       -1505.505          26.000  
G32  20810982.657   109362598.599        -929.792          33.000  
> 2021  9 12 12  6 25.9976402  0  5
C06  36522804.089   190183808.605        -897.530          24.000  
C16  37124379.027   193316405.741        -847.620          27.000  
C33  23796959.308   123916993.0081      -3828.250          27.000  
G31  21101774.446   110890593.802       -1505.673          26.000  
G32  20810918.801   109362267.958        -929.889          31.000  
> 2021  9 12 12  6 26.9976394  0  5
C06  36522736.036   190183457.326        -897.670          26.000  
C16  37124301.381   193316004.243        -847.269          30.000  
C33  23797454.265   123919572.866       -3830.659          25.000  
G31  21101820.614   110890838.576       -1504.989          31.000  
G32  20810854.945   109361937.673        -930.541          32.000  
> 2021  9 12 12  6 27.9976384  0  4
C06  36522608.624   190182793.881        -897.874          29.000  
C16  37124164.076   193315290.485        -847.444          35.000  
C33  23797892.262   123921842.227       -3830.795          27.000  
G31  21101808.322   110890769.238       -1506.918          28.000  
> 2021  9 12 12  6 28.9976376  0  5
C06  36522542.070   190182443.309        -897.957          28.000  
C16  37124086.730   193314889.005        -847.908          34.000  
C33  23798391.416   123924422.770       -3829.166          28.000  
G31  21101853.591   110891015.321       -1506.250          25.000  
G32  20810663.677   109360963.4461       -930.570          27.000  
> 2021  9 12 12  6 29.9976369  0  5
C06  36522505.196   190182248.743        -897.943          29.000  
C16  37124038.463                        -845.996          34.000  
C33  23798919.351   123927159.095       -3828.865          28.000  
G31  21101929.738   110891418.945       -1506.615          25.000  
G32  20810630.700   109360791.597        -930.792          28.000  
> 2021  9 12 12  6 30.9976361  0  4
C06  36522436.843   190181897.760        -898.469          27.000  
C16  37123964.114   193314208.5571       -846.946          34.000  
C33  23799416.107   123929738.677       -3828.025          26.000  
G32  20810567.144   109360462.147        -931.385          26.000  
> 2021  9 12 12  6 31.9976351  0  5
C06  36522309.431   190181235.247        -898.311          27.000  
C16  37123826.809   193313494.631        -846.841          33.000  
C33  23799853.804   123932006.302       -3829.229          28.000  
G31  21101965.413   110891593.6201      -1504.803          28.000  
G32  20810443.929   109359818.246        -931.958          28.000  
> 2021  9 12 12  6 32.9976343  0  5
C06  36522243.177   190180884.916        -898.269          26.000  
C16  37123749.163   193313092.871        -845.563          34.000  
C33  23800351.160   123934587.251       -3830.923          27.000  
G31  21102013.680   110891838.550       -1505.442          30.000  
G32  20810379.474   109359490.140        -932.511          29.000  
> 2021  9 12 12  6 33.9976335  0  5
C06  36522175.124   190180533.542        -897.042          27.000  
C16  37123673.316   193312691.124        -849.069          33.000  
C33  23800846.117   123937169.043       -3829.844          26.000  
G31  21102060.148   110892083.589       -1505.749          31.000  
G32  20810316.518   109359162.577        -933.052          31.000  
> 2021  9 12 12  6 34.9976328  0  5
C06  36522138.550   190180337.987        -897.625          25.000  
C16  37123624.749   193312445.341        -847.077          32.000  
C33  23801371.953   123939906.202       -3830.653          24.000  
G31  21102137.494   110892486.504       -1505.949          31.000  
G32  20810284.140   109358992.983        -933.499          30.000  
> 2021  9 12 12  6 35.9976317  0  4
C06  36521982.658   190179518.515        -897.767          26.000  
C16  37123456.566   193311574.969        -846.778          32.000  
G31  21102094.624   110892259.438       -1505.426          31.000  
G32  20810131.846   109358193.505        -933.510          27.000  
> 2021  9 12 12  6 36.9976310  0  4
C06  36521944.884   190179324.042        -897.878          26.000  
C16  37123412.496   193311329.020        -847.359          32.000  
G31  21102171.371   110892662.182       -1506.899          32.000  
G32  20810099.468   109358024.289        -933.866          29.000  
> 2021  9 12 12  6 37.9976302  0  5
C06  36521877.730   190178973.278        -898.976          26.000  
C16  37123338.448   193310926.737        -846.204          33.000  
C33  23802802.263   123947340.0941      -3830.958          17.000  
G31  21102217.539   110892908.633       -1507.432          31.000  
G32  20810040.109   109357697.776        -933.927          30.000  
> 2021  9 12 12  6 38.9976294  0  5
C06  36521811.476   190178622.456        -896.630          26.000  
C16  37123259.302   193310524.641        -845.792          33.000  
C33  23803297.520   123949922.199       -3831.920          17.000  
G31  21102263.707   110893156.373       -1508.237          31.000  
G32  20809978.352   109357371.592        -934.560          31.000  
> 2021  9 12 12  6 39.9976284  0  4
C06  36521682.865   190177958.314        -897.365          25.000  
C16  37123123.796   193309810.305        -845.956          32.000  
G31  21102249.017   110893089.048       -1507.722          30.000  
G32  20809857.535   109356730.735        -934.686          31.000  
> 2021  9 12 12  6 40.9976276  0  5
C06  36521618.110   190177606.388        -897.254          25.000  
C16  37123043.452   193309408.861        -847.512          32.000  
C33  23804230.774   123954778.0891      -3836.925          17.000  
G31  21102295.185   110893336.691       -1507.804          31.000  
G32  20809795.478   109356405.738        -935.856          30.000  
> 2021  9 12 12  6 41.9976269  0  4
C06  36521581.235   190177411.104        -897.728          24.000  
C16  37122996.984   193309162.858        -844.236          32.000  
G31  21102371.932   110893741.650       -1508.177          31.000  
G32  20809763.401   109356239.084        -936.301          31.000  
> 2021  9 12 12  6 42.9976261  0  5
C06  36521513.782   190177059.833        -897.957          25.000  
C16  37122919.338   193308760.794        -847.239          32.000  
C33  23805252.766   123960108.9651      -3836.616          16.000  
G31  21102418.999   110893989.194       -1508.068          31.000  
G32  20809704.641   109355914.990        -936.393          31.000  
> 2021  9 12 12  6 43.9976251  0  4
C06  36521385.171   190176396.224        -898.029          24.000  
C16  37122781.733   193308046.574        -847.131          33.000  
G31  21102405.209   110893921.938       -1508.197          31.000  
G32  20809584.724   109355275.963        -936.688          31.000  
> 2021  9 12 12  6 44.9976243  0  4
C06  36521317.718   190176044.524        -897.435          24.000  
C16  37122706.785   193307644.518        -845.684          34.000  
G31  21102449.878   110894170.050       -1509.081          30.000  
G32  20809524.766   109354952.582        -937.367          30.000  
> 2021  9 12 12  6 45.9976236  0  4
C06  36521280.843   190175848.552        -897.258          24.000  
C16  37122656.420   193307398.462        -847.143          33.000  
G31  21102525.725   110894576.448       -1509.330          28.000  
G32  20809492.988   109354787.163        -937.623          30.000  
> 2021  9 12 12  6 46.9976228  0  4
C06  36521214.589   190175497.494        -897.072          25.000  
C16  37122580.272   193306996.533        -846.969          33.000  
C33  23807194.522   123970296.5531      -3834.806          19.000  
G32  20809430.331   109354464.260        -937.652          32.000  
> 2021  9 12 12  6 47.9976218  0  2
C16  37122441.469   193306282.365        -846.626          28.000  
G32  20809308.615   109353826.132        -937.493          31.000  
> 2021  9 12 12  6 48.9976210  0  2
C33  23808127.177   123975158.0941      -3836.842          28.000  
G31  21102610.267   110895008.4741      -1509.642          30.000  
> 2021  9 12 12  6 49.9976202  0  5
C33  23808622.434   123977746.309       -3837.167          31.000  
G31  21102657.634   110895258.160       -1510.966          23.000  
G32  20809186.300   109353182.1631       -938.897          30.000  
J01  36869677.753   193751503.6291       -342.885          32.000  
J02  38741131.573   203586013.4821      -2152.727          27.000  
> 2021  9 12 12  6 50.9976195  0  7
C06  36520915.396   190173943.6981       -903.746          19.000  
C33  23809145.871   123980491.068       -3837.890          31.000  
G31  21102734.681   110895665.512       -1510.571          24.000  
G32  20809153.323   109353018.102        -939.514          30.000  
J01  36869532.354                        -344.394          31.000  
J02  38741329.436   203587063.213       -2152.205          25.000  
R02  19141855.169   102144527.4191      -1172.088          31.000  
> 2021  9 12 12  6 51.9976184  0  8
C06  36520757.706   190173127.676        -900.494          19.000  
C23  22526783.632   117302734.0111      -1013.096          25.000  
C33  23809551.191   123982612.131       -3838.436          31.000  
G31  21102692.110   110895444.024       -1511.193          25.000  
G32  20809001.628   109352224.566        -939.090          31.000  
J01  36869271.834   193749309.2061       -341.686          31.000  
J02  38741406.782   203587483.167       -2153.677          25.000  
R02  19141745.445   102143940.215       -1172.986          31.000  
> 2021  9 12 12  6 52.9976177  0  8
C06  36520720.531   190172934.623        -899.579          20.000  
C23  22526767.144   117302654.314       -1013.454          26.000  
C33  23810075.828   123985357.765       -3838.747          31.000  
G31  21102769.756   110895851.971       -1510.615          27.000  
G32  20808969.850   109352060.735        -939.610          30.000  
J01  36869124.336   193748548.770        -342.075          30.000  
J02  38741607.044   203588533.933       -2153.252          26.000  
R02  19141755.339   102143993.576       -1173.714          31.000  
> 2021  9 12 12  6 53.9976166  0  8
C06  36520561.941   190172115.857        -897.181          25.000  
C23  22526631.038   117301950.610       -1013.587          28.000  
C33  23810481.746   123987479.195       -3839.108          31.000  
G31  21102727.486   110895629.569       -1510.924          28.000  
G32  20808821.153   109351267.762        -940.599          30.000  
J01  36868861.418   193747158.232        -342.741          29.000  
J02  38741686.189   203588953.112       -2150.943          26.000  
R02  19141644.715   102143407.918       -1174.606          32.000  
> 2021  9 12 12  6 54.9976161  0  8
C06  36520582.027   190172230.854        -894.189          24.000  
C23  22526676.007   117302183.785       -1013.971          28.000  
C33  23811069.939   123990537.434       -3838.815          31.000  
G31  21102865.990   110896353.326       -1511.820          29.000  
G32  20808849.633   109351420.404        -939.993          28.000  
J01  36868767.883   193746712.853        -343.081          31.000  
J02  38741946.708   203590316.401       -2150.159          25.000  
R02  19141718.164   102143782.864       -1175.139          32.000  
> 2021  9 12 12  6 55.9976151  0  8
C06  36520452.517   190171563.477        -893.138          24.000  
C23  22526571.979   117301636.893       -1015.135          28.000  
C33  23811507.336   123992815.486       -3839.220          32.000  
G31  21102853.698   110896289.806       -1511.926          29.000  
G32  20808728.817   109350784.536        -939.236          30.000  
J01  36868539.741   193745480.229        -341.966          31.000  
J02  38742056.432   203590891.235       -2150.981          25.000  
R02  19141640.218   102143359.088       -1176.638          32.000  
> 2021  9 12 12  6 56.9976143  0  9
C06  36520385.064   190171208.636        -895.714          22.000  
C23  22526527.310   117301403.342       -1015.207          28.000  
C33  23812006.191   123995406.114       -3839.642          31.000  
G10  21892629.648   115046544.3301      -4378.350          24.000  
G31  21102902.265   110896541.225       -1511.653          30.000  
G32  20808668.858   109350464.245        -940.818          32.000  
J01  36868363.763   193744562.794        -342.339          31.000  
J02  38742224.616   203591782.921       -2153.436          26.000  
R02  19141626.428   102143256.152       -1177.181          32.000  
> 2021  9 12 12  6 57.9976133  0 10
C06  36520256.752   190170542.345        -894.635          23.000  
C16  37121536.695   193301439.4321       -840.500          16.000  
C23  22526422.082   117300857.721       -1015.998          29.000  
C33  23812447.186                       -3836.836          32.000  
E01  23391451.035   122922904.3031      -1610.626          30.000  
G31  21102890.573   110896477.682       -1511.694          30.000  
G32  20808548.941   109349830.758        -942.665          30.000  
J01  36868132.923   193743330.248        -343.419          31.000  
J02  38742335.539   203592359.833       -2152.431          24.000  
R02  19141549.381   102142833.897       -1177.724          31.000  
> 2021  9 12 12  6 58.9976128  0 10
C16  37121550.785   193301500.849        -843.310          18.000  
C23  22526466.752   117301092.259       -1015.139          29.000  
C33  23813035.678                       -3838.142          32.000  
E01  23391607.527   122923726.593       -1612.738          29.000  
G10  21893854.000   115052939.3781      -4379.833          24.000  
G31  21103028.178   110897202.394       -1512.672          31.000  
G32  20808577.422   109349985.068        -942.089          30.000  
J01  36868047.782   193742885.365        -342.845          31.000  
J02  38742594.560   203593724.896       -2152.487          24.000  
R02  19141619.832   102143211.870       -1178.131          32.000  
> 2021  9 12 12  6 59.9976118  0 11
C06  36520149.726   190169987.3101       -893.655          22.000  
C16  37121411.981   193300785.552        -846.074          18.000  
C23  22526363.323   117300546.585       -1016.311          30.000  
C33  23813472.776   124002999.0031      -3839.698          31.000  
E01  23391614.722   122923764.173       -1612.389          29.000  
G10  21894392.727   115055743.158       -4378.953          25.000  
G31  21103018.884   110897140.070       -1512.951          30.000  
G32  20808456.006   109349351.733        -942.108          31.000  
J01  36867811.245   193741652.911        -345.030          32.000  
J02  38742703.085   203594302.961       -2153.649          23.000  
R02  19141542.786   102142790.732       -1179.291          32.000  
> 2021  9 12 12  7  0.9976110  0 11
C06  36520080.474   190169633.325        -896.616          26.000  
C16  37121335.234   193300383.761        -848.035          23.000  
C23  22526318.954   117300314.476       -1016.716          30.000  
C33  23813971.630   124005590.944       -3839.545          31.000  
E01  23391680.976   122924112.837       -1613.371          29.000  
G10  21894986.916   115058861.058       -4378.556          27.000  
G31  21103066.551   110897392.695       -1513.652          29.000  
G32  20808395.148   109349033.258        -942.254          30.000  
J01  36867636.466   193740735.826        -344.009          32.000  
J02  38742871.568   203595196.066       -2153.675          24.000  
R02  19141522.700   102142690.491       -1180.136          32.000  
> 2021  9 12 12  7  1.9976100  0 11
C06  36519954.262   190168969.860        -898.243          23.000  
C16  37121199.428   193299670.088        -847.264          24.000  
C23  22526214.926   117299770.608       -1017.875          29.000  
C33  23814406.330   124007870.881       -3841.362          31.000  
E01  23391688.471   122924152.417       -1614.626          29.000  
G10  21895522.945   115061664.805       -4378.738          25.000  
G31  21103054.859   110897330.625       -1513.272          29.000  
G32  20808275.531   109348400.909        -943.445          30.000  
J01  36867404.127   193739503.563        -345.133          33.000  
J02  38742979.194   203595773.946       -2152.939          26.000  
R02  19141442.655   102142271.071       -1180.769          32.000  
> 2021  9 12 12  7  2.9976095  0 10
C06  36519978.545   190169087.929        -898.716          24.000  
C16  37121209.921   193299736.753        -847.799          25.000  
C23  22526259.595   117300007.391       -1017.482          29.000  
C33  23814992.724   124010931.973       -3843.264          30.000  
E01  23391847.061   122924985.707       -1614.030          29.000  
G31  21103191.265   110898056.257       -1513.556          29.000  
G32  20808304.311   109348556.607        -943.435          30.000  
J01  36867324.982   193739059.321        -342.969          33.000  
J02  38743240.313   203597139.587       -2152.684          27.000  
R02  19141514.006   102142652.342       -1181.639          32.000  
> 2021  9 12 12  7  3.9976084  0 10
C06  36519819.955   190168269.086        -898.525          24.000  
C16  37121041.738   193298867.496        -848.868          23.000  
C23  22526126.187   117299307.647       -1017.259          30.000  
C33  23815406.137   124013056.761       -3841.213          31.000  
E01  23391824.577   122924867.745       -1616.424          30.000  
G31  21103149.893   110897836.956       -1513.871          30.000  
G32  20808154.414   109347767.294        -943.939          31.000  
J01  36867050.972   193737670.088        -343.800          32.000  
J02  38743320.957   203597558.736       -2152.477          26.000  
R02  19141406.380   102142074.810       -1182.716          32.000  
> 2021  9 12 12  7  4.9976077  0  9
C06  36519781.581   190168073.214        -896.510          24.000  
C16  37120991.672   193298622.995        -848.440          23.000  
C23  22526113.296   117299232.739       -1019.278          29.000  
E01  23391921.410   122925375.951       -1616.743          27.000  
G31  21103228.139   110898248.091       -1513.911          31.000  
G32  20808125.335   109347608.610        -944.350          31.000  
J01  36866910.069   193736911.058        -342.514          32.000  
J02  38743522.118   203598608.773       -2153.017          26.000  
R02  19141418.372   102142138.071       -1183.477          29.000  
> 2021  9 12 12  7  5.9976067  0 11
C06  36519653.570   190167407.773        -895.090          26.000  
C16  37120850.470   193297908.658        -845.720          28.000  
C23  22526011.067   117298690.656       -1018.932          23.000  
C33  23816374.767   124018087.0321      -3842.087          24.000  
E01  23391931.003   122925426.531       -1616.106          24.000  
G10  21897887.408   115073984.2401      -4380.115          22.000  
G31  21103217.347   110898186.429       -1513.989          29.000  
G32  20808004.518   109346977.612        -944.792          25.000  
J01  36866678.030   193735679.439        -346.167          30.000  
J02  38743632.142   203599185.766       -2151.619          25.000  
R02  19141341.025   102141722.013       -1184.201          26.000  
> 2021  9 12 12  7  6.9976061  0  7
C06  36519644.876   190167366.722        -895.404          25.000  
C16  37120829.484   193297816.922        -844.845          29.000  
C23  22526026.956   117298773.707       -1019.390          23.000  
C33  23816932.980   124020993.675       -3843.987          28.000  
G10  21898553.247   115077417.047       -4376.213          12.000  
G32  20808002.420   109346977.308        -945.332          26.000  
R02  19141392.590   102141946.786       -1184.920          24.000  
> 2021  9 12 12  7  7.9976051  0  8
C06  36519516.265   190166701.501        -896.410          27.000  
C16  37120690.381   193297100.294        -844.396          30.000  
C23  22525922.628   117298232.698       -1019.616          22.000  
C33  23817370.378   124023276.937       -3843.889          28.000  
G10  21899099.469   115080543.928       -4375.955          14.000  
G31  21103316.278   110898694.2051      -1513.910          33.000  
G32  20807884.301   109346347.181        -945.805          26.000  
R02  19141312.845   102141532.102       -1185.613          20.000  
> 2021  9 12 12  7  8.9976044  0  7
C06  36519477.592   190166505.205        -896.595          27.000  
C16  37120640.915   193296851.440        -844.266          29.000  
C33  23817898.612   124026028.093       -3843.709          28.000  
G31  21103394.524                       -1514.624          32.000  
G32  20807854.922   109346190.494        -946.196          25.000  
J01  36866181.274   193733090.0361       -346.187          20.000  
R02  19141320.340   102141598.153       -1187.238          21.000  
> 2021  9 12 12  7  9.9976033  0  7
C06  36519318.702   190165684.977        -897.258          26.000  
C16  37120472.731   193295979.175        -846.733          30.000  
C23  22525772.132   117297462.9121      -1019.809          22.000  
C33  23818305.430   124028154.262       -3842.822          27.000  
G31  21103354.652   110898868.1101      -1514.982          32.000  
G32  20807704.126   109345403.791        -946.466          27.000  
R02  19141223.207   102141025.693       -1187.897          17.000  
> 2021  9 12 12  7 10.9976028  0  8
C06  36519340.587   190165801.451        -897.004          27.000  
C16  37120483.824   193296045.411        -846.689          30.000  
C23  22525817.701   117297701.922       -1020.202          24.000  
C33  23818889.426   124031215.921       -3842.245          21.000  
G31  21103493.455   110899595.728       -1512.431          32.000  
G32  20807732.906   109345562.445        -946.288          22.000  
J01  36865826.919   193731258.9281       -343.249          17.000  
R02  19141292.159   102141413.338       -1191.854          16.000  
> 2021  9 12 12  7 11.9976018  0  5
C06  36519213.475   190165136.552        -896.392          29.000  
C16  37120345.619   193295330.912        -846.914          30.000  
C33  23819325.924   124033497.816       -3843.223          26.000  
G31  21103479.965   110899535.542       -1515.221          30.000  
G32  20807614.188   109344933.619        -946.848          26.000  
> 2021  9 12 12  7 12.9976010  0  6
C06  36519146.021   190164784.051        -896.603          29.000  
C16  37120268.573   193294928.565        -846.310          29.000  
C33  23819822.980   124036093.314       -3844.962          28.000  
G31  21103527.332   110899790.650       -1515.208          28.000  
G32  20807555.729   109344620.057        -946.775          28.000  
R02  19141201.922   102140909.0371      -1185.336          14.000  
> 2021  9 12 12  7 13.9976000  0  7
C06  36519018.909   190164119.503        -896.679          29.000  
C16  37120131.867   193294214.098        -846.736          29.000  
C33  23820260.677   124038377.825       -3846.361          30.000  
G10  21902610.338   115098805.6421      -4383.022          18.000  
G31  21103519.537   110899730.986       -1515.292          29.000  
G32  20807436.711   109343991.564        -947.178          29.000  
J01  36865183.265   193727880.3831       -344.033          25.000  
> 2021  9 12 12  7 14.9975995  0  7
C06  36519042.293   190164234.641        -895.385          29.000  
C16  37120145.358   193294279.851        -845.742          29.000  
C33  23820849.769   124041443.296       -3845.265          29.000  
G31  21103655.343   110900459.188       -1517.427          29.000  
G32  20807467.590   109344151.063        -947.468          27.000  
J01  36865097.224   193727437.082        -345.600          26.000  
R02  19141193.228   102140880.2291      -1185.881          15.000  
> 2021  9 12 12  7 15.9975985  0  7
C06  36518916.380   190163568.426        -895.638          28.000  
C16  37120008.353   193293564.945        -847.131          30.000  
C23  22525511.013   117296082.1761      -1018.223          19.000  
C33  23821288.665   124043727.611       -3845.638          22.000  
G31  21103646.649   110900399.874       -1516.194          31.000  
G32  20807348.872   109343523.314        -947.669          26.000  
R02  19141111.085   102140466.900       -1187.219          16.000  
> 2021  9 12 12  7 16.9975977  0  9
C06  36518845.929   190163214.206        -895.169          21.000  
C16  37119930.407   193293162.625        -847.070          22.000  
C23  22525466.644   117295852.215       -1020.546          20.000  
C33  23821787.220   124046324.138       -3846.126          28.000  
G10  21904454.062   115108682.4241      -4385.518          19.000  
G31  21103691.918   110900655.506       -1516.000          27.000  
G32  20807292.511   109343210.595        -948.134          26.000  
J01  36864688.607   193725291.9491       -344.964          21.000  
R02  19141090.998   102140374.851       -1188.478          18.000  
> 2021  9 12 12  7 17.9975967  0  8
C06  36518717.318   190162547.979        -895.871          23.000  
C16  37119792.203   193292448.066        -846.555          27.000  
C23  22525366.213   117295311.412       -1019.699          24.000  
C33  23822227.315   124048610.011       -3848.834          29.000  
G10  21904992.189   115111492.427       -4385.979          26.000  
G32  20807171.695   109342583.585        -948.764          22.000  
J01  36864454.769   193724061.334        -345.796          25.000  
R02  19141012.153   102139964.097       -1189.620          20.000  
> 2021  9 12 12  7 18.9975959  0  7
C06  36518650.165   190162194.683        -895.042          25.000  
C16  37119715.156   193292045.473        -845.984          30.000  
C33  23822727.369   124051210.178       -3848.991          24.000  
G31  21103731.191   110900852.8161      -1517.677          33.000  
G32  20807114.135   109342272.566        -949.373          23.000  
J01  36864281.189   193723146.496        -345.415          25.000  
R02  19140988.769   102139874.650       -1191.159          23.000  
> 2021  9 12 12  7 19.9975951  0  9
C06  36518582.711   190161841.300        -896.538          25.000  
C16  37119637.510   193291642.426        -843.877          27.000  
C23  22525282.871   117294859.1141      -1025.011          18.000  
C33  23823225.624   124053809.750       -3848.844          28.000  
G10  21906191.959   115117749.0391      -4390.630          25.000  
G31  21103777.959                       -1516.166          33.000  
G32  20807055.975   109341960.199        -948.017          25.000  
J01  36864107.909   193722232.011        -346.503          25.000  
R02  19140968.983   102139786.770       -1192.644          25.000  
> 2021  9 12 12  7 20.9975944  0  7
C06  36518545.837   190161644.449        -895.655          24.000  
C16  37119588.044   193291394.295        -844.383          22.000  
C33  23823755.058   124056565.466       -3847.441          25.000  
G31  21103855.605   110901515.3481      -1516.783          31.000  
G32  20807024.796   109341805.318        -948.414          26.000  
J01  36863962.810   193721474.094        -344.124          27.000  
R02  19140978.876   102139860.334       -1193.944          25.000  
> 2021  9 12 12  7 21.9975933  0  8
C06  36518386.647   190160821.322        -893.873          23.000  
C16  37119419.561   193290521.165        -844.191          26.000  
C23  22525140.470   117294099.2591      -1024.506          21.000  
C33  23824164.874   124058695.718       -3847.547          28.000  
G10  21907320.378   115123689.8421      -4387.385          27.000  
G31  21103814.833   110901298.661       -1516.808          31.000  
J01  36863699.292   193720086.136        -344.705          26.000  
R02  19140868.852   102139295.135       -1195.073          20.000  
> 2021  9 12 12  7 22.9975926  0  7
C06  36518346.775   190160623.054        -895.469          28.000  
C16  37119370.694   193290272.671        -844.621          29.000  
C23  22525131.476   117294031.016       -1024.491          25.000  
C33  23824694.008   124061450.348       -3847.757          29.000  
G31  21103899.674   110901713.598       -1519.322          35.000  
G32  20806849.418   109340869.1341       -948.904          23.000  
R02  19140880.844   102139370.995       -1196.063          20.000  
> 2021  9 12 12  7 23.9975918  0  9
C06  36518279.921   190160270.181        -896.566          27.000  
C16  37119292.748   193289868.886        -845.716          31.000  
C23  22525086.807   117293806.441       -1025.516          25.000  
C33  23825192.862   124064049.413       -3848.216          25.000  
G10  21908543.231   115130100.6091      -4387.563          27.000  
G31  21103947.041   110901971.548       -1518.553          35.000  
G32  20806790.659   109340557.523        -949.026          30.000  
J01  36863384.810   193718411.6631       -343.326          25.000  
R02  19140861.957   102139287.912       -1197.272          21.000  
> 2021  9 12 12  7 24.9975910  0  8
C06  36518213.367   190159917.585        -896.539          33.000  
C16  37119215.402   193289465.624        -845.943          35.000  
C23  22525042.138   117293582.283       -1023.488          28.000  
C33  23825693.216   124066648.798       -3848.662          29.000  
G10  21909142.816   115133228.485       -4388.154          29.000  
G31  21103994.409   110902229.779       -1519.706          35.000  
G32  20806730.700   109340247.060        -950.355          29.000  
J01  36863212.729   193717495.955        -345.764          29.000  
> 2021  9 12 12  7 25.9975900  0  8
C06  36518087.754   190159252.459        -895.613          34.000  
C16  37119080.495   193288749.917        -844.920          34.000  
C23  22524936.311   117293045.659       -1025.702          26.000  
C33  23826132.712   124068936.699       -3850.061          29.000  
G26  21193899.768   111374694.2751       1162.281          26.000  
G31  21103984.216   110902173.063       -1518.756          34.000  
G32  20806611.682   109339622.601        -951.435          31.000  
J01  36862980.090   193716266.842        -346.710          30.000  
> 2021  9 12 12  7 26.9975892  0  9
C06  36518020.301                        -896.315          34.000  
C16  37119003.748                        -846.122          34.000  
C23  22524890.743   117292822.178       -1025.484          24.000  
C33  23826633.365   124071537.473       -3849.919          30.000  
G10  21910268.237   115139171.9181      -4389.936          26.000  
G26  21193438.987   111372271.737        1162.297          27.000  
G31  21104030.983   110902431.584       -1517.893          34.000  
G32  20806555.321   109339314.213        -952.197          30.000  
J01  36862807.110   193715353.113        -346.835          30.000  
> 2021  9 12 12  7 27.9975885  0  8
C06  36517979.529   190158716.9241       -894.645          33.000  
C16  37118957.281                        -844.294          34.000  
C23  22524877.252   117292754.452       -1025.113          28.000  
G10  21910891.805   115142458.928       -4390.337          26.000  
G26  21193008.486   111370006.649        1162.509          23.000  
G31  21104111.328   110902847.998       -1520.053          34.000  
G32  20806527.741   109339163.061        -951.334          29.000  
J01  36862664.408   193714596.741        -346.137          31.000  
> 2021  9 12 12  7 28.9975877  0  9
C06  36517911.176   190158363.671        -895.605          32.000  
C16  37118883.532   193287741.2951       -846.384          35.000  
C23  22524833.782   117292530.493       -1025.326          29.000  
G10  21911487.493   115145589.660       -4392.008          24.000  
G26  21192546.505   111367583.075        1162.781          24.000  
G31  21104160.194   110903107.168       -1520.002          35.000  
G32  20806468.681   109338854.283        -952.347          26.000  
J01  36862490.829   193713682.717        -346.575          30.000  
R02  19140824.483   102139106.3211      -1199.351          16.000  
> 2021  9 12 12  7 29.9975867  0  9
C06  36517782.865   190157698.644        -896.190          33.000  
C16  37118741.430   193287025.733        -844.873          35.000  
C23  22524731.253   117291995.633       -1027.076          27.000  
G10  21912023.522   115148405.899       -4392.100          27.000  
G26  21192026.965   111364844.129        1163.257          25.000  
G31  21104148.202   110903052.350       -1520.867          32.000  
G32  20806350.263   109338231.481        -953.306          31.000  
J01  36862257.290   193712453.454        -346.489          30.000  
R02  19140751.633   102138706.296       -1201.114          24.000  
> 2021  9 12 12  7 30.9975859  0  6
C06  36517715.112   190157344.600        -895.803          31.000  
C16  37118661.385   193286621.463        -845.438          31.000  
C23  22524689.582   117291773.697       -1026.689          26.000  
G31  21104195.869   110903312.498       -1519.974          29.000  
G32  20806292.703   109337924.694        -953.992          31.000  
J01  36862081.912   193711539.462        -345.884          31.000  
> 2021  9 12 12  7 31.9975852  0 10
C06  36517677.938   190157147.869        -896.192          32.000  
C16  37118612.819   193286373.983        -846.084          33.000  
C23  22524679.689   117291707.726       -1027.266          24.000  
G10  21913247.275   115154827.5431      -4392.203          24.000  
G26  21191138.980   111360156.0931       1161.882          22.000  
G31  21104273.515   110903730.002       -1520.298          32.000  
G32  20806263.923   109337775.783        -954.142          30.000  
J01  36861936.812   193710783.462        -346.933          26.000  
J02  38747836.731   203621300.8301      -2153.764          27.000  
R02  19140742.640   102138713.1591      -1205.575          24.000  
> 2021  9 12 12  7 32.9975844  0  9
C06  36517609.885   190156794.699        -894.190          23.000  
C16  37118534.573   193285971.034        -846.280          23.000  
C23  22524642.814   117291486.102       -1026.533          22.000  
G10  21913842.063   115157960.316       -4394.548          20.000  
G26  21190679.398   111357734.868        1161.087          20.000  
G31  21104322.681   110903989.747       -1520.314          29.000  
G32  20806203.665   109337469.795        -954.435          20.000  
J01  36861761.434   193709870.229        -347.643          31.000  
R02  19140725.252   102138639.209       -1206.390          26.000  
> 2021  9 12 12  7 33.9975834  0  8
C06  36517479.775   190156126.815        -892.761          18.000  
C16  37118397.568   193285256.336        -845.710          26.000  
C33  23830080.978   124089437.7751      -3854.910          28.000  
G26  21190161.656   111354997.666        1160.858          13.000  
G32  20806087.046   109336848.832        -954.742          30.000  
J01  36861527.595   193708641.948        -346.851          30.000  
J02  38748114.039   203622772.3571      -2152.226          22.000  
R02  19140647.006   102138245.801       -1206.499          25.000  
> 2021  9 12 12  7 34.9975826  0  7
C06  36517412.921   190155770.027        -892.721          21.000  
C16  37118321.421   193284852.903        -845.333          31.000  
C23  22524495.616   117290729.7861      -1027.841          19.000  
C33  23830581.032   124092043.211       -3854.615          26.000  
J01  36861355.215   193707728.811        -347.697          31.000  
J02  38748282.222   203623662.869       -2150.877          20.000  
R02  19140628.419   102138172.618       -1206.655          22.000  
> 2021  9 12 12  7 35.9975818  0  8
C06  36517344.868   190155414.979        -895.775          21.000  
C16  37118243.475   193284449.092        -844.686          31.000  
C33  23831081.985   124094649.200       -3855.221          24.000  
G26  21189235.897   111350156.8401       1157.152          12.000  
G31  21104421.013   110904454.1061      -1520.822          22.000  
J01  36861181.335   193706816.757        -348.405          29.000  
J02  38748452.804   203624553.266       -2151.336          22.000  
R02  19140605.634   102138099.726       -1207.816          22.000  
> 2021  9 12 12  7 36.9975811  0 10
C06  36517308.893   190155217.457        -895.717          21.000  
C16  37118196.707   193284201.038        -844.820          30.000  
C23  22524438.955   117290447.8721      -1030.372          19.000  
C33  23831615.016   124097410.826       -3854.266          26.000  
G26  21188808.393   111347899.160        1151.746          12.000  
G31  21104501.957   110904872.531       -1521.788          21.000  
G32  20805939.248   109336090.9391       -955.264          34.000  
J01  36861038.034   193706061.598        -347.709          30.000  
J02  38748653.365   203625602.179       -2152.744          26.000  
R02  19140618.526   102138187.734       -1208.331          24.000  
> 2021  9 12 12  7 37.9975800  0  8
C16  37118031.222   193283328.477        -844.796          30.000  
C23  22524305.848   117289761.551       -1031.680          19.000  
C33  23832028.130   124099547.745       -3854.887          27.000  
E01  23393803.207   122935264.8171      -1630.999          29.000  
G31  21104461.186   110904661.217       -1521.534          24.000  
G32  20805789.652                        -955.917          33.000  
J01  36860772.718   193704676.360        -347.521          30.000  
R02  19140512.099   102137636.456       -1209.187          26.000  
> 2021  9 12 12  7 38.9975793  0  9
C06  36517117.326   190154199.7031       -895.939          21.000  
C16  37117984.754   193283079.938        -843.800          29.000  
C23  22524294.156   117289699.219       -1028.915          20.000  
C33  23832559.662   124102310.082       -3855.311          27.000  
E01  23393902.139   122935785.023       -1629.320          28.000  
G31  21104541.830   110905080.155       -1522.205          25.000  
G32  20805760.272   109335015.8381       -955.999          34.000  
J01  36860628.218   193703921.540        -348.143          30.000  
R02  19140527.688   102137726.116       -1210.308          26.000  
> 2021  9 12 12  7 39.9975785  0  9
C06  36517051.072   190153849.116        -899.584          21.000  
C16  37117907.407   193282674.868        -844.104          29.000  
C33  23833061.215   124104916.212       -3854.381          28.000  
E01  23393971.990   122936151.687       -1629.410          28.000  
G31  21104591.895   110905342.100       -1522.574          23.000  
G32  20805705.410   109334712.076        -956.031          34.000  
J01  36860453.439   193703009.259        -347.245          31.000  
J02  38749110.549   203627965.4021      -2153.023          27.000  
R02  19140510.900   102137656.882       -1210.971          25.000  
> 2021  9 12 12  7 40.9975777  0  9
C06  36516982.719   190153500.195        -899.790          21.000  
C16  37117829.761   193282270.767        -845.295          28.000  
C23  22524210.514   117289255.9751      -1026.971          20.000  
C33  23833562.468   124107521.971       -3855.106          26.000  
E01  23394041.842   122936519.351       -1631.225          28.000  
G31  21104640.761   110905604.542       -1523.082          25.000  
G32  20805651.447   109334409.282        -957.531          34.000  
J01  36860280.759   193702096.353        -347.546          31.000  
R02  19140494.112   102137588.759       -1212.808          24.000  
> 2021  9 12 12  7 41.9975767  0 10
C06  36516853.808   190152837.333        -897.593          23.000  
C16  37117692.156   193281555.596        -845.994          29.000  
C23  22524108.284   117288721.669       -1028.804          20.000  
C33  23834003.463   124109816.454       -3855.532          27.000  
E01  23394052.335   122936573.931       -1631.065          28.000  
G31  21104631.168   110905552.087       -1522.681          25.000  
G32  20805533.029   109333791.211        -957.256          34.000  
J01  36860046.621   193700869.152        -348.646          31.000  
J02  38749392.953   203629437.0551      -2155.330          28.000  
R02  19140413.767   102136915.016       -1213.042          24.000  
> 2021  9 12 12  7 42.9975759  0 10
C06  36516785.755   190152484.911        -895.479          23.000  
C16  37117614.810   193281152.257        -845.224          30.000  
C23  22524066.313   117288503.073       -1031.386          20.000  
C33  23834502.317   124112423.568       -3855.729          27.000  
E01  23394122.486   122936942.595       -1633.384          28.000  
G31  21104681.833   110905814.593       -1523.171          25.000  
G32  20805473.370   109333488.606        -958.035          34.000  
J01  36859873.041   193699957.744        -349.541          31.000  
J02  38749565.034   203630330.831       -2154.605          28.000  
R02  19140395.780   102136848.363       -1213.777          23.000  
> 2021  9 12 12  7 43.9975752  0 10
C06  36516748.581   190152287.338        -894.644          21.000  
C16  37117567.443   193280903.826        -843.603          29.000  
C23  22524053.722   117288441.451       -1032.252          20.000  
C33  23835031.751   124115186.652       -3856.177          28.000  
E01  23394223.816   122937475.801       -1632.392          29.000  
G31  21104760.378   110906234.796       -1523.039          25.000  
G32  20805448.788   109333344.063        -958.989          33.000  
J01  36859730.639   193699204.103        -347.939          31.000  
J02  38749768.893   203631383.090       -2155.453          28.000  
R02  19140410.170   102136942.743       -1214.624          25.000  
> 2021  9 12 12  7 44.9975744  0  9
C16  37117489.197   193280498.719        -843.902          29.000  
C23  22524012.651   117288223.512       -1031.187          20.000  
C33  23835531.505   124117793.479       -3855.729          27.000  
E01  23394295.466   122937851.465       -1632.312          28.000  
G31  21104807.446   110906497.661       -1523.683          24.000  
G32  20805386.431   109333042.185        -960.134          33.000  
J01  36859554.961                        -348.866          31.000  
J02  38749939.775   203632277.426       -2153.456          29.000  
R02  19140399.377   102136877.587       -1215.036          25.000  
> 2021  9 12 12  7 45.9975734  0  8
C16  37117353.691   193279782.011        -844.611          28.000  
C33  23835971.001   124120088.354       -3857.049          26.000  
E01  23394307.758   122937916.045       -1633.598          29.000  
G31  21104798.752   110906446.404       -1524.661          22.000  
G32  20805265.914   109332425.727        -960.724          32.000  
J01  36859320.823                        -349.073          31.000  
J02  38750048.000   203632855.814       -2154.434          29.000  
R02  19140323.830   102136493.299       -1216.269          26.000  
> 2021  9 12 12  7 46.9975726  0  8
C16  37117278.443   193279377.679        -844.477          29.000  
C33  23836470.455   124122696.621       -3857.432          28.000  
E01  23394377.609   122938283.709       -1633.701          28.000  
G31  21104849.417   110906710.407       -1524.537          24.000  
G32  20805212.851   109332124.574        -959.702          32.000  
J01  36859152.040   193696129.9371       -349.185          31.000  
J02  38750217.383   203633749.602       -2154.202          29.000  
R02  19140314.536   102136429.945       -1216.985          24.000  
> 2021  9 12 12  7 47.9975716  0  8
C16  37117142.037   193278660.906        -844.649          26.000  
C33  23836910.250   124124992.892       -3857.895          28.000  
E01  23394389.002   122938343.289       -1633.308          29.000  
G31  21104838.924   110906659.797       -1525.018          26.000  
G32  20805089.936   109331508.739        -961.098          33.000  
J01  36858917.003   193694903.087        -350.311          30.000  
J02  38750325.608   203634327.911       -2153.364          29.000  
R02  19140242.586   102136047.599       -1217.798          24.000  
> 2021  9 12 12  7 48.9975711  0  7
C16  37117154.928   193278724.601        -845.066          27.000  
C33  23837503.839   124128071.592       -3860.467          29.000  
E01  23394550.889   122939194.579       -1635.350          28.000  
G32  20805127.410   109331681.002        -959.542          35.000  
J01  36858833.660   193694464.102        -348.535          30.000  
J02  38750585.828   203635693.539       -2153.745          29.000  
R02  19140314.836   102136465.677       -1218.373          24.000  
> 2021  9 12 12  7 49.9975700  0  8
C16  37116986.145   193277853.100        -845.365          24.000  
C33  23837916.054   124130214.634       -3860.971          27.000  
E01  23394533.202   122939101.617       -1634.308          30.000  
G31  21104937.556   110907188.0371      -1524.811          20.000  
G32  20804979.612   109330908.503        -961.934          34.000  
J01  36858567.445   193693080.161        -349.349          31.000  
J02  38750667.071   203636114.290       -2153.963          27.000  
R02  19140215.904   102135924.665       -1218.942          24.000  
> 2021  9 12 12  7 50.9975693  0  7
C16  37116942.076   193277605.029        -844.205          25.000  
C33  23838449.085   124132982.041       -3860.282          29.000  
E01  23394636.330   122939642.823       -1637.017          31.000  
G32  20804951.132   109330766.476        -963.474          33.000  
J01  36858426.242   193692326.445        -349.115          31.000  
J02  38750866.134   203637165.286       -2153.747          28.000  
R02  19140234.192   102136024.715       -1220.246          26.000  
> 2021  9 12 12  7 51.9975683  0  8
C23  22523573.754   117285932.8311      -1035.239          20.000  
C33  23838890.080   124135281.068       -3860.467          29.000  
E01  23394648.322   122939706.403       -1636.892          31.000  
G31  21105006.508   110907553.8331      -1521.489          18.000  
G32  20804833.913   109330152.250        -961.503          33.000  
J01  36858197.801   193691100.184        -348.298          32.000  
J02  38750975.858   203637743.845       -2153.999          28.000  
R02  19140161.642   102135645.619       -1221.324          25.000  
> 2021  9 12 12  7 52.9975677  0  8
C16  37116788.582   193276794.1821       -843.932          20.000  
C23  22523593.241   117286031.323       -1034.861          23.000  
C33  23839451.891   124138204.872       -3860.676          30.000  
E01  23394780.530   122940401.151       -1635.538          30.000  
G31  21105116.532   110908130.206       -1522.673          19.000  
G32  20804837.511   109330168.609        -961.279          33.000  
J01  36858081.781   193690504.227        -350.528          31.000  
J02  38751208.197   203638953.168       -2155.538          28.000  
> 2021  9 12 12  7 53.9975667  0  8
C16  37116648.879   193276076.592        -843.925          23.000  
C23  22523491.611   117285505.658       -1036.091          23.000  
C33  23839893.485   124140504.693       -3861.188          29.000  
E01  23394790.723   122940454.731       -1636.770          28.000  
G31  21105107.838   110908078.538       -1525.036          20.000  
G32  20804716.095   109329554.964        -962.714          31.000  
J01  36857843.446   193689278.218        -349.314          31.000  
J02  38751320.619   203639533.749       -2155.733          28.000  
> 2021  9 12 12  7 54.9975660  0  7
C23  22523480.819   117285447.491       -1035.908          18.000  
C33  23840423.818   124143272.943       -3861.147          28.000  
E01  23394894.152   122940997.937       -1634.738          22.000  
G31  21105184.885   110908502.063       -1528.154          23.000  
G32  20804688.814   109329415.614        -962.565          30.000  
J01  36857698.646   193688525.145        -350.189          27.000  
J02  38751521.180   203640585.930       -2155.162          25.000  
> 2021  9 12 12  7 55.9975649  0  4
C23  22523351.308   117284767.237       -1036.451          19.000  
C33  23840833.634   124145417.282       -3861.712          29.000  
J01  36857436.328   193687142.817        -350.816          31.000  
J02  38751602.124   203641008.127       -2155.334          32.000  
> 2021  9 12 12  7 56.9975644  0  6
C16  37116447.118   193275021.3811       -845.849          21.000  
C23  22523402.573   117285022.583       -1035.689          24.000  
C33  23841421.527   124148497.774       -3861.270          29.000  
G31  21105291.611   110909037.0241      -1527.332          24.000  
J01  36857354.185   193686705.398        -350.510          30.000  
J02  38751862.944   203642374.797       -2154.022          30.000  
> 2021  9 12 12  7 57.9975634  0  4
C23  22523301.543   117284497.149       -1035.992          22.000  
C33  23841860.423   124150798.447       -3862.797          30.000  
G31  21105284.416   110908988.495       -1526.384          26.000  
J02  38751975.665   203642952.633       -2153.115          21.000  
> 2021  9 12 12  7 58.9975626  0  4
C23  22523258.073   117284285.123       -1036.791          24.000  
C33  23842359.878   124153412.184       -3863.019          31.000  
J01  36856950.664   193684571.8351       -350.558          26.000  
J02  38752142.950   203643844.559       -2152.668          19.000  
> 2021  9 12 12  7 59.9975616  0  4
C16  37116088.267   193273187.0191       -845.294          21.000  
C23  22523155.844   117283761.161       -1036.858          24.000  
C33  23842802.371   124155714.283       -3863.168          30.000  
J02  38752248.477   203644421.263       -2151.480          21.000  
> 2021  9 12 12  8  0.9975611  0  6
C16  37116098.760   193273251.553        -844.573          21.000  
C23  22523205.609   117284018.042       -1037.938          25.000  
C33  23843394.162   124158796.356       -3862.534          31.000  
G32  20804331.761   109327477.6961       -964.640          29.000  
J01  36856637.681   193682910.6801       -351.333          25.000  
J02  38752507.198   203645785.724       -2153.778          21.000  
> 2021  9 12 12  8  1.9975601  0  5
C23  22523104.879   117283495.826       -1039.711          25.000  
C33  23843835.156   124161097.858       -3862.403          31.000  
G31  21105452.000   110909894.5581      -1526.462          19.000  
J01  36856405.941   193681685.464        -350.359          25.000  
J02  38752617.821   203646366.006       -2157.615          21.000  
> 2021  9 12 12  8  2.9975593  0  4
C23  22523063.508   117283285.743       -1037.864          24.000  
C33  23844336.709   124163712.159       -3863.539          29.000  
G32  20804165.676   109326571.4051       -965.826          27.000  
J01  36856233.860   193680775.220        -350.996          27.000  
> 2021  9 12 12  8  3.9975583  0  5
C16  37115738.109   193271404.0751       -837.452          20.000  
C23  22522962.478   117282762.322       -1038.468          25.000  
C33  23844780.402   124166014.866       -3864.257          29.000  
G32  20804051.455   109325962.207        -966.937          27.000  
J01  36856001.221   193679549.746        -350.020          24.000  
> 2021  9 12 12  8  4.9975578  0  5
C23  22523014.641   117283020.308       -1038.526          27.000  
C33  23845373.392   124169099.120       -3864.481          29.000  
G32  20804088.329   109326141.143        -966.836          26.000  
J01  36855917.579   193679113.047        -351.629          26.000  
J02  38753165.842   203649215.3971      -2154.837          26.000  
> 2021  9 12 12  8  5.9975567  0  6
C16  37115584.316   193270584.8091       -841.899          18.000  
C23  22522883.632   117282341.689       -1039.618          27.000  
C33  23845787.105   124171246.745       -3865.986          28.000  
G32  20803939.332   109325374.636        -967.760          26.000  
J01  36855656.160   193677732.915        -353.562          22.000  
J02  38753245.287   203649638.629       -2156.743          25.000  
> 2021  9 12 12  8  6.9975560  0  4
C23  22522872.240   117282288.620       -1040.323          28.000  
G32  20803914.750   109325238.870        -965.296          24.000  
J01  36855512.560   193676982.829        -351.697          25.000  
J02  38753448.546   203650691.197       -2155.469          25.000  
> 2021  9 12 12  8  7.9975549  0  5
C16  37115371.763   193269462.9801       -846.202          23.000  
C23  22522739.432   117281611.308       -1040.385          30.000  
G31  21105649.263   110910876.1471      -1527.521          16.000  
J01  36855249.342   193675601.170        -351.502          25.000  
J02  38753526.792   203651111.911       -2152.959          23.000  
> 2021  9 12 12  8  8.9975542  0  5
C16  37115322.597   193269216.323        -845.957          26.000  
C23  22522727.740   117281558.994       -1041.618          26.000  
C33  23847266.281   124178936.7441      -3865.162          24.000  
J01  36855105.142   193674849.096        -350.964          27.000  
J02  38753725.554   203652162.194       -2152.159          23.000  
> 2021  9 12 12  8  9.9975534  0  6
C06  36514677.015   190141530.4351       -895.184          24.000  
C16  37115244.651   193268812.284        -844.800          25.000  
C33  23847769.333   124181552.712       -3864.905          22.000  
G31  21105776.675   110911570.8171      -1529.624          18.000  
J01  36854931.562   193673939.118        -350.708          30.000  
J02  38753896.736   203653054.606       -2152.032          19.000  
> 2021  9 12 12  8 10.9975526  0  7
C06  36514608.662   190141176.252        -893.203          25.000  
C16  37115166.405   193268407.638        -843.513          25.000  
C33  23848270.586   124184169.995       -3867.310          23.000  
G31  21105828.239   110911840.368       -1530.202          19.000  
G32  20803624.850   109323749.4011       -967.751          25.000  
J01  36854758.582   193673030.536        -352.655          30.000  
J02  38754066.118   203653948.331       -2155.442          19.000  
> 2021  9 12 12  8 11.9975516  0  7
C06  36514481.550   190140507.349        -892.085          23.000  
C16  37115029.700   193267689.799        -843.010          26.000  
C23  22522542.468   117280624.3181      -1041.256          18.000  
G31  21105817.147   110911795.236       -1530.114          23.000  
G32  20803507.931   109323142.353        -968.951          26.000  
J01  36854525.043   193671807.255        -351.756          27.000  
J02  38754179.140   203654529.956       -2158.298          19.000  
> 2021  9 12 12  8 12.9975508  0  6
C06  36514414.397   190140150.434        -892.069          24.000  
C16  37114951.454   193267285.813        -845.465          26.000  
C23  22522501.697   117280415.343       -1040.414          17.000  
G31  21105869.011   110912065.793       -1531.267          20.000  
G32  20803452.470   109322851.361        -969.462          25.000  
J01  36854351.463   193670899.421        -352.985          27.000  
> 2021  9 12 12  8 13.9975501  0  7
C06  36514375.724   190139950.624        -893.641          24.000  
C16  37114905.586   193267037.630        -844.607          27.000  
C23  22522490.904   117280364.559       -1043.909          16.000  
G31  21105951.454   110912494.375       -1531.404          23.000  
G32  20803424.289   109322718.807        -971.949          24.000  
J01  36854207.563   193670149.468        -352.530          30.000  
J02  38754555.080   203656481.4261      -2157.395          19.000  
> 2021  9 12 12  8 14.9975493  0  6
C06  36514307.671   190139595.358        -893.622          25.000  
C16  37114830.038   193266633.650        -844.639          25.000  
C33  23850244.120   124194488.1421      -3867.514          23.000  
G31  21106006.016   110912765.608       -1532.127          21.000  
G32  20803366.429   109322429.560        -971.510          24.000  
J01  36854034.883   193669241.811        -352.451          31.000  
> 2021  9 12 12  8 15.9975483  0  7
C06  36514178.760   190138927.781        -893.398          25.000  
C16  37114694.232   193265916.421        -844.293          23.000  
C33  23850687.812   124196795.020       -3867.244          25.000  
E01  23396141.888   122947555.0031      -1647.385          27.000  
G31  21105998.221   110912722.338       -1532.092          20.000  
G32  20803249.210   109321825.296        -970.338          26.000  
J01  36853801.944   193668018.372        -351.997          27.000  
> 2021  9 12 12  8 16.9975475  0  6
C06  36514109.808   190138572.877        -894.950          25.000  
C33  23851192.063   124199413.802       -3867.649          25.000  
G31  21106051.884   110912993.652       -1532.167          24.000  
G32  20803193.149   109321534.649        -969.600          26.000  
J01  36853629.263   193667110.145        -352.091          27.000  
J02  38755005.368   203658846.2941      -2155.140          18.000  
> 2021  9 12 12  8 17.9975468  0  5
C16  37114566.820   193265267.6931       -850.008          22.000  
C33  23851724.795   124202188.585       -3867.744          28.000  
G31  21106128.032   110913423.077       -1534.164          22.000  
G32  20803166.767   109321402.496        -971.932          27.000  
J01  36853485.963   193666359.541        -352.448          30.000  
> 2021  9 12 12  8 18.9975460  0  5
C16  37114491.272   193264868.715        -850.496          15.000  
C33  23852229.045   124204809.034       -3870.134          28.000  
G32  20803111.006   109321114.148        -972.794          24.000  
J01  36853314.781   193665451.580        -352.276          30.000  
J02  38755370.815   203660793.3891      -2154.830          24.000  
> 2021  9 12 12  8 19.9975450  0  4
C16  37114354.267   193264157.316        -848.423          18.000  
C33  23852673.638   124207118.298       -3870.643          28.000  
J01  36853080.943   193664228.423        -352.382          28.000  
J02  38755479.340   203661373.765       -2156.841          24.000  
> 2021  9 12 12  8 20.9975442  0  8
C06  36513809.116   190137008.5981       -898.247          18.000  
C16  37114276.321   193263755.739        -846.516          25.000  
C23  22522131.153   117278449.5601      -1043.648          19.000  
C33  23853178.188   124209738.941       -3868.172          29.000  
G31  21106229.661   110913929.0141      -1536.662          15.000  
G32  20802944.621   109320222.9611       -973.171          26.000  
J01  36852907.363   193663320.073        -351.606          30.000  
J02  38755650.821   203662269.923       -2156.691          26.000  
> 2021  9 12 12  8 21.9975434  0  5
C16  37114199.574   193263354.591        -848.531          26.000  
C33  23853680.940   124212357.788       -3867.169          31.000  
G32  20802887.960   109319934.301        -972.837          25.000  
J01  36852732.884   193662412.660        -353.356          26.000  
J02  38755819.005   203663167.169       -2157.937          24.000  
> 2021  9 12 12  8 22.9975427  0  6
C16  37114151.308   193263109.097        -846.186          22.000  
C33  23854214.571   124215131.532       -3866.960          31.000  
G31  21106362.769   110914640.2551      -1536.491          21.000  
G32  20802863.078   109319804.549        -973.290          31.000  
J01  36852589.283   193661663.657        -353.991          24.000  
J02  38756019.266   203664222.751       -2156.894          23.000  
> 2021  9 12 12  8 23.9975416  0  6
C16  37113981.925   193262238.145        -845.712          24.000  
C33  23854625.886   124217280.967       -3867.441          30.000  
G31  21106324.995   110914444.143       -1535.681          20.000  
G32  20802717.079   109319045.417        -975.208          30.000  
J01  36852326.365   193660284.311        -353.786          27.000  
J02  38756094.814   203664646.818       -2156.518          21.000  
> 2021  9 12 12  8 24.9975409  0  7
C06  36513508.424   190135440.1741       -896.067          18.000  
C16  37113933.958   193261991.400        -845.494          23.000  
C33  23855157.718   124220056.036       -3867.916          31.000  
G31  21106406.539   110914877.070       -1537.066          22.000  
G32  20802692.795   109318917.544        -975.094          29.000  
J01  36852185.463   193659535.031        -353.276          26.000  
J02  38756295.675   203665700.132       -2153.896          22.000  
> 2021  9 12 12  8 25.9975401  0  7
C06  36513441.271   190135087.883        -898.085          26.000  
C16  37113856.012   193261588.161        -845.983          24.000  
C33  23855660.770   124222675.403       -3868.416          32.000  
G31  21106457.204   110915153.824       -1537.290          24.000  
G32  20802640.332   109318632.141        -975.267          30.000  
J01  36852012.483   193658628.807        -355.080          26.000  
J02  38756463.559   203666594.150       -2155.135          25.000  
> 2021  9 12 12  8 26.9975393  0  7
C06  36513373.817   190134736.851        -897.125          25.000  
C16  37113777.167   193261185.719        -847.153          23.000  
C33  23856162.922   124225295.025       -3869.363          33.000  
G31  21106507.869   110915430.866       -1538.428          26.000  
G32  20802586.669   109318347.200        -975.489          30.000  
J01  36851839.802   193657722.720        -353.285          22.000  
J02  38756633.241   203667489.548       -2156.073          25.000  
> 2021  9 12 12  8 27.9975383  0  7
C06  36513246.406   190134071.762        -896.323          21.000  
C16  37113640.761   193260471.397        -846.424          23.000  
C33  23856607.514   124227602.160       -3867.968          33.000  
G31  21106499.175   110915392.897       -1535.888          22.000  
G32  20802472.448   109317746.562        -974.724          37.000  
J01  36851606.863   193656500.546        -353.402          25.000  
J02  38756745.963   203668069.563       -2155.643          24.000  
> 2021  9 12 12  8 28.9975375  0  7
C06  36513178.952   190133719.279        -896.024          28.000  
C16  37113562.815   193260068.593        -846.147          30.000  
C33  23857110.566   124230221.255       -3868.662          30.000  
G31  21106553.737   110915669.035       -1537.192          25.000  
G32  20802419.984   109317461.859        -976.058          33.000  
J01  36851434.483   193655592.705        -352.591          28.000  
J02  38756916.245   203668965.412       -2156.298          30.000  
> 2021  9 12 12  8 29.9975368  0  6
C16  37113516.647   193259821.888        -845.936          25.000  
C33  23857642.698   124232997.400       -3870.607          30.000  
G31  21106637.379   110916103.015       -1537.963          23.000  
G32  20802397.200   109317335.532        -976.664          28.000  
J01  36851290.882   193654841.138        -350.896          27.000  
J02  38757117.706   203670019.400       -2157.686          29.000  
> 2021  9 12 12  8 30.9975360  0  4
C33  23858146.649   124235618.805       -3870.463          29.000  
G32  20802342.338   109317052.663        -977.721          31.000  
J01  36851117.003   193653931.770        -351.453          29.000  
J02  38757287.388   203670916.107       -2157.158          25.000  
> 2021  9 12 12  8 31.9975350  0  6
C06  36512948.112   190132501.8621       -896.458          20.000  
C16  37113302.895   193258705.5611       -846.718          21.000  
C33  23858590.941   124237928.557       -3870.711          30.000  
G32  20802230.216   109316454.693        -977.911          29.000  
J01  36850882.265   193652706.681        -350.504          23.000  
J02  38757401.909   203671497.054       -2155.487          24.000  
> 2021  9 12 12  8 32.9975342  0  5
C16  37113227.647   193258302.330        -844.719          22.000  
C33  23859093.693   124240550.734       -3870.831          30.000  
G32  20802176.253   109316171.782        -977.075          31.000  
J01  36850708.985   193651796.589        -350.425          28.000  
J02  38757573.090   203672391.975       -2155.160          26.000  
> 2021  9 12 12  8 33.9975334  0  5
C16  37113150.301   193257896.782        -843.059          22.000  
C33  23859597.045   124243172.318       -3870.341          31.000  
G32  20802122.290   109315887.444        -975.539          30.000  
J01  36850537.804   193650886.253        -350.292          26.000  
J02  38757742.773   203673286.480       -2154.753          26.000  
> 2021  9 12 12  8 34.9975327  0  6
C16  37113101.135   193257647.336        -844.395          24.000  
C33  23860129.476   124245950.411       -3870.188          30.000  
G31  21106876.314   110917325.8511      -1536.143          18.000  
G32  20802098.307   109315760.466        -975.723          23.000  
J01  36850394.203   193650134.316        -350.560          24.000  
J02  38757943.934   203674338.896       -2155.982          24.000  
> 2021  9 12 12  8 35.9975316  0  5
C16  37112933.551   193256774.247        -844.015          23.000  
C33  23860542.890   124248103.713       -3870.745          31.000  
G32  20801955.906   109315004.357        -978.238          26.000  
J01  36850129.786   193648752.535        -351.453          27.000  
J02  38758024.278   203674762.438       -2157.269          24.000  
> 2021  9 12 12  8 36.9975309  0  6
C16  37112886.184   193256526.627        -845.324          24.000  
C33  23861077.120   124250881.993       -3871.322          32.000  
G31  21106920.683   110917569.3281      -1545.329          19.000  
G32  20801931.323   109314880.355        -979.117          30.000  
J01  36849987.684   193648002.288        -352.649          27.000  
J02  38758223.340   203675817.533       -2157.649          24.000  
> 2021  9 12 12  8 37.9975299  0  6
C16  37112752.776   193255812.761        -847.318          21.000  
C33  23861520.813   124253192.496       -3872.932          32.000  
G31  21106919.184   110917537.459       -1542.614          19.000  
G32  20801817.701   109314284.674        -980.074          30.000  
J01  36849757.144   193646779.392        -352.495          26.000  
J02  38758335.463   203676400.686       -2158.964          23.000  
> 2021  9 12 12  8 38.9975293  0  6
C16  37112734.788   193255722.417        -844.483          20.000  
C33  23862084.722   124256128.242       -3872.593          32.000  
G31  21107040.300   110918133.356       -1540.168          19.000  
G32  20801822.798   109314318.876        -979.598          32.000  
J01  36849645.321   193646186.861        -353.780          25.000  
J02  38758565.104   203677614.713       -2159.647          22.000  
> 2021  9 12 12  8 39.9975283  0  4
C33  23862529.914   124258439.848       -3873.641          31.000  
G32  20801709.176   109313722.864        -981.010          32.000  
J01  36849412.682   193644965.481        -353.594          24.000  
J02  38758675.727   203678198.136       -2159.013          23.000  
> 2021  9 12 12  8 40.9975273  0  3
C33  23862973.008   124260753.610       -3874.008          31.000  
G32  20801593.756   109313128.684        -981.077          29.000  
J01  36849179.144   193643743.955        -354.845          24.000  
> 2021  9 12 12  8 41.9975265  0  4
C33  23863476.659   124263378.126       -3872.263          31.000  
G32  20801542.492   109312849.116        -980.575          30.000  
J01  36849007.963   193642838.364        -354.216          24.000  
J02  38758954.834   203679682.2401      -2158.457          18.000  
> 2021  9 12 12  8 42.9975258  0  4
C33  23864012.688   124266159.175       -3873.820          30.000  
G32  20801519.708   109312727.084        -980.336          30.000  
J01  36848865.261   193642089.311        -351.863          23.000  
J02  38759154.496   203680738.993       -2158.989          20.000  
> 2021  9 12 12  8 43.9975250  0  5
C33  23864516.039   124268784.066       -3873.509          31.000  
G31  21107210.882   110919050.3151      -1535.880          15.000  
G32  20801468.743   109312446.429        -979.662          28.000  
J01  36848692.281   193641181.774        -353.610          24.000  
J02  38759323.878   203681636.208       -2156.904          19.000  
> 2021  9 12 12  8 44.9975240  0  4
C33  23864958.833   124271096.564       -3874.170          33.000  
G31  21107204.586   110919010.723       -1536.834          15.000  
G32  20801354.822   109311851.113        -979.495          30.000  
J01  36848457.843   193639960.381        -353.787          24.000  
> 2021  9 12 12  8 45.9975232  0  4
C33  23865461.885   124273720.807       -3873.492          30.000  
G32  20801301.758   109311571.149        -980.773          29.000  
J01  36848287.861   193639053.169        -353.317          24.000  
J02  38759607.182   203683114.4581      -2157.476          19.000  
> 2021  9 12 12  8 46.9975224  0  5
C33  23865965.836   124276345.948       -3874.118          29.000  
G31  21107310.713   110919564.8281      -1539.423          15.000  
G32  20801248.695   109311293.139        -982.117          30.000  
J01  36848118.778   193638146.055        -351.894          27.000  
J02  38759776.865   203684012.505       -2159.450          20.000  
> 2021  9 12 12  8 47.9975217  0  4
C33  23866499.466   124279127.388       -3874.383          32.000  
G31  21107390.158   110920002.064       -1540.609          14.000  
G32  20801225.311   109311172.727        -983.069          30.000  
J01  36847976.077   193637395.517        -351.797          23.000  
> 2021  9 12 12  8 48.9975206  0  5
C33  23866915.578   124281285.340       -3875.890          32.000  
G31  21107352.984   110919809.412       -1540.063          15.000  
G32  20801082.910   109310422.435        -982.823          26.000  
J01  36847712.260   193636014.490        -352.397          27.000  
J02  38760062.867   203685489.5911      -2152.380          20.000  
> 2021  9 12 12  8 49.9975199  0  3
C33  23867450.708   124284068.748       -3876.149          32.000  
G32  20801059.826   109310301.803        -981.678          26.000  
J01  36847567.760   193635265.402        -354.296          24.000  
> 2021  9 12 12  8 50.9975191  0  5
C33  23867957.057   124286694.978       -3873.679          34.000  
G31  21107483.094   110920526.2111      -1542.349          15.000  
G32  20801007.062   109310023.316        -981.788          27.000  
J01  36847394.180   193634359.830        -354.472          25.000  
J02  38760433.111   203687434.8901      -2156.635          23.000  
> 2021  9 12 12  8 51.9975183  0  4
C33  23868464.006                       -3872.611          32.000  
G32  20800955.798   109309744.346        -980.370          26.000  
J01  36847219.701   193633452.512        -352.266          25.000  
J02  38760603.992   203688329.940       -2155.927          22.000  
> 2021  9 12 12  8 52.9975173  0  5
C33  23868904.701   124291670.8661      -3874.373          32.000  
G31  21107530.161   110920769.4941      -1535.056          16.000  
G32  20800842.476   109309150.511        -982.455          27.000  
J01  36846987.661   193632228.160        -350.665          26.000  
J02  38760718.213   203688912.658       -2158.353          20.000  
> 2021  9 12 12  8 53.9975165  0  4
C33  23869410.451   124294298.360       -3879.310          31.000  
G32  20800792.411   109308873.539        -983.818          27.000  
J01  36846814.081   193631318.862        -351.745          26.000  
J02  38760886.996   203689810.762       -2158.187          21.000  
> 2021  9 12 12  8 54.9975158  0  4
C33  23869944.981   124297081.847       -3878.841          33.000  
G32  20800772.325   109308755.436        -984.640          26.000  
J01  36846673.479   193630568.039        -351.895          25.000  
J02  38761086.058   203690865.407       -2156.943          23.000  
> 2021  9 12 12  8 55.9975150  0  3
C33  23870452.530   124299707.628       -3873.899          34.000  
G32  20800720.761   109308479.214        -983.187          22.000  
J01  36846500.199   193629660.438        -352.383          25.000  
> 2021  9 12 12  8 56.9975140  0  4
C33  23870890.526                       -3879.490          35.000  
G31  21107702.242   110921706.5451      -1533.308          15.000  
G32  20800605.640   109307885.851        -982.315          19.000  
J01  36846267.860   193628438.457        -354.889          23.000  
> 2021  9 12 12  8 57.9975132  0  2
C33  23871398.075   124304619.4201      -3878.617          31.000  
J01  36846098.477   193627532.045        -352.964          25.000  
> 2021  9 12 12  8 58.9975124  0  4
C33  23871908.022   124307248.436       -3875.512          32.000  
G31  21107806.570   110922249.0771      -1529.300          13.000  
G32  20800504.910   109307330.0861       -982.188          23.000  
J01  36845925.497   193626624.744        -353.537          27.000  
> 2021  9 12 12  8 59.9975117  0  3
C33  23872442.852   124310032.998       -3882.311          31.000  
G32  20800482.126   109307210.263        -983.782          28.000  
J01  36845782.196   193625875.467        -353.497          25.000  
> 2021  9 12 12  9  0.9975107  0  4
C33  23872885.645   124312353.312       -3881.112          28.000  
G31  21107881.518   110922628.8381      -1525.539          10.000  
G32  20800367.006   109306618.867        -984.796          26.000  
J01  36845550.156   193624653.193        -353.600          25.000  
> 2021  9 12 12  9  1.9975099  0  3
C33  23873389.296   124314985.243       -3881.704          29.000  
G32  20800315.441   109306343.216        -984.648          22.000  
J01  36845376.577   193623746.803        -353.796          24.000  
> 2021  9 12 12  9  2.9975091  0  3
C33  23873893.248   124317618.767       -3882.863          22.000  
G32  20800261.479   109306067.450        -984.987          23.000  
J01  36845203.297   193622840.042        -354.338          28.000  
> 2021  9 12 12  9  3.9975084  0  3
C33  23874428.077   124320408.555       -3881.544          27.000  
G32  20800239.894   109305949.694        -985.248          23.000  
J01  36845061.195   193622091.374        -355.757          23.000  
> 2021  9 12 12  9  4.9975073  0  3
C33  23874842.990   124322573.047       -3882.227          31.000  
G32  20800097.492   109305203.006        -987.511          26.000  
J01  36844797.378   193620713.738        -355.665          22.000  
> 2021  9 12 12  9  5.9975066  0  3
C33  23875378.419   124325361.705       -3881.939          30.000  
G32  20800077.106   109305088.071        -988.244          30.000  
J01  36844655.876   193619966.972        -355.727          21.000  
> 2021  9 12 12  9  6.9975058  0  3
C33  23875883.570   124327993.587       -3880.154          29.000  
G32  20800025.542   109304814.603        -985.852          29.000  
J01  36844484.394   193619061.218        -353.039          26.000  
> 2021  9 12 12  9  7.9975050  0  2
C33  23876389.919   124330625.896       -3881.158          27.000  
J01  36844312.613   193618153.873        -353.365          24.000  
> 2021  9 12 12  9  8.9975040  0  3
C33  23876835.111   124332946.218       -3881.063          31.000  
G32  20799859.757   109303952.0161       -986.907          26.000  
J01  36844077.276   193616932.280        -355.536          22.000  
> 2021  9 12 12  9  9.9975032  0  3
C33  23877341.460   124335578.228       -3879.544          35.000  
G32  20799809.691   109303679.461        -987.981          24.000  
J01  36843902.497   193616025.882        -354.675          22.000  
> 2021  9 12 12  9 10.9975022  0  3
C33  23877786.952   124337898.170       -3881.790          35.000  
G32  20799703.865   109303091.506        -987.162          21.000  
J01  36843670.158   193614803.558        -353.251          23.000  
> 2021  9 12 12  9 11.9975017  0  3
C33  23878381.441   124340998.639       -3881.122          30.000  
G32  20799739.540   109303290.863        -986.386          24.000  
J01  36843588.015   193614368.675        -354.147          23.000  
> 2021  9 12 12  9 12.9975007  0  3
C33  23878826.333   124343318.547       -3880.445          29.000  
G32  20799628.017   109302702.025        -987.528          23.000  
J01  36843356.875   193613147.032        -353.281          23.000  
> 2021  9 12 12  9 13.9974999  0  3
C33  23879330.883   124345949.944       -3880.398          31.000  
G32  20799573.455   109302428.488        -987.787          25.000  
J01  36843183.295   193612239.492        -352.787          25.000  
> 2021  9 12 12  9 14.9974989  0  3
C33  23879777.874   124348270.554       -3882.271          33.000  
G32  20799461.932   109301840.224        -987.333          20.000  
J01  36842951.555   193611017.044        -354.009          25.000  
> 2021  9 12 12  9 15.9974984  0  2
C33  23880374.461   124351372.515       -3882.008          32.000  
J01  36842871.211   193610583.823        -354.729          23.000  
> 2021  9 12 12  9 16.9974973  0  2
C33  23880793.870                       -3880.960          33.000  
J01  36842609.792   193609205.294        -354.648          27.000  
> 2021  9 12 12  9 17.9974966  0  3
C33  23881331.398                       -3884.273          33.000  
G32  20799338.418   109301171.7571       -984.212          19.000  
J01  36842466.191   193608456.786        -354.777          29.000  
> 2021  9 12 12  9 18.9974956  0  3
C33  23881778.389   124358671.2771      -3883.904          32.000  
G32  20799226.295   109300581.433        -987.561          20.000  
J01  36842234.152   193607236.247        -355.750          25.000  
> 2021  9 12 12  9 19.9974950  0  3
C33  23882340.800   124361617.131       -3880.788          33.000  
G32  20799241.285   109300625.323        -989.977          21.000  
J01  36842119.931   193606645.761        -354.800          28.000  
> 2021  9 12 12  9 20.9974940  0  2
C33  23882786.591                       -3883.279          32.000  
G32  20799131.561   109300039.369        -989.013          21.000  
> 2021  9 12 12  9 21.9974932  0  3
C33  23883294.439   124366573.7881      -3881.726          33.000  
G32  20799081.795   109299769.504        -992.054          23.000  
J01  36841718.809   193604520.5641       -353.788          22.000  
> 2021  9 12 12  9 22.9974922  0  3
C33  23883739.931   124368896.895       -3882.449          32.000  
G32  20798971.472   109299185.926        -992.129          25.000  
J01  36841485.270   193603298.308        -353.245          24.000  
> 2021  9 12 12  9 23.9974917  0  3
C33  23884330.822   124371999.927       -3881.227          34.000  
G32  20799008.646   109299390.651        -992.362          23.000  
J01  36841401.628   193602863.772        -352.936          26.000  
> 2021  9 12 12  9 24.9974907  0  3
C33  23884776.913   124374323.556       -3885.094          31.000  
G32  20798897.723   109298806.914        -992.039          27.000  
J01  36841167.191   193601641.092        -352.006          25.000  
> 2021  9 12 12  9 25.9974899  0  3
C33  23885280.564   124376958.791       -3883.009          31.000  
G32  20798844.060   109298537.988        -990.878          25.000  
J01  36840993.011   193600732.641        -352.741          25.000  
> 2021  9 12 12  9 26.9974889  0  2
C33  23885726.656   124379281.081       -3884.021          31.000  
G32  20798732.537   109297954.591        -992.723          26.000  
> 2021  9 12 12  9 27.9974884  0  3
C33  23886323.542   124382385.002       -3884.258          35.000  
G32  20798773.609   109298159.641        -993.208          27.000  
J01  36840682.426   193599074.3711       -353.059          23.000  
> 2021  9 12 12  9 28.9974874  0  3
C33  23886770.533   124384709.089       -3886.578          34.000  
G32  20798659.987   109297577.591        -993.122          29.000  
J01  36840446.190   193597852.684        -353.876          25.000  
> 2021  9 12 12  9 29.9974866  0  3
C33  23887281.079   124387345.588       -3885.033          33.000  
G32  20798607.524   109297311.043        -994.132          29.000  
J01  36840273.509   193596945.845        -353.038          26.000  
> 2021  9 12 12  9 30.9974856  0  2
C33  23887727.470   124389669.345       -3885.170          30.000  
J01  36840040.271   193595724.470        -354.341          25.000  
> 2021  9 12 12  9 31.9974848  0  2
C33  23888233.220   124392305.277       -3885.086          29.000  
J01  36839864.892   193594817.706        -353.889          23.000  
> 2021  9 12 12  9 32.9974840  0  3
C33  23888735.972   124394941.778       -3885.641          28.000  
G32  20798388.076   109296196.7291       -991.864          31.000  
J01  36839692.512   193593910.296        -352.172          24.000  
> 2021  9 12 12  9 33.9974833  0  3
C33  23889271.402   124397734.689       -3886.027          26.000  
G32  20798366.490   109296086.600        -993.950          31.000  
J01  36839548.911   193593158.764        -351.230          24.000  
> 2021  9 12 12  9 34.9974822  0  3
C33  23889687.214   124399905.225       -3888.682          25.000  
G32  20798224.089   109295348.321        -995.426          31.000  
J01  36839285.094   193591778.011        -352.509          22.000  
> 2021  9 12 12  9 35.9974815  0  3
C33  23890225.341   124402701.570       -3889.009          21.000  
G32  20798201.005   109295241.055        -995.844          30.000  
J01  36839143.891   193591028.261        -352.915          22.000  
> 2021  9 12 12  9 36.9974807  0  3
C33  23890733.489   124405342.028       -3890.024          24.000  
G32  20798148.841   109294976.470        -996.494          29.000  
J01  36838972.110   193590120.271        -353.389          22.000  
> 2021  9 12 12  9 37.9974799  0  2
G32  20798098.176   109294712.377        -996.093          27.000  
J01  36838800.029   193589213.857        -355.091          25.000  
> 2021  9 12 12  9 38.9974789  0  3
C33  23891690.727   124410313.3011      -3892.569          20.000  
G32  20797986.653   109294132.855        -996.383          27.000  
J01  36838566.491   193587994.218        -357.376          25.000  
> 2021  9 12 12  9 39.9974781  0  2
G32  20797937.487   109293868.855        -996.774          31.000  
J01  36838394.110   193587090.682        -356.264          23.000  
> 2021  9 12 12  9 40.9974774  0  1
J01  36838251.409   193586343.558        -355.306          25.000  
> 2021  9 12 12  9 41.9974766  0  2
G32  20797868.235   109293500.1971       -997.647          28.000  
J01  36838076.930   193585438.918        -354.787          25.000  
> 2021  9 12 12  9 42.9974756  0  3
C33  23893697.537   124420731.6211      -3893.469          20.000  
G32  20797760.010   109292922.584        -998.671          28.000  
J01  36837847.289   193584217.528        -353.234          24.000  
> 2021  9 12 12  9 43.9974748  0  2
G32  20797712.343   109292661.347        -999.321          29.000  
J01  36837677.007   193583309.513        -352.465          24.000  
> 2021  9 12 12  9 44.9974740  0  1
G32  20797665.276   109292399.292        -998.189          27.000  
> 2021  9 12 12  9 45.9974733  0  3
C33  23895251.062   124428821.1941      -3893.631          18.000  
G32  20797644.890   109292294.898        -999.029          29.000  
J01  36837362.824   193581653.7861       -355.433          22.000  
> 2021  9 12 12  9 46.9974723  0  3
C33  23895700.151   124431154.458       -3894.991          18.000  
G32  20797535.466   109291719.281       -1000.856          26.000  
J01  36837128.986   193580435.294        -357.307          21.000  
> 2021  9 12 12  9 47.9974715  0  2
G32  20797486.899   109291458.462        -998.062          28.000  
J01  36836955.107   193579531.468        -356.165          21.000  
> 2021  9 12 12  9 48.9974707  0  2
G32  20797437.434   109291196.603        -998.691          26.000  
J01  36836780.927   193578627.262        -356.504          25.000  
> 2021  9 12 12  9 49.9974700  0  3
C33  23897257.273   124439247.8831      -3894.665          18.000  
G32  20797417.947   109291093.184        -999.538          28.000  
J01  36836640.924   193577880.632        -357.270          27.000  
> 2021  9 12 12  9 50.9974689  0  2
G32  20797278.843   109290358.858        -998.259          31.000  
J01  36836377.706   193576504.907        -357.600          25.000  
> 2021  9 12 12  9 51.9974682  0  2
G32  20797257.858   109290254.047        -998.208          25.000  
J01  36836237.104   193575759.412        -357.477          25.000  
> 2021  9 12 12  9 52.9974674  0  2
G32  20797207.193   109289992.251        -999.212          35.000  
J01  36836064.723   193574856.269        -357.260          32.000  
> 2021  9 12 12  9 53.9974666  0  2
G32  20797158.027   109289731.358       -1000.689          30.000  
J01  36835891.443   193573952.009        -356.530          30.000  
> 2021  9 12 12  9 54.9974656  0  2
G32  20797048.003   109289156.027        -998.681          28.000  
J01  36835659.104   193572733.461        -357.193          29.000  
> 2021  9 12 12  9 55.9974648  0  2
G32  20796997.039   109288894.877        -999.624          28.000  
J01  36835487.623   193571829.771        -356.460          29.000  
> 2021  9 12 12  9 56.9974641  0  2
G32  20796979.651   109288792.688       -1001.425          31.000  
J01  36835347.020   193571083.680        -357.002          31.000  
> 2021  9 12 12  9 57.9974633  0  5
C16  37105717.846   193219022.5291       -834.702          24.000  
C23  22517632.467   117255221.1881      -1076.615          21.000  
E01  23403010.433   122983649.3031      -1684.626          35.000  
G32  20796930.784   109288533.911       -1001.880          30.000  
J01  36835175.539   193570180.286        -356.975          35.000  
> 2021  9 12 12  9 58.9974623  0  4
C16  37105576.944   193218296.347        -834.716          27.000  
C23  22517538.033   117254736.643       -1076.418          21.000  
E01  23403031.119   122983757.883       -1687.179          35.000  
G32  20796821.960   109287960.538       -1002.548          29.000  
> 2021  9 12 12  9 59.9974615  0  5
C16  37105499.597   193217882.262        -834.784          28.000  
C23  22517503.856   117254563.406       -1074.082          22.000  
E01  23403111.763   122984181.547       -1684.613          35.000  
G32  20796775.192   109287702.582       -1003.623          27.000  
J01  36834778.613                        -357.532          34.000  
> 2021  9 12 12 10  0.9974605  0  4
C16  37105361.992   193217154.560        -832.197          25.000  
E01  23403133.648   122984297.127       -1685.510          34.000  
G32  20796665.168   109287131.422       -1003.878          24.000  
J01  36834545.974   193566849.1281       -358.141          33.000  
> 2021  9 12 12 10  1.9974600  0  4
C16  37105372.185   193217206.174        -833.105          24.000  
C23  22517463.384   117254366.9291      -1071.323          22.000  
E01  23403304.529   122985194.417       -1686.455          33.000  
J01  36834464.731                        -358.730          32.000  
> 2021  9 12 12 10  2.9974589  0  5
C16  37105201.304   193216322.724        -834.178          23.000  
C23  22517338.971   117253720.692       -1070.812          21.000  
E01  23403296.435   122985152.455       -1687.708          35.000  
G10  22002177.110   115622220.7461      -4440.795          23.000  
J01  36834205.710   193565042.9961       -355.249          32.000  
> 2021  9 12 12 10  3.9974582  0  6
C16  37105152.437   193216063.669        -832.952          23.000  
C23  22517333.874   117253700.135       -1070.865          21.000  
C33  23904193.871   124475385.3111      -3899.841          24.000  
E01  23403408.857   122985742.661       -1685.771          30.000  
G10  22002814.169   115625558.865       -4441.389          27.000  
G32  20796546.750   109286520.7191      -1003.305          30.000  
> 2021  9 12 12 10  4.9974572  0  6
C23  22517239.140   117253208.335       -1066.550          16.000  
C33  23904642.660   124477724.181       -3900.024          22.000  
E01  23403428.344   122985845.241       -1685.633          27.000  
G10  22003357.692   115628425.482       -4442.200          24.000  
G32  20796436.726   109285947.872       -1002.440          30.000  
J01  36833830.370   193563077.7311       -357.331          31.000  
> 2021  9 12 12 10  5.9974566  0  4
C23  22517264.022   117253339.706       -1068.175          15.000  
E01  23403569.246   122986585.989       -1686.553          29.000  
G10  22004023.831   115631921.643       -4441.772          21.000  
J01  36833715.849   193562489.503        -356.783          33.000  
> 2021  9 12 12 10  6.9974556  0  4
E01  23403588.733   122986688.569       -1687.563          29.000  
G10  22004564.657   115634788.360       -4443.517          20.000  
G32  20796337.795   109285431.7191      -1002.448          33.000  
J01  36833481.711   193561270.828        -357.922          34.000  
> 2021  9 12 12 10  7.9974548  0  8
C23  22517137.810   117252673.4411      -1073.049          14.000  
C33  23906161.709   124485671.5011      -3900.132          20.000  
E01  23403668.777   122987109.233       -1688.028          29.000  
G10  22005167.240   115637971.418       -4441.827          24.000  
G31  21110899.229   110938524.1461      -1551.286          23.000  
G32  20796290.128   109285174.588       -1005.784          34.000  
J01  36833307.832   193560367.030        -356.509          33.000  
J02  38772712.310   203751986.2491      -2151.157          30.000  
> 2021  9 12 12 10  8.9974538  0  5
E01  23403688.863   122987214.813       -1687.399          29.000  
G10  22005710.164   115640838.033       -4441.511          24.000  
G31  21110898.029   110938499.782       -1550.521          24.000  
J01  36833074.293   193559148.252        -356.720          32.000  
J02  38772820.835   203752562.051       -2151.177          31.000  
> 2021  9 12 12 10  9.9974533  0  6
C33  23907215.779   124491130.6311      -3899.069          19.000  
E01  23403858.546   122988106.103       -1688.194          29.000  
G10  22006402.385   115644491.923       -4442.650          22.000  
G32  20796225.673   109284903.5011      -1005.069          38.000  
J01  36832992.750   193558717.175        -358.058          33.000  
J02  38773078.656   203753925.464       -2151.490          31.000  
> 2021  9 12 12 10 10.9974523  0  6
C23  22517010.698   117252002.9771      -1081.833          16.000  
C33  23907664.268   124493468.293       -3899.910          18.000  
E01  23403879.531   122988216.683       -1688.374          31.000  
G31  21111040.431   110939237.8371      -1550.484          25.000  
G32  20796118.047   109284332.238       -1003.379          35.000  
J01  36832761.310                        -356.418          32.000  
> 2021  9 12 12 10 11.9974515  0  5
E01  23403960.775   122988643.347       -1688.966          33.000  
G31  21111092.595   110939527.931       -1550.432          24.000  
G32  20796070.080   109284076.175       -1003.495          34.000  
J01  36832586.831   193556562.9161       -356.188          32.000  
J02  38773355.664   203755392.2791      -2151.560          31.000  
> 2021  9 12 12 10 12.9974505  0  4
E01  23403981.761   122988753.927       -1689.273          33.000  
G31  21111085.100   110939503.165       -1550.727          23.000  
G32  20795965.453   109283505.158       -1005.331          35.000  
J01  36832359.288   193555344.042        -355.250          32.000  
> 2021  9 12 12 10 13.9974500  0  6
C16  37104270.448   193211575.7621       -832.150          18.000  
E01  23404157.139   122989675.217       -1689.391          35.000  
G31  21111224.803   110940265.945       -1550.622          21.000  
G32  20796002.627   109283721.929       -1004.846          31.000  
J01  36832277.745   193554912.626        -356.066          32.000  
J02  38773731.304   203757331.2541      -2150.879          29.000  
> 2021  9 12 12 10 14.9974490  0  5
E01  23404179.624   122989793.797       -1686.842          32.000  
G31  21111213.411   110940240.627       -1550.232          20.000  
G32  20795892.603   109283151.163       -1004.011          38.000  
J01  36832046.005   193553693.419        -354.767          31.000  
J02  38773840.129   203757906.400       -2150.182          29.000  
> 2021  9 12 12 10 15.9974482  0  7
E01  23404263.865   122990236.461       -1688.768          29.000  
E19  23925936.319   125731643.1591      -1815.788          30.000  
G10  22009956.124   115663124.8771      -4445.782          22.000  
G31  21111267.374   110940530.750       -1551.201          21.000  
G32  20795840.439   109282895.564       -1004.996          36.000  
J01  36831872.126   193552789.331        -355.765          31.000  
J02  38774007.713   203758795.604       -2149.128          32.000  
> 2021  9 12 12 10 16.9974472  0  9
C16  37103910.098   193209692.9641       -829.561          21.000  
C33  23910637.310   124508903.9051      -3901.327          18.000  
E01  23404286.050   122990353.041       -1690.340          29.000  
E19  23925983.087   125731882.834       -1815.419          27.000  
G10  22010504.445   115665995.056       -4445.667          22.000  
G31  21111264.076   110940506.818       -1551.793          21.000  
G32  20795730.415   109282325.413       -1006.542          36.000  
J01  36831637.088   193551570.517        -358.094          32.000  
J02  38774115.638   203759369.032       -2148.566          30.000  
> 2021  9 12 12 10 17.9974467  0  8
C16  37103920.290   193209741.040        -824.951          20.000  
C23  22516779.558   117250820.5191      -1077.327          15.000  
E01  23404456.032   122991246.331       -1689.784          31.000  
E19  23926178.851   125732909.546       -1816.173          25.000  
G10  22011202.661   115669651.605       -4443.701          23.000  
G31  21111407.077   110941271.205       -1552.491          21.000  
G32  20795769.089   109282543.608       -1006.158          30.000  
J02  38774374.659   203760730.482       -2149.437          30.000  
> 2021  9 12 12 10 18.9974456  0  8
C16  37103748.509   193208848.124        -824.654          19.000  
E01  23404447.638   122991202.369       -1690.567          30.000  
E19  23926195.939   125732992.141       -1814.571          24.000  
G10  22011716.806   115672361.146       -4442.169          16.000  
G31  21111371.701   110941090.163       -1551.125          21.000  
G32  20795629.985   109281816.996       -1006.276          26.000  
J01  36831289.629   193549762.0251       -356.282          25.000  
J02  38774454.104   203761147.043       -2149.363          26.000  
> 2021  9 12 12 10 19.9974449  0  9
C16  37103696.046   193208579.427        -823.626          19.000  
C23  22516658.142   117250168.3521      -1076.885          12.000  
C33  23912210.321   124517026.1281      -3906.840          21.000  
E01  23404557.962   122991781.575       -1690.653          32.000  
E19  23926331.445   125733704.518       -1816.175          24.000  
G10  22012354.464   115675700.591       -4443.040          14.000  
G32  20795611.997   109281720.319       -1006.197          27.000  
J01  36831147.527   193549015.696        -357.045          27.000  
J02  38774652.866   203762193.763       -2149.629          23.000  
> 2021  9 12 12 10 20.9974438  0  7
C33  23912633.328   124519215.539       -3908.006          21.000  
E01  23404551.966   122991750.613       -1691.009          31.000  
E19  23926349.733   125733789.429       -1818.602          24.000  
G10  22012868.908   115678410.241       -4440.842          13.000  
J01  36830884.909   193547640.094        -358.636          28.000  
J02  38774730.213   203762610.915       -2150.452          26.000  
R02  19138541.563   102126812.4411      -1331.482          27.000  
> 2021  9 12 12 10 21.9974431  0  7
C33  23913175.953   124522027.893       -3904.440          21.000  
E01  23404664.688   122992342.819       -1692.578          30.000  
G10  22013506.866   115681748.890       -4441.884          14.000  
G29  24023856.630                         -26.266          24.000  
G32  20795457.904   109280895.9571      -1005.884          29.000  
J01  36830742.208   193546895.786        -358.716          27.000  
R02  19138578.138   102127024.264       -1332.066          28.000  
> 2021  9 12 12 10 22.9974423  0  7
C33  23913687.698   124524681.786       -3902.355          21.000  
E01  23404749.229   122992786.483       -1691.191          30.000  
G29  24023625.490   126244984.3221        -27.108          26.000  
G32  20795409.338   109280641.433       -1006.638          28.000  
J01  36830570.726   193545993.608        -357.878          28.000  
J02  38775101.056   203764546.2881      -2148.151          25.000  
R02  19138585.633   102127076.505       -1332.145          28.000  
> 2021  9 12 12 10 23.9974415  0  7
C16  37103310.213   193206568.1761       -824.112          17.000  
E01  23404829.574   122993209.147       -1692.950          31.000  
G29  24023390.453   126243749.580         -24.206          24.000  
G32  20795362.270   109280388.364       -1008.056          24.000  
J01  36830399.545   193545090.754        -357.527          27.000  
J02  38775270.739   203765434.628       -2149.234          24.000  
R02  19138591.629   102127129.073       -1332.798          27.000  
> 2021  9 12 12 10 24.9974405  0  7
E01  23404852.658   122993330.727       -1693.000          30.000  
G29  24023095.457   126242198.022         -23.682          27.000  
G31  21111610.336   110942350.3171      -1547.679          18.000  
G32  20795254.645   109279820.421       -1007.850          23.000    20795254.345    81605043.6411       -750.943          26.000  
J01  36830170.204   193543872.506        -356.974          29.000  
J02                                                                  38775386.459   152162944.9501      -1603.536          25.000  
R02  19138539.465   102126862.338       -1332.552          30.000  
> 2021  9 12 12 10 25.9974397  0  7
E01  23404933.302   122993754.391       -1693.533          25.000  
G10  22015885.120   115694167.5811      -4445.123          19.000  
G29  24022855.623   126240937.686        2041.633          23.000  
G32  20795207.577   109279567.993       -1008.298          30.000    20795205.779    81604856.967        -755.046          18.000  
J01  36830000.221   193542969.616        -357.515          31.000  
J02  38775549.845   203766896.7121      -2148.418          25.000    38775555.841   152163605.143       -1599.460          21.000  
R02  19138557.752   102126914.961       -1332.892          27.000  
> 2021  9 12 12 10 26.9974390  0  8
E01  23405042.726   122994329.597       -1692.791          28.000  
G10  22016522.179   115697510.966       -4447.548          20.000  
G29  24022657.460                         -22.784          24.000  
G31  21111752.438   110943081.7921      -1549.149          17.000  
G32  20795188.091   109279473.672       -1008.265          30.000    20795188.391    81604787.027        -752.162          21.000  
J01  36829859.619   193542223.605        -356.401          30.000  
J02  38775749.207   203767943.590       -2150.040          22.000    38775754.304   152164381.188       -1600.353          20.000  
R02  19138590.430   102127128.951       -1334.652          27.000  
> 2021  9 12 12 10 27.9974382  0  7
C01  37322185.389                       -1306.829          29.000  
C16  37102967.250   193204732.9681       -830.498          26.000  
G31  21111805.501   110943370.645       -1549.123          18.000  
G32                                                                  20795140.124    81604596.478        -751.645          23.000  
J01  36829689.037   193541319.352        -356.286          31.000  
J02  38775918.590   203768832.525       -2149.187          29.000    38775924.286   152165042.253       -1602.622          22.000  
R02  19138598.824   102127183.978       -1335.214          31.000  
> 2021  9 12 12 10 28.9974372  0  7
C16  37102829.046   193204001.176        -828.925          20.000  
C33  23916653.545   124540144.5401      -3902.343          17.000  
E01  23405144.656   122994864.8411      -1691.915          27.000  
G32  20795032.499   109278653.9141      -1007.549          31.000    20795033.398    81604171.735        -750.634          18.000  
J01  36829456.698   193540100.240        -355.555          32.000  
J02  38776029.813   203769405.327       -2147.802          31.000  
R02  19138542.463   102126918.954       -1335.267          25.000  
> 2021  9 12 12 10 29.9974364  0  6
C16  37102751.699   193203580.509        -827.637          24.000  
E01  23405226.199   122995293.505       -1691.627          24.000  
G29  24021878.000                         -22.784          17.000  
G32  20794981.834   109278400.773       -1007.662          25.000    20794985.431    81603980.249        -748.566          18.000  
J02  38776199.496   203770291.954       -2145.411          25.000  
R02  19138550.857   102126975.599       -1336.964          27.000  
> 2021  9 12 12 10 30.9974356  0  8
C01  37322142.518   194346189.3651      -1299.904          32.000  
E01  23405311.340   122995741.169       -1693.903          29.000  
G29  24021638.166                         -22.784          19.000  
G31  21111914.925   110943920.1041      -1550.671          17.000  
G32  20794932.668   109278148.238       -1008.232          26.000  
J01  36829110.737   193538290.1421       -355.092          26.000  
J02  38776369.478   203771177.206       -2146.378          26.000  
R02  19138567.046   102127033.391       -1338.304          28.000  
> 2021  9 12 12 10 31.9974349  0 10
C01  37322182.091   194346397.170       -1301.623          35.000  
C16  37102618.292   193202897.5771       -830.549          21.000  
C33  23918203.772   124548256.8721      -3904.062          16.000  
E01  23405425.861   122996342.375       -1695.347          29.000  
G10  22019517.705   115713302.7261      -4451.321          21.000  
G26  21107796.077   110922354.4931       1078.125          22.000  
G29  24021460.989                         -27.017          23.000  
J01  36828968.336   193537542.098        -354.592          22.000  
J02  38776570.039   203772221.777       -2148.190          28.000  
R02  19138606.319   102127252.422       -1340.360          31.000  
> 2021  9 12 12 10 32.9974339  0  8
C01  37322131.126   194346138.717       -1303.906          32.000  
C33  23918651.962   124550600.187       -3905.524          17.000  
E01  23405449.245   122996464.955       -1696.192          31.000  
G26  21107291.226   110919700.925        1077.729          21.000  
G29  24021161.196                         -27.017          22.000  
G32  20794807.654   109277488.1681      -1008.904          28.000  
J01  36828737.196   193536320.921        -354.603          28.000  
R02  19138552.356   102126992.817       -1339.550          30.000  
> 2021  9 12 12 10 33.9974331  0  8
C23  22516022.882   117246841.8131      -1080.410          24.000  
C33  23919159.510   124553258.000       -3908.566          18.000  
E01  23405531.987   122996900.619       -1696.418          28.000  
G26  21106843.936   110917360.043        1082.273          17.000  
G32  20794757.589   109277236.721       -1009.619          28.000  
J01  36828563.316   193535416.098        -356.094          26.000  
J02  38776850.345   203773683.5011      -2149.442          24.000  
R02  19138566.146   102127052.373       -1339.897          29.000  
> 2021  9 12 12 10 34.9974323  0  6
C33  23919669.757   124555922.381       -3916.166          17.000  
E01  23405614.131   122997332.283       -1696.532          29.000  
G32  20794708.723   109276985.881       -1009.972          31.000  
J01  36828390.636   193534512.522        -356.944          33.000  
J02  38777020.028   203774571.750       -2148.786          28.000  
R02  19138579.637   102127112.219       -1339.832          31.000  
> 2021  9 12 12 10 35.9974316  0  9
C23  22515982.710   117246659.5241      -1081.694          22.000  
C33  23920209.384   124558745.313       -3916.633          16.000  
E01  23405727.452   122997927.489       -1695.729          29.000  
G26  21105977.236   110912826.6191       1085.740          17.000  
G29  24020471.673                       -1696.192          17.000  
G32  20794689.836   109276893.010       -1009.844          30.000  
J01  36828249.433   193533766.164        -355.656          33.000  
J02  38777218.190   203775616.479       -2147.645          28.000  
R02  19138619.210   102127332.596       -1340.326          31.000  
> 2021  9 12 12 10 36.9974305  0  7
C23  22515858.895   117246023.247       -1080.354          24.000  
E01  23405720.257   122997889.527       -1695.538          31.000  
G10  22022435.585   115728607.3981      -4447.334          19.000  
G32  20794551.032   109276170.479       -1009.832          28.000  
J01  36827994.610                        -354.981          32.000  
J02  38777296.736   203776030.176       -2146.317          28.000  
R02  19138539.465   102126913.886       -1341.625          31.000  
> 2021  9 12 12 10 37.9974298  0  6
C23  22515854.698   117246011.243       -1081.662          19.000  
E01  23405833.579   122998484.733       -1696.637          31.000  
E19  23928024.074   125742652.0441      -1818.842          28.000  
J01  36827851.309   193531671.2221       -357.062          31.000  
J02  38777494.000   203777073.956       -2147.503          29.000  
R02  19138582.935   102127136.623       -1343.631          29.000  
> 2021  9 12 12 10 38.9974292  0  6
E01  23405975.081   122999228.481       -1697.986          33.000  
E19  23928188.360   125743524.360       -1818.412          29.000  
G32  20794546.835   109276142.5771      -1009.955          28.000  
J01  36827739.486   193531081.882        -358.691          32.000  
J02  38777722.142   203778276.501       -2147.529          28.000  
R02  19138656.084   102127520.033       -1343.600          32.000  
> 2021  9 12 12 10 39.9974282  0  5
E01  23405996.666   122999342.061       -1697.184          32.000  
E19  23928233.928   125743768.906       -1821.020          28.000  
J01  36827505.049   193529861.946        -355.636          31.000  
J02  38777830.367   203778848.873       -2148.171          27.000  
R02  19138612.914   102127263.537       -1343.659          30.000  
> 2021  9 12 12 10 40.9974275  0  6
E01  23406110.287   122999939.267       -1698.376          32.000  
E19  23928369.435   125744486.213       -1819.662          27.000  
G32  20794421.821   109275484.1081      -1012.189          27.000  
J01  36827361.148   193529114.930        -356.360          28.000  
J02  38778029.429   203779893.882       -2147.156          23.000  
R02  19138654.585   102127487.734       -1345.519          29.000  
> 2021  9 12 12 10 41.9974264  0  6
E01  23406105.490   122999914.305       -1699.467          33.000  
E19  23928385.923   125744572.614       -1820.206          26.000  
G10  22025447.300   115744406.5461      -4452.686          18.000  
J01  36827097.631   193527738.475        -356.210          30.000  
J02  38778110.073   203780308.229       -2147.769          25.000  
R02  19138577.838   102127073.588       -1345.872          30.000  
> 2021  9 12 12 10 42.9974259  0  7
C37  25621562.461                         720.113          28.000  
E01  23406280.269   123000832.595       -1696.300          34.000  
E19  23928582.887   125745605.091       -1820.383          27.000  
G32  20794332.483   109274987.5501      -1013.132          30.000  
J01  36827013.989   193527307.332        -356.880          30.000  
J02  38778369.993   203781668.977       -2149.164          25.000  
R02  19138680.967   102127619.188       -1345.988          30.000  
> 2021  9 12 12 10 43.9974249  0  8
C16  37101546.834   193197489.7921       -829.067          20.000  
C23  22515620.860   117244833.2851      -1081.090          18.000  
C37  25621124.165                         719.749          28.000  
E01  23406302.154   123000947.175       -1697.828          30.000  
G10  22026690.839   115750946.1061      -4448.683          19.000  
J01  36826781.050   193526088.158        -356.155          33.000  
J02  38778478.218   203782242.773       -2149.641          27.000  
R02  19138637.797   102127365.388       -1346.179          30.000  
> 2021  9 12 12 10 44.9974241  0  7
C23  22515587.883   117244665.961       -1081.360          19.000  
C37  25620744.628   133413948.6261        718.103          27.000  
E01  23406386.396   123001389.839       -1698.339          29.000  
G32  20794175.692   109274174.9961      -1011.104          29.000  
J01  36826609.569   193525183.895        -355.712          33.000  
J02  38778647.301   203783131.118       -2148.305          28.000  
R02  19138657.283   102127432.325       -1346.807          31.000  
> 2021  9 12 12 10 45.9974231  0  5
E01  23406407.681   123001502.419       -1695.578          28.000  
G10  22027839.644   115757009.6431      -4449.865          20.000  
J01  36826382.326                        -355.473          34.000  
J02  38778754.927   203783703.540       -2147.302          29.000  
R02  19138613.813   102127179.164       -1346.169          32.000  
> 2021  9 12 12 10 46.9974223  0  6
C23  22515462.869   117244017.1131      -1077.855          20.000  
C37  25619925.894   133409703.5181        718.050          24.000  
G10  22028446.724   115760198.148       -4445.224          19.000  
J01  36826211.744   193523038.9181       -355.270          31.000  
J02  38778923.110   203784590.201       -2146.251          32.000  
R02  19138627.604   102127245.617       -1346.737          34.000  
> 2021  9 12 12 10 47.9974216  0  6
C23  22515458.972   117244001.149       -1075.216          20.000  
C37  25619577.835   133407892.422         717.301          22.000  
G32  20794012.005   109273270.8381      -1011.730          39.000  
J01  36826067.844   193522291.851        -356.221          30.000  
J02  38779123.971   203785632.869       -2144.288          33.000  
R02  19138671.374   102127472.911       -1347.491          33.000  
> 2021  9 12 12 10 48.9974208  0  7
C23  22515421.498   117243826.663       -1073.075          19.000  
C37  25619201.296   133405925.935         717.896          23.000  
E01  23406692.184   123002996.9531      -1698.076          31.000  
G32  20793964.938                       -1012.290          39.000  
J01  36825893.664   193521387.616        -358.086          25.000  
J02  38779293.654                       -2145.245          32.000  
R02  19138686.663   102127540.690       -1347.767          33.000  
> 2021  9 12 12 10 49.9974198  0  4
E01  23406717.966   123003132.533       -1686.883          32.000  
G32  20793859.411   109272459.8211      -1012.648          36.000  
J01  36825657.128   193520169.015        -355.447          24.000  
R02  19138639.895   102127289.753       -1349.653          32.000  
> 2021  9 12 12 10 50.9974190  0  8
C01  37322159.607   194346352.5641      -1305.931          30.000  
C37  25618384.062   133401680.0171        717.933          20.000  
E01  23406804.307   123003586.197       -1698.230          30.000  
G10  22030841.466   115772786.6481      -4451.011          18.000  
G32  20793813.243   109272212.073       -1013.681          35.000  
J02  38779570.662   203788019.4571      -2147.882          28.000  
R02  19138651.887   102127359.893       -1350.405          31.000  
R12  21615943.694   115468490.6911      -4665.970          26.000  
> 2021  9 12 12 10 51.9974182  0  9
C16  37100798.851   193193629.6011       -824.761          26.000  
C25  23185817.093   120734633.9301      -3167.688          27.000  
C37  25618004.525   133399713.497         718.067          20.000  
E01  23406885.550   123004012.861       -1700.346          31.000  
G32  20793767.374   109271964.573       -1015.652          31.000  
J01  36825311.168   193518358.5321       -355.134          20.000  
J02  38779738.246   203788904.818       -2144.988          27.000  
R02  19138664.778   102127430.692       -1351.017          29.000  
R12  21616579.254   115471885.767       -4665.512          27.000  
> 2021  9 12 12 10 52.9974175  0 11
C01  37322212.370   194346620.7491      -1304.236          31.000  
C16  37100744.889   193193361.268        -824.067          26.000  
C25  23186214.917   120736709.172       -3168.572          25.000  
C37  25617658.264   133397902.410         718.214          21.000  
E01  23407000.371   123004617.067       -1701.835          31.000  
G10  22032080.208   115779325.4331      -4452.395          20.000  
G32  20793743.991   109271874.922       -1013.184          31.000  
J01  36825171.464   193517611.287        -355.542          22.000  
J02  38779933.411   203789947.771       -2146.138          22.000  
R02  19138706.449   102127662.093       -1351.416          29.000  
R12  21617244.493   115475439.161       -4664.841          26.000  
> 2021  9 12 12 10 53.9974164  0 10
C16  37100569.510   193192468.533        -824.009          27.000  
C25  23186492.525   120738159.739       -3167.197          26.000  
C37  25617189.689   133395467.771         716.024          21.000  
E01  23406991.377   123004569.105       -1700.721          32.000  
G10  22032598.849   115782044.507       -4451.128          21.000  
G32  20793608.185   109271155.312       -1014.846          35.000  
J01  36824908.846   193516233.261        -354.830          23.000  
J02  38780010.757   203790359.558       -2143.972          26.000  
R02  19138626.704   102127254.090       -1352.184          29.000  
R12  21617790.415   115478355.805       -4668.485          27.000  
> 2021  9 12 12 10 54.9974157  0  9
C16  37100518.246   193192200.045        -823.852          24.000  
C25  23186890.949   120740233.582       -3166.166          26.000  
E01  23407104.099   123005161.311       -1697.610          32.000  
G10  22033234.409   115785393.101       -4452.101          23.000  
G32                                                                  20793590.497    81598493.0271       -757.396          27.000  
J01  36824766.744   193515484.585        -353.797          23.000    36824775.438   144508327.8831       -263.108          26.000  
J02  38780208.320   203791401.198       -2144.812          29.000    38780211.918   152181858.4031      -1602.767          24.000  
R02  19138668.675   102127486.735       -1352.650          29.000  
R12  21618458.353   115481923.637       -4669.438          27.000  
> 2021  9 12 12 10 55.9974149  0  9
C16  37100435.503   193191774.514        -823.122          24.000  
C37  25616463.291   133391693.8581        718.025          21.000  
E01  23407188.640   123005605.975       -1701.110          32.000  
G10  22033840.889   115788585.107       -4452.913          21.000  
G32  20793539.832   109270818.0111      -1014.901          29.000    20793543.729    81598310.417        -759.100          28.000  
J01  36824592.565   193514578.099        -353.341          23.000    36824603.058   144507651.015        -264.572          27.000  
J02                                                                  38780380.401   152182519.491       -1602.441          26.000  
R02  19138680.967   102127560.840       -1353.885          28.000  
R12  21619092.414   115485310.391       -4666.845          23.000  
> 2021  9 12 12 10 56.9974141  0  9
C25  23187629.038   120744067.6881      -3165.823          26.000  
C37  25616086.153   133389728.000         716.569          20.000  
E01  23407272.283   123006045.639       -1700.742          31.000  
G10  22034447.370   115791776.939       -4451.857          21.000  
G32  20793493.664   109270572.405       -1014.332          30.000    20793496.662    81598127.213        -756.923          27.000  
J01  36824420.784   193513671.915        -353.719          27.000    36824430.677   144506973.962        -263.334          27.000  
J02                                                                  38780547.985   152183179.868       -1599.999          25.000  
R02  19138692.959   102127634.909       -1354.092          25.000  
R12  21619726.475   115488697.632       -4666.504          24.000  
> 2021  9 12 12 10 57.9974131  0  9
C16  37100205.562   193190608.4411       -823.230          21.000  
C25  23187936.626   120745672.333       -3166.318          28.000  
C37  25615649.055   133387449.606         716.908          20.000  
E01  23407296.866   123006175.219       -1700.938          29.000  
G32  20793386.038   109270011.490       -1015.222          31.000    20793389.336    81597708.060        -756.728          26.000  
J01  36824188.145   193512450.453        -354.427          27.000    36824198.338   144506061.157        -264.476          26.000  
J02  38780659.508   203793741.5621      -2144.527          24.000    38780655.311   152183604.589       -1601.529          25.000  
R02  19138644.992   102127389.389       -1354.604          30.000  
R12  21620302.676   115491775.370       -4665.054          23.000  
> 2021  9 12 12 10 58.9974124  0  9
C16  37100152.499   193190337.795        -821.461          22.000  
C25  23188334.750   120747747.396       -3168.349          28.000  
E01  23407409.588   123006767.425       -1701.067          28.000  
G10  22035636.946   115798003.7461      -4454.341          22.000  
G32  20793368.650   109269923.781       -1014.630          31.000    20793371.948    81597641.349        -756.817          27.000  
J01  36824044.245   193511702.785        -355.905          25.000    36824056.236   144505503.483        -267.552          27.000  
J02  38780858.570   203794783.105       -2144.112          27.000    38780854.073   152184383.235       -1602.489          25.000  
R02  19138689.661   102127624.827       -1356.575          28.000  
R12  21620961.920   115495296.943       -4665.882          24.000  
> 2021  9 12 12 10 59.9974116  0 10
C03  36500517.817   190067774.5571      -1322.346          29.000  
C25  23188704.694   120749666.676       -3167.352          26.000  
C37  25614924.457   133383671.0291        716.641          19.000  
E01  23407493.829   123007210.089       -1700.463          30.000  
G10  22036245.525   115801197.468       -4453.444          23.000  
G32  20793320.384   109269677.718       -1014.282          28.000    20793325.181    81597457.245        -757.925          27.000  
J01  36823870.065   193510797.806        -354.661          25.000    36823883.856   144504828.866        -265.698          27.000  
J02  38781026.754   203795667.327       -2144.936          27.000    38781022.257   152185043.891       -1601.796          24.000  
R02  19138704.950   102127701.458       -1356.935          28.000  
R12  21621600.777   115498710.416       -4665.942          23.000  
> 2021  9 12 12 11  0.9974108  0 10
C01  37322207.573   194346592.5391      -1302.612          31.000  
C16  37099985.814   193189483.7141       -822.656          22.000  
C25  23189074.038   120751585.160       -3168.136          25.000  
C37  25614547.318   133381706.236         714.984          20.000  
E01  23407578.670   123007655.753       -1701.257          31.000    23407578.071    91856363.1401      -1270.090          28.000  
G32  20793271.817   109269431.949       -1014.067          25.000    20793278.713    81597273.523        -757.885          28.000  
J01                                                                  36823710.875   144504152.954        -266.262          27.000  
J02  38781195.237   203796551.778       -2144.047          25.000    38781190.740   152185704.622       -1601.176          25.000  
R02  19138717.242   102127778.395       -1357.252          27.000  
R12  21622233.339   115502088.672       -4667.024          22.000  
> 2021  9 12 12 11  1.9974098  0 10
C01  37322160.506   194346333.902       -1302.413          31.000  
C16  37099845.212   193188745.446        -822.110          23.000  
C25  23189385.223   120753191.761       -3166.723          26.000  
C37  25614111.420   133379428.927         717.469          20.000  
E01  23407603.553   123007786.333       -1701.989          32.000    23407601.755    91856456.690       -1270.644          30.000  
G32  20793162.993   109268870.675       -1014.636          26.000    20793172.886    81596855.490        -759.135          28.000  
J01  36823466.545   193508672.6551       -353.908          24.000    36823478.536   144503242.237        -264.601          27.000  
J02                                                                  38781299.865   152186130.127       -1602.001          25.000  
R02  19138669.275   102127535.857       -1356.711          28.000  
R12  21622803.545   115505134.845       -4666.636          23.000  
> 2021  9 12 12 11  2.9974090  0  9
C01  37322171.598   194346387.188       -1302.120          32.000  
C16  37099764.867   193188318.269        -821.840          24.000  
C25  23189753.368   120755109.420       -3167.094          27.000  
E01  23407685.696   123008217.997       -1702.977          32.000    23407685.696    91856785.530       -1272.876          30.000  
G32  20793115.626   109268625.037       -1014.368          28.000    20793126.418    81596673.968        -759.862          28.000  
J01  36823294.164   193507765.765        -352.989          26.000    36823305.256   144502563.808        -261.310          27.000  
J02  38781463.252   203798003.3621      -2143.740          22.000    38781467.749   152186790.773       -1602.397          25.000  
R02  19138684.265   102127613.135       -1357.509          28.000  
R12  21623435.507   115508511.009       -4665.412          23.000  
> 2021  9 12 12 11  3.9974083  0  8
C01  37322212.370   194346596.282       -1301.622          32.000  
C16  37099712.703   193188046.426        -820.546          25.000  
C25  23190149.394   120757183.406       -3167.857          26.000  
E01  23407800.217   123008820.203       -1703.133          31.000    23407800.217    91857235.015       -1271.160          28.000  
G32  20793098.837   109268537.182       -1014.910          27.000    20793110.229    81596610.418        -759.273          28.000  
J01  36823153.561   193507016.799        -354.184          23.000    36823162.855   144502002.255        -265.268          26.000  
J02                                                                  38781665.911   152187569.089       -1600.909          25.000  
R02  19138729.233   102127850.394       -1358.428          26.000  
> 2021  9 12 12 11  4.9974075  0  9
C01  37322221.963   194346648.874       -1301.302          31.000  
C16  37099629.361   193187618.262        -820.519          25.000  
C25  23190518.438   120759102.478       -3167.768          24.000  
E01  23407883.859   123009259.867       -1702.873          33.000    23407884.159    91857564.855       -1270.444          29.000  
G32                                                                  20793063.462    81596428.325        -759.552          27.000  
J01  36822981.181   193506109.075        -353.114          26.000    36822990.774   144501325.747        -264.997          25.000  
J02  38781830.198   203799925.3331      -2141.805          22.000    38781833.495   152188228.209       -1600.266          25.000  
R02  19138750.219   102127928.787       -1359.298          26.000  
R12  21624733.608   115515444.6471      -4668.303          19.000  
> 2021  9 12 12 11  5.9974065  0  9
C01  37322172.198   194346388.862       -1300.860          31.000  
C16  37099486.060   193186878.830        -823.138          18.000  
C25  23190827.824   120760708.016       -3167.355          22.000  
E01  23407906.943   123009380.447       -1703.554          34.000    23407908.442    91857660.405       -1272.321          26.000  
G32  20792948.941   109267730.6601      -1015.801          30.000    20792956.736    81596011.339        -759.565          26.000  
J01  36822750.041   193504887.149        -354.159          29.000    36822759.334   144500415.999        -267.315          26.000  
J02  38781937.224   203800492.488       -2143.085          24.000    38781942.020   152188652.877       -1599.770          25.000  
R02  19138702.852   102127688.917       -1359.959          27.000  
R12  21625306.812   115518507.014       -4668.243          20.000  
> 2021  9 12 12 11  6.9974057  0  8
C01  37322182.091   194346440.633       -1300.698          31.000  
C16  37099403.917   193186453.534        -823.681          19.000  
C25  23191195.969   120762626.690       -3166.966          24.000  
E01  23407990.885   123009822.111       -1704.996          31.000    23407993.583    91857994.245       -1274.753          27.000  
G32  20792902.173   109267486.502       -1016.912          30.000    20792909.968    81595827.791        -757.250          26.000  
J01  36822577.960   193503980.860        -353.580          30.000    36822586.954   144499740.906        -265.788          26.000  
J02  38782106.007   203801376.211       -2144.457          27.000    38782110.504   152189311.721       -1599.579          24.000  
R02  19138725.036   102127770.231       -1362.001          27.000  
> 2021  9 12 12 11  7.9974049  0  9
C01  37322192.284   194346492.226       -1300.298          31.000  
C16  37099322.973   193186026.297        -820.671          20.000  
C25  23191563.515   120764544.755       -3167.270          23.000  
E01  23408076.926   123010273.775       -1699.595          28.000    23408077.225    91858322.085       -1272.245          26.000  
G10  22041009.527   115826274.4891      -4457.730          18.000  
G32  20792856.005   109267242.250       -1015.974          26.000    20792862.901    81595644.123        -757.728          27.000  
J01  36822407.078   193503074.444        -354.251          31.000    36822414.873   144499065.395        -265.541          27.000  
J02                                                                  38782277.788   152189970.540       -1601.445          25.000  
R02  19138740.925   102127851.194       -1359.474          25.000  
> 2021  9 12 12 11  8.9974042  0  9
C01  37322231.857   194346699.793       -1300.463          31.000  
C16  37099271.409   193185754.420        -821.054          24.000  
C25  23191957.142   120766618.954       -3167.195          21.000  
E01  23408192.046   123010878.981       -1705.120          26.000    23408191.446    91858770.570       -1272.882          29.000  
G32                                                                  20792846.112    81595578.933        -758.494          27.000  
J01  36822264.976   193502325.851        -353.968          28.000    36822271.872   144498505.723        -262.693          27.000  
J02                                                                  38782476.850   152190747.931       -1600.625          26.000  
R02  19138785.894   102128091.053       -1360.188          26.000  
R12  21627262.058   115528951.3441      -4663.306          19.000  
> 2021  9 12 12 11  9.9974034  0  8
C16  37099189.865   193185327.270        -821.864          26.000  
C25  23192323.788   120768537.625       -3167.633          22.000  
E01  23408276.887   123011324.645       -1701.096          22.000    23408275.688    91859101.410       -1272.307          30.000  
G32  20792796.946   109266910.9861      -1015.228          30.000    20792800.244    81595396.917        -761.748          25.000  
J01  36822093.795   193501417.797        -351.578          25.000    36822099.791   144497827.613        -263.291          26.000  
J02  38782644.434   203804192.6271      -2144.864          20.000    38782645.333   152191407.308       -1599.611          25.000  
R02  19138800.284   102128173.073       -1362.138          30.000  
R12  21627896.119   115532338.088       -4663.739          20.000  
> 2021  9 12 12 11 10.9974024  0  7
C25  23192631.675   120770143.428       -3167.932          21.000  
E01  23408299.671   123011444.225       -1703.188          23.000    23408300.571    91859198.960       -1274.655          31.000  
G32  20792689.920   109266351.279       -1015.964          31.000    20792693.218    81594979.930        -757.578          23.000  
J01  36821861.456   193500192.390        -348.818          22.000    36821865.653   144496914.349        -262.469          25.000  
J02  38782752.659   203804761.109       -2142.798          27.000    38782752.659   152191830.470       -1598.845          22.000  
R02  19138755.615   102127936.668       -1364.175          29.000  
R12  21628475.018   115535431.110       -4662.233          18.000  
> 2021  9 12 12 11 11.9974016  0  7
C16  37098971.317   193184157.6851       -820.597          22.000  
E01                                                                                                                                  23408384.812    91859529.800       -1273.177          29.000  
G32  20792645.251   109266107.965       -1017.521          27.000    20792648.249    81594797.630        -759.331          19.000  
J01  36821686.677   193499280.723        -349.062          22.000    36821691.773   144496236.123        -263.858          24.000  
J02  38782918.444   203805643.288       -2142.501          25.000    38782921.442   152192488.478       -1601.466          17.000  
R02  19138769.406   102128019.695       -1363.642          27.000  
R12  21629119.272   115538872.842       -4664.852          18.000  
> 2021  9 12 12 11 12.9974008  0  7
E01                                                                                                                                  23408469.953    91859863.640       -1272.420          24.000  
G10  22044029.636   115842086.2081      -4453.792          17.000  
G32  20792599.683   109265864.569       -1017.288          28.000    20792603.280    81594616.274        -762.524          17.000  
J01  36821515.795   193498372.190        -353.379          24.000    36821519.692   144495558.363        -264.098          22.000  
J02  38783087.827   203806525.377       -2142.700          28.000    38783090.225   152193149.573       -1603.937          18.000  
R02  19138781.697   102128103.493       -1364.516          25.000  
R12  21629751.834   115542251.887       -4666.495          20.000  
> 2021  9 12 12 11 13.9974001  0  6
G29  24011255.454                         -33.043          24.000  
G32  20792582.894   109265778.680       -1017.383          28.000    20792587.091    81594552.788        -756.197          15.000  
J01  36821372.794   193497622.926        -355.677          24.000  
J02  38783285.690   203807565.098       -2143.025          27.000    38783291.386   152193931.493       -1606.655          18.000  
R02  19138824.867   102128348.844       -1365.918          24.000  
R12  21630412.277   115545778.962       -4668.487          20.000  
> 2021  9 12 12 11 14.9973990  0  4
G32  20792449.187   109265063.634       -1018.095          27.000    20792450.686    81594015.461        -757.654          14.000  
J01  36821110.775   193496245.695        -355.566          25.000  
J02                                                                  38783372.630   152194245.784       -1613.381          17.000  
R02  19138751.418   102127956.967       -1368.174          23.000  
> 2021  9 12 12 11 15.9973983  0  6
C16  37098619.960   193182272.0921       -813.568          18.000  
C25  23194453.814   120779579.8611      -3164.887          16.000  
G10  22045811.003   115851496.3821      -4445.250          13.000  
G32  20792434.497   109264978.700       -1017.346          27.000    20792433.598    81593950.874        -759.878          15.000  
J02  38783553.704   203809012.2281      -2140.610          23.000    38783571.392   152195033.313       -1611.003          17.000  
R02  19138797.286   102128204.301       -1367.375          24.000  
> 2021  9 12 12 11 16.9973975  0  6
G29  24010475.993                         -33.043          19.000  
G32  20792389.828   109264734.929       -1015.996          28.000    20792386.830    81593770.389        -761.875          13.000  
J01  36820795.993   193494593.4151       -354.445          25.000  
J02  38783718.890   203809892.623       -2142.087          24.000    38783740.175   152195700.927       -1605.664          17.000  
R02  19138810.177   102128291.807       -1368.255          25.000  
R12  21632258.399   115555640.7891      -4670.104          20.000  
> 2021  9 12 12 11 17.9973967  0  5
G10  22047018.866   115857873.0301      -4451.119          13.000  
G32  20792344.859   109264491.490       -1017.638          23.000    20792341.262    81593590.468        -761.003          13.000  
J01  36820623.912   193493687.027        -353.397          23.000  
J02  38783886.174   203810774.603       -2142.509          24.000  
R02  19138817.073   102128377.680       -1365.940          20.000  
> 2021  9 12 12 11 18.9973957  0  6
C16  37098306.377   193180665.4421       -821.594          19.000  
C25  23195497.691   120785015.3741      -3167.248          16.000  
G29  24009936.367                         -33.043          16.000  
G32                                                                  20792235.735    81593176.068        -761.977          15.000  
J01  36820390.374   193492465.947        -354.465          23.000  
R02  19138777.200   102128144.901       -1367.498          23.000  
> 2021  9 12 12 11 19.9973949  0  3
C25  23195867.335   120786938.375       -3173.340          15.000  
G32  20792201.858   109263686.5801      -1011.995          11.000    20792190.766    81592996.887        -761.856          15.000  
R02  19138795.188   102128232.070       -1367.514          20.000  
> 2021  9 12 12 11 20.9973942  0  3
G10  22048817.022   115867296.8981      -4457.723          18.000  
G32                                                                  20792175.776    81592935.127        -761.835          15.000  
R02  19138841.356   102128480.158       -1368.520          21.000  
> 2021  9 12 12 11 21.9973934  0  3
C16  37098095.023   193179545.1491       -827.940          17.000  
G32  20792134.705   109263351.1191      -1018.406          24.000    20792129.308    81592755.681        -762.213          16.000  
R02  19138850.350   102128568.994       -1368.537          21.000  
> 2021  9 12 12 11 22.9973924  0  2
G32  20792027.079   109262794.902       -1019.863          22.000    20792023.781    81592343.335        -764.159          16.000  
R02  19138807.479   102128338.383       -1369.431          22.000  
> 2021  9 12 12 11 23.9973916  0  4
C16  37097876.475   193178396.5901       -830.218          14.000  
C25  23197306.039   120794471.7321      -3170.619          12.000  
G32                                                                  20791978.213    81592164.960        -762.332          16.000  
R02  19138823.668   102128428.124       -1370.062          24.000  
> 2021  9 12 12 11 24.9973908  0  3
C25  23197673.585   120796393.103       -3168.356          12.000  
G32                                                                  20791932.345    81591986.763        -760.853          16.000  
R02  19138847.352   102128518.792       -1370.444          21.000  
> 2021  9 12 12 11 25.9973901  0  3
C16  37097741.868   193177705.8111       -819.005          15.000  
G32  20791910.760   109262234.1111      -1020.937          30.000    20791916.156    81591923.411        -758.461          16.000  
R02  19138898.916   102128770.253       -1371.581          28.000  
> 2021  9 12 12 11 26.9973891  0  3
C16  37097595.869   193176961.561        -814.612          25.000  
G32                                                                  20791809.130    81591506.346        -759.729          16.000  
R02  19138849.450   102128541.696       -1371.285          23.000  
> 2021  9 12 12 11 27.9973883  0  5
C07  36901426.674   192155412.0781       -266.010          25.000  
C16  37097508.030   193176526.265        -812.820          29.000  
E01  23409592.976   123018240.8031      -1709.588          33.000  
G32  20791755.767   109261437.8371      -1018.970          30.000    20791762.962    81591327.251        -761.948          16.000  
R02  19138863.840   102128633.783       -1372.653          28.000  
> 2021  9 12 12 11 28.9973875  0  6
C07  36901237.505   192154428.984        -265.707          25.000  
C16  37097422.589   193176089.649        -812.491          30.000  
E01  23409678.717   123018691.467       -1709.274          33.000  
G10  22053615.200   115892407.4291      -4455.992          25.000  
G32                                                                  20791716.494    81591147.718        -761.610          25.000  
R02  19138882.427   102128727.162       -1372.385          32.000  
> 2021  9 12 12 11 29.9973868  0  6
C07  36901078.015   192153602.943        -265.266          24.000  
C16  37097367.727   193175809.292        -813.442          29.000  
E01  23409793.537   123019294.673       -1709.129          34.000  
G10  22054254.058   115895761.014       -4456.928          25.000  
G32                                                                  20791700.006    81591085.750        -761.641          27.000  
R02  19138933.092   102128980.613       -1374.361          34.000  
> 2021  9 12 12 11 30.9973860  0  6
C07  36900888.546   192152619.007        -265.451          21.000  
C16  37097283.185   193175373.673        -813.482          30.000  
E01  23409878.978   123019744.337       -1709.666          33.000    23409879.578    91865395.1801      -1277.937          31.000  
G10  22054862.636   115898958.769       -4458.583          25.000  
G32                                                                  20791653.838    81590906.105        -761.498          26.000  
R02  19138951.080   102129075.291       -1374.896          35.000  
> 2021  9 12 12 11 31.9973850  0  8
C16  37097137.486   193174626.493        -814.222          31.000  
E01  23409904.161   123019875.917       -1707.750          33.000    23409905.360    91865496.730       -1276.062          31.000  
G10  22055411.257   115901842.273       -4458.909          23.000  
G29  24006851.203                         -36.707          27.000  
G32  20791552.808                       -1021.296          32.000    20791547.711    81590491.161        -761.646          27.000  
J01  36818056.790                        -351.405          36.000  
J02  38786092.047   203822306.6431      -2138.932          29.000  
R02  19138911.507   102128850.740       -1375.374          34.000  
> 2021  9 12 12 11 32.9973842  0  9
C16  37097052.645   193174192.769        -815.306          30.000  
E01  23409989.002   123020321.581       -1708.521          33.000    23409990.801    91865831.570       -1276.256          31.000  
E04  24730945.922                         441.321          27.000  
G10  22056017.137   115905040.809       -4459.068          25.000  
G29  24006615.566                         -36.626          25.000  
G32  20791505.440   109260107.0121      -1021.088          33.000    20791502.143    81590311.847        -762.064          25.000  
J01  36817886.508   193479284.8811       -353.035          35.000  
J02  38786257.233   203823185.409       -2139.060          28.000  
R02  19138930.094   102128947.042       -1376.521          34.000  
> 2021  9 12 12 11 33.9973834  0  9
C16  37096968.403   193173759.688        -816.052          28.000  
C25  23200951.216   120813328.3571      -3166.531          27.000  
E01  23410074.443   123020771.245       -1709.391          29.000    23410075.942    91866165.410       -1279.001          31.000  
G10  22056623.917   115908238.316       -4457.230          24.000  
G29  24006380.229   126154370.9201        -36.543          24.000  
G32  20791456.874   109259867.153       -1017.645          29.000    20791456.874    81590133.335        -762.511          22.000  
J01  36817710.529   193478375.916        -352.244          35.000  
J02  38786423.318   203824064.147       -2139.460          29.000  
R02  19138949.881   102129044.180       -1376.496          32.000  
> 2021  9 12 12 11 34.9973827  0  8
C07  36900103.690   192148536.9851       -267.978          18.000  
C16  37096916.239   193173482.473        -815.738          20.000  
C25  23201348.441   120815401.609       -3167.712          17.000  
E01  23410187.464   123021365.451       -1708.268          31.000    23410191.662    91866619.895       -1276.612          24.000  
G10  22057260.976   115911592.350       -4456.736          26.000  
G32  20791438.287   109259783.981       -1020.928          28.000    20791440.985    81590071.077        -759.188          22.000  
J02  38786619.082   203825100.785       -2140.201          25.000  
R02  19138997.847   102129300.178       -1375.972          28.000  
> 2021  9 12 12 11 35.9973816  0 10
C07  36899823.983   192147087.578        -265.361          18.000  
C16  37096743.559   193172581.520        -815.882          21.000  
C25  23201622.451   120816852.800       -3168.506          17.000  
E01                                                                                                                                  23410186.565    91866599.800       -1274.260          22.000  
G10  22057776.019   115914316.495       -4457.448          24.000  
G29  24005848.997                         -37.068          26.000  
G32  20791301.282   109259072.074       -1021.716          28.000    20791303.980    81589535.521        -757.736          20.000  
J01  36817299.214   193476241.5321       -350.771          22.000  
J02  38786694.330   203825506.934       -2137.718          23.000  
R02  19138925.897   102128918.042       -1378.546          26.000  
> 2021  9 12 12 11 36.9973809  0  7
C16  37096691.095   193172303.118        -812.079          24.000  
E01                                                                                                                                  23410301.685    91867051.285       -1274.071          27.000  
G10  22058416.076   115917671.819       -4460.619          19.000  
G32                                                                  20791288.091    81589470.970        -761.240          25.000  
J01  36817155.014   193475488.446        -349.253          25.000  
J02  38786889.795   203826541.574       -2137.425          28.000  
R02  19138972.665   102129177.472       -1378.908          28.000  
> 2021  9 12 12 11 37.9973801  0  6
E01                                                                                                                                  23410386.826    91867386.125       -1276.660          25.000  
G10  22059022.556   115920872.400       -4461.161          24.000  
G29  24005399.308                       -1708.903          21.000  
G32  20791238.025   109258751.6891      -1022.377          28.000    20791242.522    81589290.622        -761.123          21.000  
J01  36816981.134   193474577.946        -349.905          29.000  
R02  19138993.950   102129276.802       -1380.071          30.000  
> 2021  9 12 12 11 38.9973793  0  9
C07  36899290.353   192144286.4131       -264.172          17.000  
C16  37096521.413   193171426.6081       -810.710          17.000  
E01                                                                                                                                  23410472.267    91867720.965       -1276.922          22.000  
G10  22059628.437   115924072.670       -4460.454          24.000  
G29  24005159.474                        2012.465          10.000  
G32  20791191.857   109258513.324       -1021.276          29.000    20791196.954    81589111.954        -763.458          16.000  
J01  36816807.854   193473667.508        -350.176          30.000  
J02  38787226.162   203828296.2491      -2136.641          21.000  
R02  19139015.235   102129376.935       -1378.900          27.000  
