     3.03           OBSERVATION DATA    M: Mixed            RINEX VERSION / TYPE
Geo++ RINEX Logger  Geo++               20210912 125942 UTC PGM / RUN BY / DATE
************************************************************COMMENT
This file was generated by the Geo++ RINEX Logger App       COMMENT
for Android devices (Version 2.1.6). If you encounter       COMMENT
any issues, please send an email to android@geopp.de        COMMENT
Filtering Mode: MORE                                        COMMENT
************************************************************COMMENT
Geo++                                                       MARKER NAME
GEODETIC                                                    MARKER TYPE
Geo++               Geo++                                   OBSERVER / AGENCY
unknown             HUAWEI              ELS-AN00            REC # / TYPE / VERS
unknown             ELS-AN00                                ANT # / TYPE
 -2417238.4853  5386499.9134  2405084.4156                  APPROX POSITION XYZ
        0.0000        0.0000        0.0000                  ANTENNA: DELTA H/E/N
G    8 C1C L1C D1C S1C C5Q L5Q D5Q S5Q                      SYS / # / OBS TYPES
R    4 C1C L1C D1C S1C                                      SYS / # / OBS TYPES
E   12 C1B L1B D1B S1B C1C L1C D1C S1C C5Q L5Q D5Q S5Q      SYS / # / OBS TYPES
C    4 C2I L2I D2I S2I                                      SYS / # / OBS TYPES
J    8 C1C L1C D1C S1C C5Q L5Q D5Q S5Q                      SYS / # / OBS TYPES
  2021     9    12    13     0    0.9980664     GPS         TIME OF FIRST OBS
 24 R01  1 R02 -4 R03  5 R04  6 R05  1 R06 -4 R07  5 R08  6 GLONASS SLOT / FRQ #
    R09 -2 R10 -5 R11  0 R12 -1 R13 -2 R14 -7 R15  0 R16 -1 GLONASS SLOT / FRQ #
    R17  4 R18 -3 R19  3 R20  2 R21  4 R22 -3 R23  3 R24  2 GLONASS SLOT / FRQ #
G L1C                                                       SYS / PHASE SHIFT
G L5Q -0.25000                                              SYS / PHASE SHIFT
R L1C                                                       SYS / PHASE SHIFT
E L1B                                                       SYS / PHASE SHIFT
E L1C +0.50000                                              SYS / PHASE SHIFT
E L5Q -0.25000                                              SYS / PHASE SHIFT
C L2I                                                       SYS / PHASE SHIFT
J L1C                                                       SYS / PHASE SHIFT
J L5Q -0.25000                                              SYS / PHASE SHIFT
 C1C    0.000 C1P    0.000 C2C    0.000 C2P    0.000        GLONASS COD/PHS/BIS
                                                            END OF HEADER
> 2021  9 12 13  0  0.9980664  0  2
G31  21372905.246   112315517.257       -1884.662          24.000  
J01  36361322.680   191079932.608        -588.649          27.000  
> 2021  9 12 13  0  1.9980657  0  2
G31  21373054.842   112316299.252       -1884.688          23.000  
J01  36361225.248   191079418.681        -589.077          28.000  
> 2021  9 12 13  0  2.9980646  0  2
G31  21373085.421   112316449.884       -1883.379          28.000  
J01  36361006.699   191078274.877        -589.693          29.000  
> 2021  9 12 13  0  3.9980641  0  2
G31  21373292.577   112317545.461       -1883.119          30.000  
J01  36360969.525   191078076.596        -589.453          30.000  
> 2021  9 12 13  0  4.9980631  0  2
G31  21373351.337   112317853.099       -1882.527          32.000  
J01  36360782.454   191077091.194        -589.881          27.000  
> 2021  9 12 13  0  5.9980623  0  2
G31  21373468.556   112318474.928       -1882.742          33.000  
J01  36360654.443   191076420.052        -588.475          25.000  
> 2021  9 12 13  0  6.9980616  0  2
G31  21373616.953   112319254.525       -1882.594          31.000  
J01  36360558.209   191075906.404        -589.382          25.000  
> 2021  9 12 13  0  7.9980608  0  2
G31  21373734.172   112319876.317       -1883.323          32.000  
J01  36360431.397   191075234.727        -588.313          23.000  
> 2021  9 12 13  0  8.9980600  0  2
G31  21373851.391   112320500.039       -1883.779          34.000  
J01  36360302.187   191074562.791        -587.496          23.000  
> 2021  9 12 13  0  9.9980593  0  2
G31  21374003.385   112321280.783       -1881.929          33.000  
J01  36360204.454   191074046.603        -587.854          24.000  
> 2021  9 12 13  0 10.9980582  0  2
G31  21374031.566   112321430.697       -1882.685          27.000  
J01  36359987.405   191072902.178        -589.121          29.000  
> 2021  9 12 13  0 11.9980577  0  2
G31  21374239.322   112322525.853       -1882.917          31.000  
J01  36359950.830   191072704.410        -590.501          27.000  
> 2021  9 12 13  0 12.9980567  0  2
G31  21374296.283   112322832.965       -1883.129          29.000  
J01  36359763.759   191071719.388        -590.650          28.000  
> 2021  9 12 13  0 13.9980559  0  1
J01  36359638.146   191071049.668        -591.230          23.000  
> 2021  9 12 13  0 14.9980552  0  2
G31  21374562.498   112324237.8871      -1883.899          23.000  
J01  36359542.512   191070537.949        -590.780          24.000  
> 2021  9 12 13  0 15.9980541  0  2
G31  21374589.779   112324389.012       -1884.006          25.000  
J01  36359323.964   191069394.953        -588.876          27.000  
> 2021  9 12 13  0 16.9980536  0  2
G31  21374797.536   112325486.443       -1886.373          25.000  
J01  36359285.590   191069197.187        -590.166          26.000  
> 2021  9 12 13  0 17.9980529  0  2
G31  21374945.933   112326269.085       -1884.160          26.000  
J01  36359188.158   191068684.847        -590.681          30.000  
> 2021  9 12 13  0 18.9980518  0  2
G31  21374973.214   112326419.828       -1883.826          31.000  
J01  36358972.307   191067543.189        -591.330          27.000  
> 2021  9 12 13  0 19.9980511  0  2
G31  21375120.112   112327200.267       -1883.347          31.000  
J01  36358875.474   191067032.545        -591.778          29.000  
> 2021  9 12 13  0 20.9980503  0  1
J01  36358749.861   191066364.710        -592.721          29.000  
> 2021  9 12 13  0 21.9980495  0  3
G31  21375357.548   112328446.6681      -1884.675          35.000  
J01  36358623.948   191065696.730        -592.071          25.000  
R02  19803634.429   105675769.5671      -3641.057          23.000  
> 2021  9 12 13  0 22.9980488  0  1
J01  36358528.614   191065185.066        -591.322          25.000  
> 2021  9 12 13  0 23.9980477  0  1
J01  36358312.164   191064042.965        -591.345          24.000  
> 2021  9 12 13  0 24.9980472  0  2
G31  21375748.177   112330476.1081      -1885.897          33.000  
J01  36358274.390   191063847.118        -592.071          28.000  
> 2021  9 12 13  0 25.9980465  0  2
G31  21375895.376   112331258.585       -1884.504          32.000  
J01  36358178.457   191063336.673        -592.710          28.000  
> 2021  9 12 13  0 26.9980454  0  1
J01  36357961.107   191062196.809        -593.075          29.000  
> 2021  9 12 13  0 27.9980447  0  2
G31  21376070.754   112332191.3641      -1883.837          25.000  
J01  36357862.476   191061686.144        -591.602          29.000  
> 2021  9 12 13  0 28.9980436  0  2
G31  21376099.234   112332343.963       -1888.855          26.000  
J01  36357644.826   191060545.082        -592.112          31.000  
> 2021  9 12 13  0 29.9980431  0  2
G31  21376307.890   112333444.382       -1886.834          21.000  
J01  36357607.052   191060349.861        -593.195          29.000  
> 2021  9 12 13  0 30.9980424  0  2
G31  21376457.187   112334228.307       -1886.727          30.000  
J01  36357509.620   191059840.355        -593.093          31.000  
> 2021  9 12 13  0 31.9980413  0  2
G31  21376484.468   112334382.064       -1887.551          22.000  
J01  36357291.071   191058700.473        -592.879          30.000  
> 2021  9 12 13  0 32.9980406  0  2
G31  21376634.064   112335165.697       -1886.351          27.000  
J01  36357193.039   191058190.793        -593.352          29.000  
> 2021  9 12 13  0 33.9980398  0  2
G31  21376751.883   112335790.854       -1885.409          25.000  
J01  36357066.527   191057524.369        -594.832          27.000  
> 2021  9 12 13  0 34.9980390  0  2
G31  21376870.001   112336416.987       -1886.411          26.000  
J01  36356939.714   191056858.612        -595.018          30.000  
> 2021  9 12 13  0 35.9980383  0  2
G31  21377018.698   112337200.293       -1885.895          24.000  
J01  36356841.083   191056350.402        -592.888          27.000  
> 2021  9 12 13  0 36.9980372  0  1
J01  36356627.031   191055210.683        -593.323          30.000  
> 2021  9 12 13  0 37.9980367  0  2
G31  21377262.429   112338453.4031      -1887.776          26.000  
J01  36356588.957   191055016.775        -593.746          29.000  
> 2021  9 12 13  0 38.9980360  0  2
G31  21377411.726   112339238.193       -1887.523          23.000  
J01  36356489.426   191054508.126        -594.636          27.000  
> 2021  9 12 13  0 39.9980349  0  1
J01  36356271.477   191053369.146        -593.178          26.000  
> 2021  9 12 13  0 40.9980342  0  2
G31  21377591.301   112340178.0331      -1888.840          28.000  
J01  36356174.644   191052859.152        -592.426          27.000  
> 2021  9 12 13  0 41.9980334  0  2
G31  21377713.917   112340806.296       -1888.094          24.000  
J01  36356049.631   191052191.359        -592.286          23.000  
> 2021  9 12 13  0 42.9980326  0  2
G31  21377835.333   112341436.465       -1891.252          19.000  
J01  36355921.020   191051521.909        -591.404          22.000  
> 2021  9 12 13  0 43.9980316  0  2
G31  21377896.790   112341753.569       -1893.333          28.000  
J01  36355736.347   191050537.754        -591.154          26.000  
> 2021  9 12 13  0 44.9980308  0  2
G31  21378018.506   112342386.513       -1892.228          27.000  
J01  36355609.835   191049869.065        -591.921          27.000  
> 2021  9 12 13  0 45.9980301  0  2
G31  21378169.601   112343175.142       -1889.907          28.000  
J01  36355514.501   191049358.543        -592.550          26.000  
> 2021  9 12 13  0 46.9980293  0  2
G31  21378290.118   112343804.537       -1889.940          25.000  
J01  36355389.787   191048691.439        -593.913          24.000  
> 2021  9 12 13  0 47.9980285  0  2
G31  21378410.334   112344434.450       -1890.882          31.000  
J01  36355261.776   191048025.205        -593.691          24.000  
> 2021  9 12 13  0 48.9980275  0  1
G31  21378471.192   112344750.535       -1892.034          31.000  
> 2021  9 12 13  0 49.9980268  0  2
G31  21378622.887   112345540.189       -1892.778          32.000  
G32  20959903.061   110145033.6801      -2218.835          28.000  
> 2021  9 12 13  0 50.9980262  0  4
G26  20201365.486   106158891.4251       -553.147          29.000  
G31  21378800.964   112346487.105       -1891.757          33.000  
G32  20960143.794   110146308.087       -2220.805          25.000  
R02  19816496.425   105744621.1721      -3660.502          36.000  
> 2021  9 12 13  0 51.9980252  0  7
C06  36208888.408   188549318.1381       -684.836          29.000  
C10  37142311.113   193409760.4591       -561.777          25.000  
C16  36780498.191   191525780.7051       -642.692          30.000  
C32  23125551.614   120420815.6031        298.797          26.000  
E01  23929556.313   125750666.3761      -2635.549          33.000  
G31  21378856.126   112346802.938       -1891.060          33.000  
J01  36354715.254   191045196.5961       -592.408          29.000  
> 2021  9 12 13  0 52.9980244  0  9
C06  36208780.183   188548753.825        -684.362          26.000  
C16  36780380.972   191525174.086        -641.669          30.000  
C32  23125255.419   120419268.532         296.888          23.000  
E01  23929814.134   125752021.040       -2633.747          32.000  
E31  24446649.437   128468009.3291       -175.259          30.000  
G31  21378975.743   112347433.943       -1892.009          32.000  
G32  20960442.687   110147913.4851      -2219.822          27.000  
J01  36354588.142   191044528.518        -592.440          28.000  
R02  19817317.856   105749066.0691      -3662.253          23.000  
> 2021  9 12 13  0 53.9980237  0  9
C06  36208702.237   188548345.428        -684.983          29.000  
C16  36780294.932   191524723.343        -642.798          27.000  
C32  23124989.203   120417878.417         297.196          25.000  
E01  23930103.434   125753542.246       -2633.139          29.000  
E31  24446476.157   128467081.350        -174.589          32.000  
G26  20200934.684   106156614.9841       -555.433          27.000  
G32  20960655.240   110149029.939       -2217.793          24.000  
J01  36354489.211   191044018.930        -594.669          28.000  
R02  19817790.629   105751608.169       -3661.948          31.000  
> 2021  9 12 13  0 54.9980229  0  9
C06  36208592.513   188547780.914        -684.546          27.000  
C16  36780177.713   191524116.585        -642.164          29.000  
C32  23124695.406   120416333.299         296.420          28.000  
E01  23930362.755   125754904.910       -2633.380          32.000  
E31  24446268.700   128465996.056        -176.000          31.000  
G31  21379246.156   112348854.4681      -1891.745          31.000  
G32  20960834.216   110149989.034       -2220.820          25.000  
J01  36354362.698   191043354.708        -596.276          26.000  
R02  19818234.921   105753990.793       -3662.694          35.000  
> 2021  9 12 13  0 55.9980221  0 10
C06  36208483.389   188547217.815        -687.032          24.000  
C16  36780060.494   191523509.752        -642.627          27.000  
C32  23124401.910   120414788.505         295.999          27.000  
E01  23930622.075   125756267.574       -2633.806          31.000  
E31  24446060.345   128464911.665        -175.825          24.000  
G26  20200665.470   106155205.3951       -556.608          28.000  
G31  21379365.773   112349486.491       -1893.050          32.000  
G32  20961011.394   110150949.416       -2220.677          29.000  
J01  36354237.685   191042691.670        -598.576          27.000  
R02  19818679.514   105756374.578       -3663.794          33.000  
> 2021  9 12 13  0 56.9980211  0  6
C10  37141617.993   193406184.4391       -567.247          19.000  
C16  36779884.516   191522592.404        -645.099          24.000  
E01  23930824.735   125757332.154       -2634.081          24.000  
G32  20961133.110   110151595.254       -2222.385          26.000  
J01  36354053.013   191041714.902        -598.802          21.000  
R02  19819062.349   105758439.473       -3664.710          29.000  
> 2021  9 12 13  0 57.9980204  0  4
C06  36208238.158   188545936.5571       -684.277          16.000  
C16  36779801.173   191522144.819        -644.690          21.000  
G26  20200374.072   106153647.0101       -561.819          18.000  
R02  19819535.421   105760986.374       -3668.137          29.000  
> 2021  9 12 13  0 58.9980196  0  5
C16  36779683.955   191521539.699        -644.521          21.000  
C32  23123491.440   120410002.4111        292.199          13.000  
G31  21379702.740   112351232.9251      -1897.449          17.000  
J01  36353828.168   191040547.5211       -596.318          21.000  
R02  19819978.514   105763374.234       -3668.768          28.000  
> 2021  9 12 13  0 59.9980188  0  5
C10  37141259.441   193404293.2721       -567.298          18.000  
C16  36779567.635   191520934.399        -643.368          21.000  
G26  20200106.657   106152253.2841       -564.013          17.000  
G31  21379827.154   112351869.525       -1897.400          20.000  
J01  36353700.457   191039883.008        -595.530          23.000  
> 2021  9 12 13  1  0.9980180  0  7
C06  36207912.584   188544238.2031       -682.823          16.000  
C16  36779451.915   191520329.169        -643.244          24.000  
G26  20199974.748   106151556.835        -563.157          24.000  
G31  21379944.373   112352505.339       -1894.856          23.000  
G32  20961893.683   110155608.2031      -2225.533          25.000  
J01  36353574.544   191039218.974        -597.069          26.000  
R02  19820885.686   105768151.9951      -3669.489          27.000  
> 2021  9 12 13  1  1.9980170  0  6
C06  36207744.100   188543359.122        -682.985          18.000  
C16  36779274.438   191519411.257        -643.673          24.000  
G26  20199781.382   106150543.882        -562.124          25.000  
G31  21380005.230   112352824.625       -1894.308          27.000  
J01  36353390.771   191038241.136        -598.657          25.000  
R02  19821272.718   105770221.206       -3669.917          28.000  
> 2021  9 12 13  1  2.9980163  0  5
C16  36779185.999   191518961.248        -642.508          23.000  
G26  20199679.753   106150002.610        -561.519          24.000  
G31  21380155.726   112353616.151       -1895.325          22.000  
J01  36353296.337   191037736.626        -599.277          25.000  
R02  19821755.984   105772771.849       -3670.668          30.000  
> 2021  9 12 13  1  3.9980157  0  5
C16  36779130.538   191518666.627        -641.994          23.000  
G26  20199608.102   106149619.760        -562.845          24.000  
G32  20962483.075   110158664.6851      -2227.880          28.000  
J01  36353228.284   191037390.975        -599.092          25.000  
R02  19822268.029   105775483.590       -3672.275          29.000  
> 2021  9 12 13  1  4.9980147  0  7
C06  36207448.505   188541826.0681       -688.797          20.000  
C10  37140577.713   193400731.0901       -571.218          15.000  
C16  36778953.960   191517748.141        -643.599          22.000  
G26  20199417.135   106148609.368        -564.628          25.000  
G31  21380397.059   112354883.1381      -1893.905          21.000  
G32  20962610.487   110159317.810       -2229.587          30.000  
J01  36353041.213   191036414.518        -599.035          26.000  
> 2021  9 12 13  1  5.9980140  0  4
C06  36207371.458   188541424.182        -690.693          21.000  
G26  20199314.905   106148071.056        -564.596          27.000  
G32  20962825.738   110160444.799       -2229.537          25.000  
R02  19823154.516   105780107.0061      -3672.947          25.000  
> 2021  9 12 13  1  6.9980129  0  6
C16  36778664.660   191516227.3681       -646.287          22.000  
G26  20199091.560   106146903.388        -565.619          25.000  
G31  21380585.928   112355835.2821      -1892.715          19.000  
G32  20962919.273   110160941.428       -2229.640          19.000  
J01  36352733.626   191034776.2911       -600.030          24.000  
R02  19823512.468   105782020.934       -3675.297          28.000  
> 2021  9 12 13  1  7.9980124  0  7
C06  36207158.606   188540306.6741       -688.638          21.000  
C16  36778639.478   191516092.479        -644.415          21.000  
G26  20199048.390   106146680.668        -565.408          19.000  
G31  21380793.085   112356943.515       -1896.366          22.000  
G32  20963192.684   110162383.371       -2229.794          25.000  
J01  36352700.349   191034588.671        -601.226          25.000  
R02  19824049.996   105784897.114       -3675.931          32.000  
> 2021  9 12 13  1  8.9980116  0  5
C06  36207050.680   188539745.814        -687.886          21.000  
C16  36778523.458   191515488.322        -644.729          23.000  
G26  20198913.483   106145986.177        -565.904          19.000  
G31  21380913.602   112357580.167       -1897.275          25.000  
G32  20963377.056   110163353.552       -2231.698          27.000  
> 2021  9 12 13  1  9.9980106  0  6
C16  36778349.279   191514571.502        -644.873          21.000  
G26  20198724.014   106144977.799        -569.629          20.000  
G31  21380976.258   112357901.798       -1895.026          25.000  
G32  20963502.070   110164009.164       -2229.948          26.000  
J01  36352389.165   191032952.8971       -599.181          24.000  
R02  19824882.819   105789367.9431      -3676.207          28.000  
> 2021  9 12 13  1 10.9980099  0  5
C16  36778262.039   191514123.443        -645.379          20.000  
G31  21381124.056   112358695.806       -1897.943          21.000  
G32  20963715.522   110165137.832       -2233.153          26.000  
J01  36352292.332   191032450.448        -601.489          25.000  
R02  19825360.688   105791925.948       -3678.503          30.000  
> 2021  9 12 13  1 11.9980091  0  4
C16  36778145.120   191513520.321        -647.463          18.000  
G26  20198502.468   106143758.8551       -573.495          24.000  
G31  21381243.073   112359334.772       -1898.594          22.000  
J01  36352166.719   191031792.581        -602.397          24.000  
> 2021  9 12 13  1 12.9980083  0  3
G31  21381362.391   112359973.058       -1898.624          27.000  
G32  20964086.665   110167084.9201      -2237.427          22.000  
J01  36352044.104   191031134.714        -602.496          21.000  
> 2021  9 12 13  1 13.9980076  0  3
G31  21381511.687   112360768.893       -1898.704          29.000  
G32  20964301.316   110168219.576       -2237.527          16.000  
J01  36351947.271   191030634.888        -603.438          26.000  
> 2021  9 12 13  1 14.9980065  0  5
C16  36777736.503   191511401.3611       -645.750          25.000  
G26  20198036.290   106141375.1951       -571.342          25.000  
G32  20964396.950   110168723.341       -2236.718          24.000  
J01  36351734.118   191029505.744        -603.682          30.000  
R02  19827115.074   105801205.9731      -3682.704          24.000  
> 2021  9 12 13  1 15.9980058  0  4
G26  20197934.961   106140844.276        -573.619          24.000  
G31  21381691.863   112361731.1581      -1899.851          30.000  
J01  36351639.084   191029005.786        -601.465          27.000  
R02  19827591.744   105803769.240       -3683.805          32.000  
> 2021  9 12 13  1 16.9980050  0  6
C16  36777538.940   191510351.7561       -645.144          18.000  
G26  20197802.153   106140158.022        -574.089          23.000  
G31  21381816.576   112362371.180       -1900.809          29.000  
G32  20964796.573   110170834.4851      -2237.483          24.000  
J01  36351513.471   191028347.540        -603.205          26.000  
R02  19828036.936   105806173.858       -3684.335          30.000  
> 2021  9 12 13  1 17.9980042  0  3
G26  20197670.544   106139471.702        -574.007          28.000  
G32  20964983.044   110171810.022       -2236.132          24.000  
R02  19828483.626   105808578.812       -3685.264          31.000  
> 2021  9 12 13  1 18.9980035  0  5
G26  20197570.713   106138943.532        -575.029          29.000  
G31  21382092.385   112363811.3111      -1900.251          20.000  
G32  20965201.893   110172945.017       -2239.043          20.000  
J01  36351289.526   191027189.3071       -602.166          30.000  
R02  19828961.196   105811145.005       -3686.530          37.000  
> 2021  9 12 13  1 19.9980024  0  5
C16  36777133.021   191508221.3341       -644.644          25.000  
G26  20197348.567   106137785.941        -575.275          30.000  
G31  21382123.264   112363977.948       -1899.214          27.000  
G32  20965298.426   110173451.147       -2239.334          26.000  
R02  19829318.548   105813071.233       -3685.544          33.000  
> 2021  9 12 13  1 20.9980019  0  3
C16  36777105.440   191508086.485        -646.845          31.000  
G26  20197306.895   106137574.440        -577.377          35.000  
R02  19829856.076   105815957.712       -3687.866          35.000  
> 2021  9 12 13  1 21.9980009  0 10
C06  36205563.710   188531987.2841       -689.420          29.000  
C07  36417243.867   189634144.7911       -618.579          25.000  
C16  36776927.963   191507172.613        -647.709          30.000  
C32  23116625.593   120374262.5361        277.456          26.000  
E01  23937329.931   125791517.6701      -2646.898          33.000  
G26  20197116.527   106136576.619        -578.137          34.000  
G31  21382401.771   112365413.1391      -1899.877          29.000  
G32  20965699.248   110175568.4041      -2241.552          30.000  
J01  36350859.923   191024902.3901       -604.210          32.000  
R02  19830243.708   105818046.420       -3689.260          33.000  
> 2021  9 12 13  1 22.9980001  0  9
C06  36205456.684   188531427.817        -689.837          30.000  
C07  36417123.950   189633515.248        -620.178          27.000  
C16  36776811.643   191506571.525        -648.002          27.000  
C32  23116332.096   120372736.521         276.785          29.000  
E01  23937591.650   125792892.334       -2647.227          32.000  
G26  20196985.818   106135894.214        -578.900          31.000  
G31  21382522.588   112366053.207       -1900.193          27.000  
J01  36350735.210   191024246.293        -604.408          35.000  
R02  19830693.996   105820456.409       -3690.253          37.000  
> 2021  9 12 13  1 23.9979991  0 10
C06  36205290.299   188530556.676        -690.105          30.000  
C07  36416945.273   189632574.342        -619.893          25.000  
C16  36776635.365   191505658.166        -648.588          26.000  
C32  23115978.641   120370899.021         275.812          31.000  
E01  23937793.111   125793950.914       -2647.219          30.000  
G26  20196795.749   106134897.615        -578.432          32.000  
G31  21382584.944   112366379.065       -1902.509          26.000  
G32  20966013.731   110177215.6291      -2241.799          33.000  
J01  36350549.938   191023276.340        -606.637          32.000  
R02  19831082.827   105822547.255       -3691.584          35.000  
> 2021  9 12 13  1 24.9979986  0  9
C06  36205272.611   188530465.935        -689.795          29.000  
C07  36416916.194   189632413.675        -620.430          24.000  
C16  36776609.883   191505526.406        -648.408          26.000  
C32  23115775.382   120369843.624         274.266          31.000  
E01  23938146.266   125795807.204       -2650.358          30.000  
G26  20196761.873   106134688.649        -579.201          32.000  
G31  21382798.097   112367493.526       -1902.785          28.000  
J01  36350513.063                        -607.083          33.000  
R02  19831621.854   105825439.056       -3691.765          38.000  
> 2021  9 12 13  1 25.9979978  0 10
C06  36205164.686   188529907.472        -690.965          29.000  
C07  36416795.677   189631785.476        -620.007          24.000  
C16  36776494.463   191504926.022        -648.374          28.000  
C32  23115482.484   120368320.974         273.548          31.000  
E01  23938416.079   125797224.868       -2648.990          32.000  
G26  20196632.662                        -581.712          33.000  
G29  23639885.448   124228436.4151      -1365.634          22.000  
G32  20966474.212   110179565.1061      -2243.051          34.000  
J01  36350393.146                        -605.448          33.000  
R02  19832078.738   105827851.399       -3693.308          37.000  
> 2021  9 12 13  1 26.9979968  0 10
C06  36204996.802   188529037.200        -690.708          29.000  
C07  36416612.804   189630845.818        -622.769          23.000  
C16  36776318.185   191504013.346        -648.396          30.000  
C32  23115130.528   120366486.452         272.853          31.000  
E01  23938627.433   125798335.448       -2649.731          32.000  
G26  20196443.793   106133026.5491       -581.493          33.000  
G31  21382985.767   112368465.8541      -1906.584          25.000  
G32  20966598.926   110180233.470       -2243.705          35.000  
J01  36350207.575   191021610.2721       -606.725          32.000  
R02  19832470.566   105829944.770       -3693.292          34.000  
> 2021  9 12 13  1 27.9979960  0 14
C06  36204890.076   188528480.049        -692.925          29.000  
C07  36416491.088   189630221.303        -624.113          22.000  
C10  37137489.251   193384599.6501       -575.037          24.000  
C16  36776201.565   191503412.594        -648.521          31.000  
C23  22616805.311   117771640.0601      -1755.115          24.000  
C32  23114839.729   120364964.476         272.559          29.000  
E01  23938893.349   125799733.112       -2649.045          34.000  
E31  24439361.782   128429712.4571       -192.747          30.000  
G26  20196317.280   106132348.159        -581.209          34.000  
G29  23639858.467   124228333.3001      -1365.841          25.000  
G31  21383108.082   112369111.236       -1904.916          25.000  
G32  20966784.497   110181217.465       -2247.087          34.000  
J01  36350090.956   191020956.319        -608.229          30.000  
R02  19832924.152   105832358.601       -3694.002          34.000  
> 2021  9 12 13  1 28.9979953  0 14
C06  36204814.828   188528079.815        -692.342          29.000  
C07  36416401.150   189629752.958        -623.661          22.000  
C10  37137390.619   193384082.409        -575.818          23.000  
C16  36776115.525   191502968.065        -648.511          31.000  
C23  22616932.124   117772302.159       -1754.994          25.000  
C32  23114579.210   120363599.028         272.826          27.000  
E01  23939186.846   125801275.318       -2649.561          34.000  
E31  24439186.104   128428802.618        -193.005          29.000  
G26  20196221.347   106131828.212        -582.956          35.000  
G29  23639907.932   124228595.947       -1364.541          26.000  
G31  21383263.375   112369912.670       -1904.290          29.000  
G32  20967007.543   110182359.686       -2243.756          34.000  
J01  36349990.525   191020460.359        -607.773          31.000  
R02  19833406.219   105834933.066       -3694.816          36.000  
> 2021  9 12 13  1 29.9979945  0 13
C06  36204707.802   188527522.082        -691.431          29.000  
C07  36416280.634   189629127.472        -623.535          25.000  
C16  36776000.405   191502366.561        -647.823          24.000  
C23  22617029.856   117772809.151       -1756.467          20.000  
C32  23114287.512   120362077.327         272.970          30.000  
E01  23939445.567   125802634.982       -2651.556          30.000  
E31  24438982.844   128427735.876        -194.658          31.000  
G26  20196091.537   106131151.378        -583.955          33.000  
G29  23639926.220   124228700.097       -1365.309          25.000  
G31  21383385.990   112370556.666       -1904.470          26.000  
G32  20967200.009   110183344.996       -2245.604          33.000  
J01  36349858.317   191019806.931        -605.518          33.000  
R02  19833859.505   105837348.722       -3696.053          35.000  
> 2021  9 12 13  1 30.9979937  0 11
C06  36204601.676   188526964.280        -690.963          29.000  
C07  36416160.417   189628502.018        -623.576          25.000  
C16  36775884.985   191501766.178        -649.608          30.000  
C32  23113996.713   120360555.824         272.431          32.000  
E01  23939713.581   125804043.646       -2651.621          34.000    23939714.481    93944581.0211      -1980.595          27.000  
G26  20195963.525   106130475.201        -584.235          32.000  
G29  23639943.008   124228805.609       -1366.340          26.000  
G31  21383506.207   112371199.963       -1903.813          29.000  
G32  20967388.279   110184330.960       -2248.528          33.000  
J01                                                                  36349740.198   142644187.9081       -452.489          27.000  
R02  19834311.592   105839765.909       -3697.559          35.000  
> 2021  9 12 13  1 31.9979927  0 12
C06  36204434.991   188526094.179        -691.297          27.000  
C07  36415980.841   189627564.299        -622.384          22.000  
C16  36775709.906   191500854.722        -650.028          30.000  
C23  22617166.262   117773511.5191      -1756.748          20.000  
C32  23113645.056   120358722.392         271.259          28.000  
E01  23939918.639   125805121.226       -2650.946          34.000    23939918.639    93945382.571       -1980.688          26.000  
E31  24438523.562   128425289.9771       -194.574          31.000  
G26  20195777.654   106129484.850        -584.247          33.000  
G31  21383567.364   112371527.467       -1902.473          26.000  
G32  20967512.693   110185002.579       -2247.220          33.000  
J01  36349553.428   191018185.9541       -605.960          33.000    36349556.126   142643464.409        -453.519          27.000  
R02  19834705.219   105841864.003       -3698.429          35.000  
> 2021  9 12 13  1 32.9979919  0 13
C06  36204327.666   188525536.817        -691.560          28.000  
C07  36415860.025   189626938.017        -623.135          23.000  
C10  37136809.921   193381077.2611       -576.066          21.000  
C16  36775593.886   191500255.481        -649.819          30.000  
C23  22617263.694   117774019.887       -1755.724          20.000  
C32  23113351.859   120357202.873         269.376          30.000  
E01  23940182.157   125806505.890       -2651.990          33.000    23940183.356    93946421.411       -1979.440          27.000  
E31  24438320.003   128424224.465        -195.242          31.000  
G26  20195642.747   106128810.595        -586.498          32.000  
G31  21383691.179   112372169.737       -1903.465          25.000  
G32  20967700.063   110185990.110       -2248.496          35.000  
J01  36349424.817   191017533.812        -607.820          32.000    36349432.012   142642976.470        -454.032          28.000  
R02  19835157.606   105844282.583       -3698.614          36.000  
> 2021  9 12 13  1 33.9979912  0 13
C06  36204250.619   188525135.833        -692.275          30.000  
C07  36415770.387   189626469.508        -624.376          23.000  
C10  37136711.590   193380559.548        -573.982          20.000  
C16  36775508.445   191499812.982        -650.795          29.000  
C32  23113089.841   120355841.242         267.880          29.000  
E01  23940475.953   125808050.096       -2651.364          33.000    23940478.652    93947579.896       -1981.508          27.000  
E31  24438147.023   128423317.504        -196.210          29.000  
G26  20195549.812   106128294.459        -587.959          33.000  
G29  23639974.186   124228971.5351      -1369.334          29.000  
G31  21383843.173   112372971.125       -1905.312          23.000  
G32  20967922.210   110187135.643       -2247.465          36.000  
J01  36349339.976   191017039.400        -608.542          35.000    36349337.877   142642607.369        -454.926          29.000  
R02  19835643.869   105846861.868       -3700.508          34.000  
> 2021  9 12 13  1 34.9979904  0 11
C06  36204143.893   188524579.289        -692.642          31.000  
C07  36415650.170   189625845.169        -623.544          24.000  
C16  36775394.824   191499214.056        -650.300          27.000  
C32  23112797.843   120354324.542         267.713          31.000  
E01  23940742.169   125809448.760       -2652.588          34.000    23940744.268    93948621.736       -1982.488          29.000  
E31  24437943.764   128422254.204        -198.024          27.000  
G26  20195412.807   106127621.578        -588.156          30.000  
G29  23639995.472   124229080.634       -1369.572          28.000  
G32  20968111.978   110188124.439       -2248.980          35.000  
J01  36349214.662   191016387.576        -609.024          37.000    36349213.463   142642119.810        -455.836          29.000  
R02  19836095.657   105849283.007       -3701.477          36.000  
> 2021  9 12 13  1 35.9979894  0 13
C06  36203977.508   188523710.380        -692.350          32.000  
C07  36415469.095   189624908.585        -625.036          24.000  
C16  36775219.445   191498303.042        -649.912          29.000  
C23  22617526.312   117775393.1121      -1760.114          19.000  
C32  23112445.287   120352496.368         266.370          32.000  
E01  23940949.326   125810537.340       -2653.193          34.000    23940949.026    93949425.286       -1981.638          29.000  
E31  24437682.045   128420877.059        -198.469          30.000  
G26  20195230.233   106126634.399        -586.862          32.000  
G29  23639959.497   124228875.320       -1370.785          23.000  
G31  21384025.147   112373946.8831      -1906.813          24.000  
G32  20968241.189   110188799.009       -2249.612          33.000  
J01  36349026.093   191015420.776        -608.319          35.000    36349029.990   142641398.879        -455.053          28.000  
R02  19836490.184   105851384.584       -3701.322          37.000  
> 2021  9 12 13  1 36.9979886  0 13
C06  36203869.283   188523153.721        -692.094          26.000  
C07  36415351.277   189624285.551        -625.586          23.000  
C10  37136260.702   193378220.0721       -575.469          19.000  
C16  36775104.925   191497704.331        -650.527          31.000  
C23  22617622.546   117775903.448       -1758.496          19.000  
C32  23112154.788   120350980.841         266.945          29.000  
E01  23941217.640   125811947.004       -2651.635          33.000    23941214.042    93950466.126       -1980.327          27.000  
E31  24437481.484   128419815.216        -198.975          28.000  
G26  20195104.020   106125963.006        -590.256          32.000  
G29  23639977.484   124228985.877       -1371.300          25.000  
G31  21384147.163   112374593.255       -1906.311          30.000  
J01                                                                  36348906.176   142640912.645        -454.608          25.000  
R02  19836940.772   105853806.507       -3702.275          34.000  
> 2021  9 12 13  1 37.9979881  0 14
C06  36203851.895   188523064.291        -692.304          27.000  
C07  36415320.998   189624130.510        -625.293          24.000  
C10  37136220.829   193378014.944        -575.592          18.000  
C16  36775080.641   191497573.974        -650.421          30.000  
C23  22617810.516   117776880.154       -1757.041          20.000  
C32  23111953.627   120349933.456         266.358          31.000  
E01  23941575.892   125813830.294       -2661.555          34.000    23941568.397    93951855.901       -1979.805          28.000  
E31  24437371.160   128419225.937        -200.496          29.000  
G26  20195070.144   106125765.498        -593.303          33.000  
G29  23640089.007   124229569.537       -1371.649          24.000  
G31  21384358.816   112375711.793       -1906.580          34.000  
G32  20968704.668   110191251.2771      -2251.780          27.000  
J01  36348872.899   191014590.1711       -603.005          33.000    36348871.700   142640779.313        -456.557          24.000  
R02  19837482.796   105856709.440       -3704.017          31.000  
> 2021  9 12 13  1 38.9979871  0 11
C06  36203685.510   188522195.073        -691.063          27.000  
C10  37136031.660   193377029.684        -576.662          20.000  
C16  36774909.460   191496664.335        -652.710          25.000  
C32  23111600.772   120348106.891         264.267          29.000  
E01  23941779.151   125814897.874       -2653.174          30.000    23941775.853    93952670.451       -1982.453          27.000  
E31  24437107.043   128417851.414        -200.183          27.000  
G26  20194881.275   106124781.018        -590.073          27.000  
G31  21384419.674   112376041.924       -1905.356          29.000  
G32  20968832.080   110191927.752       -2251.705          31.000  
J01  36348684.629   191013623.391        -610.356          29.000    36348687.327   142640059.010        -455.550          22.000  
R02  19837877.024   105858814.632       -3705.818          33.000  
> 2021  9 12 13  1 39.9979863  0  9
C06  36203580.882   188521637.012        -691.078          22.000  
C07  36415025.402   189622573.3761       -625.276          17.000  
C16  36774799.736   191496068.928        -654.234          25.000  
C23  22617945.122   117777587.1501      -1757.267          20.000  
C32  23111309.373   120346595.627         261.993          24.000  
G26  20194749.666   106124110.545        -591.328          25.000  
G29  23640077.315   124229477.7541      -1375.924          14.000  
G31  21384541.990   112376687.518       -1905.920          30.000  
J01  36348559.616   191012973.567        -610.640          24.000    36348562.914   142639572.640        -454.805          23.000  
> 2021  9 12 13  1 40.9979853  0  5
C07  36414844.028   189621635.772        -622.497          14.000  
C32  23110958.316   120344772.342         262.214          12.000  
G31  21384604.646   112377018.789       -1907.109          29.000  
J01  36348377.642   191012010.196        -612.119          22.000    36348379.740   142638851.553        -456.030          18.000  
R02  19838729.333   105863349.9241      -3708.528          27.000  
> 2021  9 12 13  1 41.9979848  0  9
C06  36203401.307   188520681.9171       -695.222          24.000  
C07  36414813.749   189621479.441        -625.688          16.000  
C23  22618168.168   117778765.3251      -1762.952          18.000  
C32  23110758.355   120343728.407         263.793          16.000  
G26  20194526.920   106122934.7911       -595.057          25.000  
G31  21384817.499   112378138.192       -1906.950          28.000  
G32  20969426.568   110195062.8231      -2253.475          25.000  
J01  36348342.866   191011834.806        -612.184          32.000    36348346.463   142638720.787        -458.186          25.000  
R02  19839269.559   105866257.584       -3707.101          31.000  
> 2021  9 12 13  1 42.9979840  0  7
C07  36414692.633   189620856.073        -622.343          15.000  
C32  23110468.456   120342216.579         262.379          27.000  
G26  20194401.906   106122269.764        -595.924          22.000  
G31  21384940.114   112378785.077       -1907.344          32.000  
G32  20969613.039   110196056.480       -2253.471          32.000  
J01  36348217.852   191011186.277        -612.856          20.000    36348224.148   142638237.451        -458.799          23.000  
R02  19839723.145   105868685.225       -3708.141          32.000  
> 2021  9 12 13  1 43.9979830  0  8
C06  36203132.693   188519263.1911       -696.586          22.000  
C23  22618300.676   117779480.3681      -1763.282          14.000  
C32  23110116.199   120340392.851         263.121          17.000  
G26  20194214.236   106121292.115        -598.799          21.000  
G31  21385002.771   112379116.892       -1907.589          30.000  
G32  20969741.950   110196734.698       -2254.710          21.000  
J01  36348032.581   191010223.768        -613.140          29.000    36348040.375   142637519.579        -457.956          24.000  
R02  19840111.077   105870794.977       -3709.152          28.000  
> 2021  9 12 13  1 44.9979822  0  4
G26  20194086.225   106120629.610        -597.109          20.000  
G31  21385125.686   112379764.459       -1908.006          33.000  
J01                                                                  36347917.760   142637034.639        -454.739          24.000  
R02  19840564.663   105873224.235       -3709.653          23.000  
> 2021  9 12 13  1 45.9979812  0  6
C16  36774031.368   191492040.5941       -652.818          20.000  
G26  20193900.953   106119651.628        -597.685          22.000  
G31  21385188.042   112380097.370       -1909.038          25.000  
G32  20970063.627   110198412.8661      -2259.437          21.000  
J01  36347729.490   191008614.1911       -613.272          24.000    36347734.587   142636314.602        -457.331          19.000  
R02  19840958.590   105875334.375       -3710.614          26.000  
> 2021  9 12 13  1 46.9979807  0  5
C16  36774006.485   191491913.023        -653.587          25.000  
G26  20193864.978   106119461.201        -597.318          26.000  
G32  20970345.132   110199885.250       -2260.343          25.000  
J01  36347694.415   191008439.947        -613.481          25.000    36347701.610   142636185.497        -460.785          24.000  
R02  19841503.613   105878245.212       -3711.041          28.000  
> 2021  9 12 13  1 47.9979796  0  7
C16  36773800.528   191490849.148        -652.765          24.000  
C32  23108899.941   120334051.2861        257.247          14.000  
G26  20193647.928   106118325.347        -597.369          25.000  
G31  21385434.472   112381394.6991      -1909.534          24.000  
G32  20970445.563   110200413.161       -2260.333          24.000  
J01  36347482.761   191007321.112        -613.971          24.000    36347488.457   142635352.721        -461.353          23.000  
R02  19841874.156   105880196.819       -3712.809          25.000  
> 2021  9 12 13  1 48.9979789  0  6
C16  36773716.586   191490409.434        -653.321          25.000  
G26  20193553.794   106117821.052        -599.048          25.000  
G31  21385589.764   112382201.093       -1909.508          26.000  
G32  20970666.210   110201570.258       -2259.681          25.000  
J01  36347388.626   191006831.730        -613.259          23.000    36347396.121   142634990.978        -459.730          24.000  
R02  19842362.218   105882789.490       -3713.388          24.000  
> 2021  9 12 13  1 49.9979781  0  6
C16  36773602.665   191489811.765        -651.239          19.000  
G26  20193423.983   106117160.770        -601.803          21.000  
G31  21385712.080   112382849.956       -1909.717          26.000  
G32  20970855.079   110202568.587       -2258.569          28.000  
J01                                                                  36347271.108   142634508.981        -458.814          17.000  
R02  19842816.704   105885223.586       -3714.555          29.000  
> 2021  9 12 13  1 50.9979773  0  4
G31  21385831.397   112383500.207       -1909.099          23.000  
G32  20971044.548   110203567.945       -2260.631          27.000  
J01  36347145.495   191005538.9161       -613.271          26.000    36347147.893   142634025.229        -456.057          19.000  
R02  19843276.286   105887659.295       -3716.019          29.000  
> 2021  9 12 13  1 51.9979766  0  6
C32  23107811.095   120328331.3191        256.646          23.000  
G26  20193203.036   106115999.9721       -601.655          20.000  
G31  21385984.891   112384306.753       -1911.771          22.000  
G32  20971263.996   110204725.345       -2261.052          31.000  
J01  36347051.360   191005049.252        -612.769          28.000    36347055.557   142633659.279        -458.127          20.000  
R02  19843764.348   105890256.150       -3717.338          33.000  
> 2021  9 12 13  1 52.9979756  0  4
C32  23107464.535   120326514.510         255.078          23.000  
G31  21386052.044   112384641.171       -1909.336          15.000  
J01  36346866.088   191004086.807        -613.455          31.000    36346871.484   142632941.758        -460.422          20.000  
R02  19844167.569   105892373.952       -3718.130          34.000  
> 2021  9 12 13  1 53.9979748  0  4
C32  23107176.135   120325010.145         254.792          20.000  
G32  20971585.673   110206412.6251      -2262.480          35.000  
J01  36346743.773   191003439.841        -613.235          31.000    36346747.071   142632458.915        -457.841          20.000  
R02  19844633.446   105894812.505       -3718.782          35.000  
> 2021  9 12 13  1 54.9979743  0  4
C32  23106978.272   120323975.483         254.130          23.000  
G32  20971872.575                       -2263.077          35.000  
J01  36346710.196   191003265.372        -613.745          28.000  
R02  19845186.863   105897731.568       -3718.602          35.000  
> 2021  9 12 13  1 55.9979732  0  4
G31  21386417.191   112386589.1111      -1910.744          24.000  
G32  20971972.406   110208464.4981      -2263.557          33.000  
J01  36346497.044   191002145.631        -613.287          24.000  
R02  19845558.306   105899691.128       -3719.919          33.000  
> 2021  9 12 13  1 56.9979725  0  4
G31  21386572.784   112387397.836       -1912.789          27.000  
G32  20972190.655   110209625.607       -2264.779          31.000  
J01  36346407.106   191001656.702        -613.617          25.000  
R02  19846049.366   105902291.656       -3720.951          30.000  
> 2021  9 12 13  1 57.9979715  0  3
C32  23105991.055   120318847.7981        252.971          20.000  
G32  20972321.664   110210315.018       -2264.427          31.000  
R02  19846448.090   105904413.447       -3722.107          32.000  
> 2021  9 12 13  1 58.9979709  0  5
C32  23105762.613   120317657.559         253.953          22.000  
G31  21386829.106   112388704.3411      -1914.373          24.000  
G32  20972580.085   110211635.026       -2266.311          32.000  
J01  36346169.970   191000366.5751       -616.575          25.000  
R02  19846964.632   105907176.331       -3723.166          32.000  
> 2021  9 12 13  1 59.9979699  0  5
C32  23105416.353   120315842.734         253.760          22.000  
G31  21386892.962   112389042.303       -1912.465          25.000  
G32  20972709.595   110212324.775       -2264.009          33.000  
J01  36345987.996   190999408.258        -616.949          25.000  
R02  19847361.258   105909300.453       -3723.998          31.000  
> 2021  9 12 13  2  0.9979692  0  3
G31  21387046.156   112389851.866       -1912.101          30.000  
J01  36345895.660   190998922.243        -617.216          29.000  
R02  19847848.121   105911904.558       -3724.841          32.000  
> 2021  9 12 13  2  1.9979681  0  4
G31  21387082.731   112390030.793       -1912.236          25.000  
G32  20973029.174   110214020.1081      -2265.347          21.000  
J01  36345682.508   190997806.721        -617.633          29.000  
R02  19848216.266   105913871.052       -3727.647          29.000  
> 2021  9 12 13  2  2.9979674  0  5
C32  23104515.177   120311194.0761        247.482          18.000  
G26  20191703.774   106108154.6501       -609.678          24.000  
G32  20973250.721   110215183.807       -2267.857          14.000  
J01  36345588.373   190997322.138        -618.933          25.000  
R02  19848702.829   105916479.278       -3728.311          27.000  
> 2021  9 12 13  2  3.9979668  0  4
G31  21387417.599   112391808.5161      -1912.679          26.000  
G32  20973500.448   110216506.577       -2268.564          29.000  
J01  36345526.316   190996994.871        -617.821          25.000  
R02  19849224.768   105919247.860       -3729.315          27.000  
> 2021  9 12 13  2  4.9979658  0  4
G31  21387483.253   112392146.719       -1912.916          21.000  
G32  20973631.457   110217200.482       -2270.422          27.000  
J01  36345343.442   190996037.334        -618.188          28.000  
R02  19849622.892   105921377.636       -3730.251          26.000  
> 2021  9 12 13  2  5.9979651  0  5
C32  23103675.758   120306858.7331        248.205          18.000  
G31  21387638.846   112392956.530       -1911.776          22.000  
G32  20973853.303   110218368.523       -2270.511          28.000  
J01  36345252.305   190995553.268        -618.985          29.000  
R02  19850110.055   105923988.725       -3731.683          25.000  
> 2021  9 12 13  2  6.9979640  0  5
C32  23103297.420   120304894.376         246.299          18.000  
G31  21387673.921   112393135.734       -1911.467          23.000  
G32  20973954.633   110218906.876       -2271.817          29.000  
J01  36345039.753   190994438.940        -619.027          29.000  
R02  19850473.703   105925960.206       -3730.846          24.000  
> 2021  9 12 13  2  7.9979635  0  5
C32  23103096.859   120303868.110         244.519          19.000  
G31  21387888.873   112394261.362       -1913.360          20.000  
G32  20974234.939   110220391.474       -2272.672          34.000  
J01  36345007.075   190994270.460        -619.207          29.000  
R02  19851026.520   105928890.526       -3728.703          25.000  
> 2021  9 12 13  2  8.9979628  0  3
G32  20974458.285   110221561.187       -2272.408          36.000  
J01  36344914.739   190993787.124        -619.507          28.000  
R02  19851521.777   105931499.976       -3730.772          25.000  
> 2021  9 12 13  2  9.9979617  0  4
C32  23102463.098   120300568.2961        245.431          23.000  
G32  20974562.313                       -2271.954          35.000  
J01  36344703.985   190992674.373        -621.023          28.000  
R02  19851896.218   105933471.757       -3732.663          25.000  
> 2021  9 12 13  2 10.9979610  0  4
C32  23102206.175   120299230.894         245.559          22.000  
G32  20974788.356   110223239.3351      -2274.137          36.000  
J01  36344612.548   190992192.559        -620.904          28.000  
R02  19852392.675   105936084.629       -3732.691          25.000  
> 2021  9 12 13  2 11.9979602  0  3
G32  20974981.423   110224253.374       -2275.246          36.000  
J01  36344490.533   190991552.976        -621.243          29.000  
R02  19852855.254   105938538.769       -3735.269          26.000  
> 2021  9 12 13  2 12.9979594  0  5
C32  23101634.471   120296246.3741        241.348          22.000  
G31  21388479.164   112397367.5481      -1913.030          17.000  
G32  20975173.889   110225268.101       -2275.001          36.000  
J01  36344367.918   190990913.528        -620.943          28.000  
R02  19853323.230   105940994.118       -3736.083          27.000  
> 2021  9 12 13  2 13.9979584  0  4
G31  21388539.122   112397705.665       -1913.643          17.000  
G32  20975306.398   110225968.529       -2276.318          35.000  
J01  36344184.744   190989959.376        -621.220          28.000  
R02  19853727.351   105943132.027       -3737.803          25.000  
> 2021  9 12 13  2 14.9979576  0  4
C32  23101003.108   120292956.6781        238.848          21.000  
G32  20975501.263   110226984.804       -2278.177          35.000  
J01  36344063.628   190989319.878        -620.988          29.000  
R02  19854184.234   105945589.949       -3738.331          23.000  
> 2021  9 12 13  2 15.9979569  0  3
G32  20975723.409   110228159.365       -2277.235          36.000  
J01  36343971.892   190988837.852        -620.269          29.000  
R02  19854679.192   105948212.415       -3745.859          19.000  
> 2021  9 12 13  2 16.9979561  0  2
G32  20975914.676   110229177.004       -2277.959          35.000  
J01  36343849.576   190988198.023        -621.254          29.000  
> 2021  9 12 13  2 17.9979553  0  3
G31  21389067.057   112400480.9001      -1915.419          16.000  
G32  20976108.342   110230195.324       -2279.546          35.000  
J01  36343727.861   190987559.212        -622.428          29.000  
> 2021  9 12 13  2 18.9979543  0  3
G31  21389131.512   112400821.208       -1915.630          23.000  
G32  20976240.251   110230899.276       -2280.799          35.000    20976247.146    82315298.4401      -1703.411          26.000  
J01  36343546.486   190986606.036        -622.399          29.000  
> 2021  9 12 13  2 19.9979535  0  3
G31  21389255.626   112401477.490       -1917.294          25.000  
G32  20976439.313   110231919.146       -2280.677          33.000    20976440.512    82316060.728       -1703.882          27.000  
J01  36343424.471   190985968.895        -623.894          29.000  
> 2021  9 12 13  2 20.9979528  0  4
G31  21389411.818   112402291.771       -1917.028          23.000  
G32  20976660.560   110233096.633       -2279.933          34.000    20976663.858    82316940.671       -1703.001          27.000  
J01  36343332.734   190985489.761        -623.222          30.000  
R02  19856954.916   105960376.9741      -3742.544          18.000  
> 2021  9 12 13  2 21.9979520  0  2
G32  20976855.425   110234116.267       -2280.185          27.000    20976857.224    82317702.373       -1703.406          24.000  
J01  36343211.019   190984852.273        -623.104          32.000  
> 2021  9 12 13  2 22.9979510  0  3
G31  21389603.386   112403290.8851      -1918.275          30.000  
G32  20976988.233   110234821.495       -2281.091          37.000    20976990.632    82318230.165       -1705.740          21.000  
J01  36343029.944   190983901.273        -625.317          27.000  
> 2021  9 12 13  2 23.9979502  0  4
G31  21389729.598   112403948.559       -1917.879          32.000  
G32  20977182.499   110235843.315       -2281.824          34.000    20977185.497    82318994.395       -1706.197          24.000  
J01  36342907.928   190983266.165        -625.046          31.000  
R02  19858267.707   105967450.2311      -3746.433          28.000  
> 2021  9 12 13  2 24.9979497  0  4
G31  21389942.751   112405077.688       -1916.923          29.000  
G32  20977471.798   110237338.209       -2284.297          38.000  
J01  36342875.551   190983103.323        -625.035          35.000  
R02  19858813.030   105970396.881       -3746.621          32.000  
> 2021  9 12 13  2 25.9979487  0  6
G10  24065714.852   126466184.1381      -4885.020          29.000  
G29  23641007.271   124234331.6491      -1408.155          24.000  
G31  21390006.307   112405419.463       -1917.976          29.000  
G32  20977610.003                       -2284.734          40.000  
J03  37271618.795   195863678.3221      -1191.208          23.000  
R02  19859211.754   105972544.284       -3748.436          32.000  
> 2021  9 12 13  2 26.9979479  0  6
G10  24066398.679   126469808.325       -4884.009          29.000  
G29  23641030.055   124234479.219       -1407.897          21.000  
G31  21390131.320   112406077.489       -1918.765          29.000  
G32  20977803.969   110239108.7681      -2285.156          39.000  
J01  36342579.955                        -626.620          36.000  
R02  19859671.336   105975013.463       -3749.777          32.000  
> 2021  9 12 13  2 27.9979469  0 10
C06  36198189.715   188493615.2581       -701.591          27.000  
C16  36769021.836   191465996.9441       -659.579          29.000  
C32  23097209.834   120273179.0971        232.601          30.000  
G10  24067025.245   126473116.695       -4883.927          29.000  
G29  23640997.078   124234313.130       -1410.392          24.000  
G31  21390196.375   112406420.771       -1918.836          30.000  
G32  20977938.875   110239818.799       -2285.573          40.000  
J01  36342402.778   190980596.6931       -625.939          35.000  
J03  37271524.660   195863223.7331      -1189.982          20.000  
R02  19860071.259   105977164.005       -3751.101          33.000  
> 2021  9 12 13  2 28.9979464  0  9
C06  36198171.427   188493536.234        -701.904          27.000  
C16  36768997.852   191465876.256        -660.016          29.000  
C32  23097014.370   120272166.366         231.890          28.000  
G10  24067802.907   126477214.346       -4885.773          28.000  
G29  23641119.094   124234935.613       -1410.846          25.000  
G31  21390411.027   112407552.033       -1918.972          30.000  
G32  20978224.278   110241317.266       -2285.721          40.000  
J01  36342369.801   190980434.864        -625.684          36.000  
R02  19860619.279   105980115.589       -3751.519          33.000  
> 2021  9 12 13  2 29.9979453  0  9
C06  36197975.663   188492521.467        -702.252          26.000  
C16  36768794.893   191464818.519        -659.586          29.000  
C32  23096639.929   120270217.426         231.458          27.000  
G29  23641057.337   124234613.671       -1411.905          26.000  
G31  21390445.203   112407738.153       -1919.604          28.000  
G32  20978330.104   110241871.141       -2287.093          38.000  
J01  36342158.747   190979327.905        -625.427          35.000  
J03  37271489.585   195863083.1341      -1188.797          20.000  
R02  19860987.724   105982107.038       -3751.606          31.000  
> 2021  9 12 13  2 30.9979446  0  9
C06  36197900.415   188492129.963        -701.713          26.000  
C16  36768712.150   191464385.399        -660.040          28.000  
C32  23096386.304   120268893.667         230.340          28.000  
G29  23641116.995   124234922.620       -1411.685          25.000  
G31  21390600.495   112408555.403       -1920.217          28.000  
G32  20978553.749   110243055.584       -2287.830          38.000  
J01  36342067.910   190978851.439        -627.170          36.000  
J03  37271505.174   195863168.985       -1189.265          18.000  
R02  19861477.585   105984739.557       -3752.882          33.000  
> 2021  9 12 13  2 31.9979436  0  8
C06  36197736.429   188491270.236        -701.557          28.000  
C16  36768539.770   191463484.158        -659.973          30.000  
C32  23096039.744   120267102.584         230.585          27.000  
G29  23641084.917   124234759.796       -1412.993          25.000  
G31  21390667.049   112408901.082       -1921.750          28.000  
G32  20978685.958   110243768.486       -2288.802          38.000  
J01  36341890.433   190977902.785        -627.816          36.000  
R02  19861875.710   105986893.946       -3755.087          32.000  
> 2021  9 12 13  2 32.9979430  0  8
C06  36197692.359   188491035.179        -701.997          29.000  
C16  36768486.407   191463207.980        -660.616          30.000  
C32  23095816.699   120265935.002         230.005          25.000  
G10  24070497.142   126491398.0371      -4885.907          21.000  
G29  23641175.155   124235227.566       -1413.002          24.000  
G32  20978942.580   110245111.722       -2288.653          37.000  
J01  36341829.575   190977584.366        -627.783          36.000  
R02  19862395.550   105989689.032       -3754.463          32.000  
> 2021  9 12 13  2 33.9979420  0  8
C06  36197528.073   188490176.194        -703.237          29.000  
C16  36768314.026   191462307.916        -661.586          29.000  
C32  23095472.837   120264144.191         229.348          27.000  
G10  24071126.106   126494708.445       -4885.712          24.000  
G31  21390920.074   112410223.6561      -1921.436          29.000  
G32  20979081.684   110245825.608       -2289.404          37.000  
J01  36341645.802   190976636.159        -628.416          37.000  
R02  19862798.471   105991844.559       -3755.834          32.000  
> 2021  9 12 13  2 34.9979412  0  9
C06  36197424.644   188489630.563        -703.159          28.000  
C16  36768201.004   191461720.650        -661.844          31.000  
C32  23095188.634   120262665.959         229.728          30.000  
G10  24071818.027   126498334.094       -4886.478          24.000  
G29  23641161.664   124235219.6981      -1418.560          16.000  
G31  21391046.886   112410884.898       -1922.700          32.000  
G32  20979275.350   110246855.402       -2290.177          38.000  
J01  36341519.889   190976003.596        -627.381          33.000  
R02  19863258.053   105994321.883       -3757.740          30.000  
> 2021  9 12 13  2 35.9979405  0  7
C06  36197351.795   188489241.024        -703.445          30.000  
C16  36768118.561   191461289.731        -661.694          30.000  
G10  24072540.827   126502117.540       -4886.254          24.000  
G31  21391204.877   112411704.130       -1921.662          27.000  
G32  20979501.993   110248043.342       -2291.501          37.000  
J01  36341431.151   190975528.495        -628.165          35.000  
R02  19863748.513   105996959.237       -3756.599          32.000  
> 2021  9 12 13  2 36.9979397  0  8
C06  36197245.668   188488695.092        -702.204          28.000  
C16  36768007.638   191460702.606        -662.098          28.000  
C32  23094649.307   120259865.7591        227.175          26.000  
G10  24073233.947   126505743.467       -4886.524          27.000  
G29  23641237.812   124235695.3431      -1415.638          15.000  
G32  20979701.955   110249074.475       -2292.511          39.000  
J01  36341312.433   190974896.353        -628.248          37.000  
R02  19864210.193   105999436.454       -3757.496          30.000  
> 2021  9 12 13  2 37.9979389  0  9
C06  36197140.441   188488148.427        -702.359          27.000  
C16  36767894.916   191460115.071        -661.765          28.000  
C32  23094366.603   120258390.563         225.618          29.000  
G10  24073924.669   126509369.443       -4886.456          27.000  
G31  21391454.304   112413026.5731      -1922.293          30.000  
G32  20979897.119   110250106.163       -2292.570          38.000  
J01  36341191.916   190974264.476        -628.616          37.000  
J03  37271379.261   195862509.5921      -1188.941          24.000  
R02  19864673.373   106001915.907       -3759.971          31.000  
> 2021  9 12 13  2 38.9979379  0 10
C06  36196975.855   188487289.681        -702.594          27.000  
C16  36767723.735   191459215.745        -662.145          29.000  
C32  23094022.141   120256604.032         225.241          28.000  
G10  24074555.732   126512680.594       -4886.677          26.000  
G31  21391520.259   112413373.131       -1922.325          31.000  
G32  20980029.628   110250823.484       -2293.636          38.000  
J01  36341016.838   190973317.892        -629.372          34.000  
J02  39255703.142   206290111.5841      -2046.225          23.000  
J03  37271303.713   195862122.843       -1189.005          25.000  
R02  19865077.493   106004076.449       -3760.928          31.000  
> 2021  9 12 13  2 39.9979372  0  9
C06  36196901.806   188486900.795        -705.581          29.000  
C16  36767640.392   191458784.790        -662.060          29.000  
G10  24075276.133   126516464.475       -4886.859          31.000  
G29  23641311.860   124236005.2191      -1417.444          19.000  
G31  21391677.050   112414192.904       -1923.665          30.000  
G32  20980255.371   110252014.187       -2294.786          38.000  
J01  36340926.600   190972844.277        -629.683          34.000  
J02  39255883.917   206291055.092       -2046.336          21.000  
R02  19865570.052   106006717.617       -3761.514          29.000  
> 2021  9 12 13  2 40.9979361  0  9
C06  36196706.941   188485889.299        -705.838          27.000  
C16  36767438.632   191457730.083        -662.894          31.000  
G10  24075876.318   126519618.588       -4887.404          30.000  
G29  23641250.103   124235690.377       -1418.757          24.000  
G31  21391711.526   112414383.121       -1923.386          24.000  
G32  20980360.898   110252575.935       -2294.903          36.000  
J01  36340716.146   190971741.208        -630.514          33.000  
J02  39255946.274   206291368.805       -2047.734          20.000  
R02  19865943.294   106008719.867       -3762.776          31.000  
> 2021  9 12 13  2 41.9979356  0  8
C06  36196693.151   188485813.477        -704.017          26.000  
C16  36767416.147   191457612.634        -662.568          27.000  
C32  23093205.806   120252346.4011        217.028          18.000  
G10  24076657.577   126523718.605       -4887.764          30.000  
G31  21391926.477   112415519.445       -1924.018          24.000  
G32  20980649.898   110254082.672       -2294.235          38.000  
J01  36340689.164   190971584.395        -632.671          30.000  
J02  39256186.108   206292628.063       -2046.814          19.000  
> 2021  9 12 13  2 42.9979346  0  7
C16  36767243.767   191456714.068        -662.762          18.000  
C32  23092867.041   120250567.438         218.640          19.000  
G10  24077288.640   126527030.515       -4887.431          26.000  
G29  23641348.135   124236166.7591      -1420.816          22.000  
G32  20980785.105   110254803.073       -2296.220          35.000  
J01  36340507.790   190970640.295        -630.991          32.000  
J03  37271225.767   195861691.5531      -1194.522          17.000  
> 2021  9 12 13  2 43.9979338  0  3
G10  24077981.760   126530657.083       -4886.795          24.000  
G29  23641385.909   124236327.840       -1421.722          18.000  
G31  21392119.244   112416529.8721      -1923.480          22.000  
> 2021  9 12 13  2 44.9979328  0  5
G10  24078615.222   126533968.641       -4887.472          23.000  
G31  21392186.697   112416878.182       -1923.421          20.000  
G32  20981124.470   110256560.7951      -2295.831          29.000  
J01  36340202.002   190969065.4911       -632.254          30.000  
R02  19867796.311   106018493.5271      -3764.008          22.000  
> 2021  9 12 13  2 45.9979323  0  7
C06  36196258.152   188483485.1751       -709.105          17.000  
C32  23092055.503   120246316.9601        218.806          19.000  
G31  21392403.747   112418013.542       -1922.643          24.000  
G32  20981409.273   110258068.507       -2294.884          24.000  
J01  36340171.423   190968909.666        -631.711          29.000  
J03  37271215.874   195861659.0911      -1199.077          19.000  
R02  19868359.621   106021459.779       -3766.636          27.000  
> 2021  9 12 13  2 46.9979315  0  7
C16  36766822.558   191454519.6141       -660.005          24.000  
C32  23091772.499   120244849.119         219.103          20.000  
G29  23641529.210   124236970.0481      -1422.743          18.000  
G31  21392529.060   112418674.724       -1922.006          28.000  
G32  20981604.138   110259103.130       -2295.405          23.000  
J01  36340049.108   190968280.310        -631.310          33.000  
R02  19868831.794   106023946.761       -3767.110          27.000  
> 2021  9 12 13  2 47.9979305  0  6
C16  36766650.777   191453618.537        -660.310          23.000  
C32  23091431.335   120243068.706         218.613          24.000  
G10  24080728.159   126545009.9401      -4888.597          22.000  
G29  23641506.126   124236818.193       -1424.293          18.000  
J01  36339868.333   190967336.072        -631.519          26.000  
R02  19869244.009   106026114.995       -3768.827          31.000  
> 2021  9 12 13  2 48.9979297  0  6
C16  36766538.955   191453030.481        -659.922          21.000  
G10  24081414.084   126548638.591       -4889.677          18.000  
G29  23641539.103   124236984.115       -1427.228          18.000  
G31  21392714.932   112419685.2201      -1924.670          25.000  
J01  36339747.216   190966707.586        -631.764          27.000  
R02  19869710.785   106028604.243       -3769.992          29.000  
> 2021  9 12 13  2 49.9979290  0  9
C06  36195803.966   188481163.5281       -706.521          18.000  
C16  36766455.912   191452597.780        -662.765          22.000  
C32  23090892.907   120240291.8661        217.006          23.000  
G10  24082134.185   126552424.913       -4888.808          16.000  
G26  20185830.241   106077211.9241       -647.512          27.000  
G29  23641603.858   124237308.747       -1424.790          18.000  
G31  21392873.822   112420507.933       -1925.670          25.000  
J01  36339656.979   190966236.680        -631.537          31.000  
R02  19870211.139   106031254.596       -3770.253          27.000  
> 2021  9 12 13  2 50.9979282  0  9
C06  36195699.639   188480619.612        -701.937          24.000  
C16  36766343.490   191452011.386        -663.602          21.000  
C32  23090609.903   120238826.870         213.822          24.000  
G10  24082822.809   126556053.509       -4887.648          17.000  
G26  20185710.324   106076599.577        -647.956          24.000  
G31  21393002.732   112421173.973       -1925.834          30.000  
G32  20982365.910   110263097.8751      -2299.196          29.000  
J01  36339537.062   190965606.590        -629.837          28.000  
R02  19870680.614   106033743.955       -3768.869          29.000  
> 2021  9 12 13  2 51.9979272  0  9
C16  36766172.309   191451115.388        -666.156          21.000  
C32  23090267.840   120237052.711         213.363          18.000  
E31  24422192.368   128339491.8831       -238.311          34.000  
G10  24083450.274   126559363.694       -4886.044          24.000  
G26  20185531.048   106075670.732        -646.600          25.000  
G31  21393071.385   112421523.880       -1925.946          26.000  
G32  20982505.314   110263822.216       -2300.931          24.000  
J01  36339357.786   190964662.685        -631.817          29.000  
R02  19871088.632   106035912.693       -3769.097          31.000  
> 2021  9 12 13  2 52.9979264  0  7
C06  36195429.825   188479213.9841       -703.429          19.000  
E31  24421997.503   128338469.228        -237.131          28.000  
G10  24084139.797   126562990.383       -4886.651          24.000  
G26  20185413.229   106075056.656        -648.005          25.000  
G31  21393200.895   112422190.888       -1928.651          28.000  
J01  36339239.368   190964034.835        -631.890          27.000  
R02  19871555.708   106038401.273       -3768.053          29.000  
> 2021  9 12 13  2 53.9979256  0  7
C06  36195327.896   188478669.627        -705.200          20.000  
E31  24421801.139   128337446.377        -239.052          25.000  
G10  24084825.422   126566614.845       -4883.283          26.000  
G26  20185295.411   106074444.375        -648.385          25.000  
G31  21393331.305   112422858.861       -1928.428          27.000  
J01  36339122.449   190963405.695        -631.137          27.000  
R02  19872021.886   106040890.016       -3769.376          27.000  
> 2021  9 12 13  2 54.9979249  0  8
C06  36195256.246   188478281.979        -705.168          21.000  
C16  36765865.321   191449522.8891       -664.938          20.000  
E31  24421635.953   128336581.735        -235.477          23.000  
G10  24085543.125   126570394.845       -4883.231          23.000  
G26  20185207.272   106073990.835        -650.289          27.000  
G31  21393488.696   112423684.346       -1927.680          28.000  
J01  36339032.211   190962933.599        -630.998          32.000  
R02  19872520.440   106043540.275       -3771.574          35.000  
> 2021  9 12 13  2 55.9979241  0  6
C06  36195152.218   188477739.030        -707.044          26.000  
G10  24086230.550   126574017.600       -4883.104          24.000  
G31  21393616.408   112424351.607       -1927.637          29.000  
G32  20983340.536   110268144.7171      -2303.642          17.000  
J01  36338911.095   190962304.113        -630.784          29.000  
R02  19872983.320   106046031.723       -3772.230          30.000  
> 2021  9 12 13  2 56.9979231  0  8
C06  36194987.931   188476885.581        -708.221          20.000  
C16  36765582.317   191448046.7931       -667.861          27.000  
G10  24086856.216   126577325.100       -4881.733          22.000  
G29  23641725.874   124238007.0661      -1433.780          19.000  
G31  21393683.861   112424704.226       -1928.397          29.000  
G32  20983480.539   110268874.557       -2305.623          20.000  
J01  36338730.320   190961359.104        -629.898          27.000  
R02  19873390.738   106048203.543       -3771.535          33.000  
> 2021  9 12 13  2 57.9979223  0  6
C06  36194885.702   188476345.420        -709.017          29.000  
C16  36765469.295   191447465.760        -667.999          27.000  
G10  24087544.240   126580945.484       -4880.010          22.000  
G31  21393810.073   112425372.525       -1928.783          26.000  
J01  36338610.104   190960729.185        -630.200          31.000  
R02  19873858.114   106050697.503       -3775.547          29.000  
> 2021  9 12 13  2 58.9979215  0  8
C06  36194783.173   188475806.187        -710.055          26.000  
C16  36765356.273   191446884.618        -667.502          29.000  
G10  24088232.264   126584566.432       -4881.185          24.000  
G29  23641789.730   124238358.2031      -1439.335          20.000  
G31  21393938.984   112426040.041       -1927.810          29.000  
G32  20983875.066   110270968.6721      -2307.138          21.000  
J01  36338491.686   190960099.527        -630.916          31.000  
R02  19874329.088   106053192.881       -3775.064          29.000  
> 2021  9 12 13  2 59.9979208  0  7
C06  36194708.225   188475422.590        -708.722          27.000  
C16  36765275.030   191446458.637        -665.772          29.000  
G10  24088949.068   126588344.427       -4881.703          20.000  
G29  23641853.585   124238694.204       -1437.311          20.000  
G31  21394094.577   112426866.388       -1929.418          30.000  
J01  36338402.348   190959627.750        -631.196          32.000  
R02  19874828.543   106055848.123       -3775.093          27.000  
> 2021  9 12 13  3  0.9979197  0  6
C06  36194513.060   188474413.727        -709.002          27.000  
C16  36765072.370   191445407.824        -667.517          25.000  
G10  24089548.652   126591494.449       -4883.305          24.000  
G31  21394132.350   112427063.389       -1930.287          30.000  
J01  36338192.793   190958526.189        -631.722          31.000  
R02  19875207.480   106057864.970       -3777.373          28.000  
> 2021  9 12 13  3  1.9979190  0  7
C06  36194439.611   188474029.241        -708.122          28.000  
C16  36764990.826   191444982.596        -667.944          30.000  
G10  24090266.056   126595275.023       -4886.448          20.000  
G29  23641860.181   124238731.5451      -1434.986          20.000  
G31  21394289.442   112427891.575       -1931.335          29.000  
J01  36338102.555   190958055.017        -631.954          33.000  
R02  19875705.735   106060524.217       -3779.569          26.000  
> 2021  9 12 13  3  2.9979182  0  5
C06  36194336.482   188473488.707        -708.759          28.000  
C16  36764879.304   191444401.389        -667.109          29.000  
G10  24090960.975   126598900.635       -4888.713          22.000  
G31  21394416.554   112428560.321       -1927.849          25.000  
J01  36337982.338   190957426.489        -631.023          28.000  
> 2021  9 12 13  3  3.9979174  0  7
C16  36764766.582   191443820.595        -668.045          26.000  
G10  24091653.495   126602527.503       -4888.426          20.000  
G29  23641934.829   124239081.4321      -1435.261          20.000  
G31  21394543.965   112429228.121       -1928.708          28.000  
G32  20984829.605   110276037.7911      -2305.239          22.000  
J01  36337863.620   190956797.352        -631.684          29.000  
R02  19876634.792   106065521.5201      -3779.076          27.000  
> 2021  9 12 13  3  4.9979164  0  7
C06  36194072.365   188472099.5461       -712.585          24.000  
C16  36764594.801   191442926.718        -667.587          27.000  
G10  24092282.460   126605842.583       -4890.730          18.000  
G29  23641908.747   124238940.977       -1432.834          19.000  
G31  21394610.519   112429581.866       -1929.317          29.000  
J01  36337684.345   190955853.722        -632.065          31.000  
R02  19877039.212   106067700.514       -3779.956          32.000  
> 2021  9 12 13  3  5.9979156  0  7
C06  36193968.637   188471561.143        -709.307          27.000  
C16  36764483.578   191442344.954        -666.294          29.000  
G10  24092980.677   126609473.114       -4889.565          17.000  
G31  21394738.831   112430250.931       -1929.382          25.000  
G32  20985166.272   110277818.6121      -2308.906          24.000  
J01  36337565.027   190955226.629        -633.851          27.000  
R02  19877502.092   106070200.957       -3780.246          27.000  
> 2021  9 12 13  3  6.9979151  0  6
C06  36193953.947   188471489.192        -708.452          27.000  
C16  36764461.693   191442230.985        -667.856          30.000  
G31  21394956.480   112431393.305       -1930.378          26.000  
G32  20985452.873   110279339.359       -2307.481          20.000  
J01  36337536.247   190955073.889        -635.381          24.000  
R02  19878054.909   106073182.104       -3781.202          25.000  
> 2021  9 12 13  3  7.9979141  0  8
C06  36193789.661   188470636.240        -708.661          28.000  
C16  36764289.912   191441337.572        -666.877          26.000  
G10  24094393.299   126616889.4941      -4886.261          17.000  
G26  20183589.891   106065488.7771       -658.607          26.000  
G31  21395027.231   112431747.095       -1928.611          26.000  
G32  20985587.180   110280071.722       -2307.640          21.000  
J01  36337357.571   190954133.732        -635.343          28.000  
R02  19878457.830   106075363.968       -3781.149          29.000  
> 2021  9 12 13  3  8.9979133  0  8
C06  36193685.933   188470096.198        -708.945          28.000  
C16  36764180.188   191440755.835        -667.355          26.000  
G10  24095081.322   126620513.090       -4883.556          19.000  
G26  20183474.771   106064887.162        -658.685          25.000  
G31  21395154.942   112432415.713       -1928.912          29.000  
G32  20985784.444   110281119.275       -2308.045          22.000  
J01  36337238.853   190953506.886        -632.849          28.000  
R02  19878928.204   106077865.394       -3782.412          27.000  
> 2021  9 12 13  3  9.9979123  0  9
C06  36193521.946   188469244.512        -710.382          29.000  
C16  36764009.906   191439862.042        -666.177          26.000  
G10  24095706.989   126623820.516       -4882.535          19.000  
G26  20183297.894   106063971.169        -660.535          27.000  
G29  23642056.845   124239661.6171      -1441.670          13.000  
G31  21395222.995   112432769.448       -1929.527          29.000  
G32  20985921.449   110281852.608       -2309.511          29.000  
J01  36337061.376   190952564.381        -633.266          25.000  
R02  19879335.323   106080047.245       -3782.070          28.000  
> 2021  9 12 13  3 10.9979118  0  8
C06  36193508.455   188469173.988        -710.619          27.000  
C16  36763987.721   191439747.604        -666.512          27.000  
G10  24096482.552   126627915.545       -4884.115          19.000  
G26  20183274.210   106063843.688        -660.424          24.000  
G31  21395439.745   112433911.331       -1929.818          27.000  
G32  20986206.552   110283374.879       -2310.827          31.000  
J01  36337031.097   190952409.768        -633.843          29.000  
R02  19879896.834   106083030.657       -3783.829          27.000  
> 2021  9 12 13  3 11.9979108  0  9
C06  36193344.469   188468322.148        -709.023          29.000  
C16  36763814.141   191438852.191        -665.010          22.000  
G10  24097112.416   126631222.583       -4884.285          20.000  
G26  20183100.330   106062929.273        -661.462          25.000  
G29  23642167.168   124240175.6361      -1441.221          14.000  
G31  21395508.098   112434266.576       -1931.986          26.000  
G32  20986343.557   110284110.281       -2311.167          31.000  
J01  36336849.423   190951468.412        -633.887          31.000  
R02  19880301.254   106085217.349       -3787.347          25.000  
> 2021  9 12 13  3 12.9979100  0  7
C06  36193240.741   188467781.075        -706.709          25.000  
C16  36763701.419   191438267.771        -665.934          26.000  
G26  20182985.510   106062331.106        -663.001          26.000  
G31  21395635.810   112434938.228       -1931.812          26.000  
G32  20986542.919   110285160.976       -2311.211          32.000  
J01  36336729.805   190950842.030        -633.398          30.000  
R02  19880770.129   106087724.068       -3785.827          25.000  
> 2021  9 12 13  3 13.9979092  0  5
C16  36763590.496   191437685.421        -667.665          28.000  
G31  21395762.322   112435609.359       -1931.680          25.000  
G32  20986741.681   110286212.466       -2312.706          32.000  
J01  36336610.488   190950215.739        -634.272          30.000  
R02  19881237.506   106090230.180       -3786.305          28.000  
> 2021  9 12 13  3 14.9979085  0  6
C06  36193064.163   188466855.6791       -708.704          20.000  
C16  36763510.152   191437260.214        -667.938          26.000  
G10  24099211.563   126642249.8811      -4883.560          17.000  
G31  21395919.113   112436437.572       -1930.851          28.000  
J01  36336522.049   190949747.604        -635.151          28.000  
R02  19881734.562   106092896.896       -3785.785          29.000  
> 2021  9 12 13  3 15.9979077  0  7
C06  36192960.435   188466315.302        -709.263          23.000  
C16  36763402.526   191436678.385        -666.111          27.000  
G10  24099901.086   126645872.932       -4883.268          18.000  
G29  23642366.230   124241472.2301      -1439.903          14.000  
G31  21396046.825   112437107.953       -1930.796          27.000  
G32  20987170.084   110288472.9181      -2311.641          23.000  
J01  36336403.631   190949121.901        -634.562          27.000  
> 2021  9 12 13  3 16.9979067  0  6
C06  36192794.949   188465462.602        -707.850          27.000  
C16  36763229.546   191435783.465        -666.679          25.000  
G10  24100530.350   126649180.492       -4883.595          18.000  
G31  21396115.477   112437461.645       -1930.050          28.000  
J01  36336222.557   190948181.352        -633.792          27.000  
R02  19882618.050   106097590.1611      -3786.748          29.000  
> 2021  9 12 13  3 17.9979059  0  5
C06  36192695.119   188464922.993        -711.449          25.000  
G31  21396242.290   112438130.928       -1929.238          28.000  
G32  20987504.653   110290260.1791      -2313.523          20.000  
J01  36336102.640   190947554.931        -634.229          29.000  
R02  19883091.422   106100098.059       -3789.163          28.000  
> 2021  9 12 13  3 18.9979049  0  6
C06  36192532.031   188464072.795        -710.775          19.000  
C16  36762946.242   191434308.3871       -665.792          26.000  
G29  23642358.736   124241388.3021      -1448.251          15.000  
G31  21396307.644   112438484.369       -1929.125          26.000  
J01  36335924.563   190946613.771        -634.954          29.000  
R02  19883495.542   106102288.052       -3790.100          24.000  
> 2021  9 12 13  3 19.9979044  0  6
C06  36192518.241   188464000.721        -706.633          25.000  
G10  24102625.000   126660214.7091      -4890.473          19.000  
G29  23642487.946   124242049.240       -1449.797          15.000  
G31  21396524.994   112439626.700       -1931.401          27.000  
J01  36335895.183   190946460.278        -634.519          29.000  
R02  19884060.651   106105278.929       -3791.500          29.000  
> 2021  9 12 13  3 20.9979034  0  6
C06  36192354.854   188463145.679        -705.910          21.000  
C16  36762751.976   191433294.9561       -665.118          23.000  
G31  21396594.246   112439981.720       -1928.926          26.000  
G32  20988080.554   110293268.5351      -2315.378          18.000  
J01  36335715.907   190945520.014        -634.678          29.000  
R02  19884476.763   106107470.809       -3791.393          25.000  
> 2021  9 12 13  3 21.9979026  0  7
C06  36192248.728   188462604.193        -709.068          24.000  
C16  36762638.655   191432711.140        -665.779          28.000  
C23  22627609.832   117827999.8071      -1790.823          26.000  
G29  23642503.535   124242112.8261      -1446.136          16.000  
G31  21396723.457   112440650.312       -1927.155          28.000  
J01  36335596.290   190944893.100        -632.478          26.000  
R02  19884950.435   106109982.626       -3791.672          28.000  
> 2021  9 12 13  3 22.9979016  0  8
C06  36192084.741   188461752.849        -709.937          27.000  
C16  36762466.274   191431815.357        -665.339          28.000  
G10  24104584.144   126670474.5111      -4891.202          16.000  
G29  23642480.451   124241981.459       -1444.354          14.000  
G31  21396790.310   112441000.852       -1924.954          26.000  
G32  20988430.112   110295064.8551      -2315.714          17.000  
J01  36335419.712   190943949.910        -631.712          23.000  
R02  19885363.549   106112174.235       -3791.649          26.000  
> 2021  9 12 13  3 23.9979011  0  8
C06  36192070.951   188461681.603        -708.750          27.000  
C16  36762442.890   191431700.324        -666.360          25.000  
G10  24105366.002   126674583.602       -4898.871          14.000  
G29  23642602.767   124242638.258       -1444.742          15.000  
G31  21397006.461   112442138.380       -1926.097          27.000  
G32  20988720.911   110296592.050       -2313.990          17.000  
J01  36335390.333   190943795.366        -634.086          25.000  
R02  19885923.262   106115166.523       -3793.265          23.000  
> 2021  9 12 13  3 24.9979003  0  7
C06  36191966.323   188461139.390        -705.591          24.000  
C23  22627950.696   117829774.7781      -1787.563          17.000  
G10  24106058.523   126678222.319       -4899.479          14.000  
G29  23642638.142   124242822.335       -1444.715          16.000  
G31  21397133.573   112442805.506       -1929.071          27.000  
J01  36335271.615   190943169.435        -634.311          28.000  
R02  19886394.236   106117680.983       -3795.240          25.000  
> 2021  9 12 13  3 25.9978993  0  5
C06  36191803.236   188460284.052        -706.689          22.000  
G29  23642611.161   124242692.494       -1447.273          16.000  
G31  21397202.825   112443159.846       -1931.613          26.000  
J01  36335091.440   190942228.105        -633.993          28.000  
R02  19886807.350   106119876.365       -3796.793          27.000  
> 2021  9 12 13  3 26.9978985  0  7
C06  36191700.107   188459741.346        -706.076          23.000  
C16  36762046.265   191429636.0701       -663.749          24.000  
C23  22628100.592   117830541.0531      -1789.189          18.000  
G29  23642638.742   124242880.028       -1448.070          17.000  
G31  21397331.436   112443832.372       -1934.385          27.000  
J01  36334970.923   190941601.279        -633.195          28.000  
R02  19887282.521   106122393.538       -3796.967          27.000  
> 2021  9 12 13  3 27.9978977  0  5
G29  23642672.019   124243066.509       -1445.833          18.000  
G31  21397460.946   112444505.060       -1932.663          25.000  
G32  20989469.792   110300490.1381      -2316.314          18.000  
J01  36334851.006   190940974.651        -635.356          28.000  
R02  19887751.396   106124909.913       -3796.836          27.000  
> 2021  9 12 13  3 28.9978970  0  6
C16  36761854.098   191428620.8691       -665.379          20.000  
G29  23642732.277   124243409.091       -1445.260          19.000  
G31  21397619.536   112445335.100       -1933.189          29.000  
G32  20989701.232   110301704.235       -2317.926          19.000  
J01  36334761.668   190940508.292        -636.839          27.000  
R02  19888256.247   106127587.150       -3796.069          23.000  
> 2021  9 12 13  3 29.9978959  0  6
C16  36761652.637   191427570.194        -666.717          19.000  
G29  23642673.218   124243122.669       -1448.540          18.000  
G31  21397657.010   112445535.132       -1933.404          27.000  
G32  20989810.956   110302290.166       -2319.893          24.000  
J01  36334552.113   190939411.350        -635.229          31.000  
R02  19888651.373   106129622.181       -3794.551          28.000  
> 2021  9 12 13  3 30.9978952  0  5
C23  22628494.519   117832560.2231      -1793.285          17.000  
G31  21397816.200   112446363.986       -1930.326          29.000  
G32  20990042.696   110303507.926       -2321.008          24.000  
J01  36334462.775   190938943.677        -634.588          28.000  
R02  19889153.226   106132298.617       -3798.027          24.000  
> 2021  9 12 13  3 31.9978944  0  6
C16  36761458.972   191426564.4711       -668.348          21.000  
G10  24110803.038   126703153.5941      -4883.665          18.000  
G31  21397942.713   112447036.157       -1933.098          22.000  
G32  20990244.756   110304568.390       -2320.363          26.000  
J01  36334346.156   190938317.421        -634.049          27.000  
R02  19889623.600   106134817.025       -3798.707          26.000  
> 2021  9 12 13  3 32.9978936  0  7
C16  36761348.348   191425983.404        -667.165          21.000  
C23  22628704.674   117833640.1941      -1786.937          17.000  
G10  24111489.563   126706775.398       -4882.415          18.000  
G31  21398067.726   112447707.082       -1931.991          26.000  
G32  20990445.617   110305628.553       -2320.788          23.000  
J01  36334225.939   190937691.111        -634.068          28.000  
R02  19890091.276   106137336.005       -3798.238          26.000  
> 2021  9 12 13  3 33.9978929  0  6
C23  22628839.281   117834332.295       -1781.887          16.000  
G29  23642850.695   124244203.0261      -1450.820          17.000  
G31  21398229.014   112448534.560       -1930.257          23.000  
G32  20990675.857   110306847.122       -2321.229          23.000  
J01  36334136.301   190937222.506        -633.480          26.000  
R02  19890592.829   106140015.120       -3800.390          25.000  
> 2021  9 12 13  3 34.9978918  0  6
C23  22628853.671   117834397.362       -1783.023          17.000  
G10  24112798.757   126713704.3201      -4882.562          20.000  
G31  21398267.088   112448731.653       -1930.190          29.000  
G32  20990787.680   110307435.346       -2320.888          24.000  
J01  36333926.446   190936122.483        -633.049          25.000  
R02  19890976.264   106142055.326       -3800.221          27.000  
> 2021  9 12 13  3 35.9978911  0  6
C23  22628986.479   117835086.002       -1779.700          17.000  
G10  24113515.261   126717483.678       -4882.943          25.000  
G31  21398423.580   112449559.428       -1930.499          27.000  
G32  20991017.321   110308653.323       -2321.360          25.000  
J01  36333837.408   190935652.762        -634.142          28.000  
R02  19891475.118   106144736.110       -3801.184          26.000  
> 2021  9 12 13  3 36.9978903  0  4
G31  21398549.792   112450229.650       -1931.004          29.000  
G32  20991218.782   110309713.736       -2320.661          25.000  
J01  36333718.690   190935026.276        -634.412          28.000  
R02  19891949.690   106147256.932       -3801.991          24.000  
> 2021  9 12 13  3 37.9978895  0  6
G10  24114886.811   126724729.3461      -4882.604          17.000  
G29  23642916.050   124244361.6981      -1453.867          19.000  
G31  21398676.305   112450900.720       -1931.985          28.000  
G32  20991419.643   110310775.316       -2323.341          24.000  
J01  36333601.771   190934399.997        -633.550          27.000  
R02  19892420.064   106149779.408       -3802.822          27.000  
> 2021  9 12 13  3 38.9978885  0  5
G10  24115514.577   126728037.123       -4884.259          20.000  
G29  23642890.867   124244239.568       -1453.600          20.000  
G31  21398743.158   112451256.534       -1931.273          28.000  
J01  36333423.994   190933459.104        -635.063          29.000  
R02  19892829.281   106151983.268       -3803.961          26.000  
> 2021  9 12 13  3 39.9978877  0  5
G10  24116203.800   126731661.282       -4883.999          20.000  
G29  23642926.543   124244431.875       -1453.458          18.000  
G31  21398872.369   112451926.911       -1930.887          29.000  
J01  36333307.375   190932834.331        -636.212          27.000  
R02  19893304.152   106154507.830       -3803.244          26.000  
> 2021  9 12 13  3 40.9978870  0  5
G10  24116921.203   126735442.084       -4884.329          24.000  
G31  21399030.060   112452755.684       -1932.052          28.000  
G32  20992000.041   110313808.1511      -2323.977          21.000  
J01  36333215.638   190932366.654        -635.715          26.000  
R02  19893805.405   106157193.004       -3807.341          26.000  
> 2021  9 12 13  3 41.9978862  0  4
G10  24117608.327   126739064.109       -4882.725          20.000  
G31  21399157.172   112453426.375       -1930.696          28.000  
J01  36333096.321   190931741.811        -637.021          30.000  
R02  19894277.578   106159721.625       -3809.320          26.000  
> 2021  9 12 13  3 42.9978852  0  4
G10  24118238.491   126742370.908       -4882.228          23.000  
G31  21399224.025   112453781.747       -1932.010          28.000  
J01  36332918.844   190930802.925        -637.311          30.000  
R02  19894685.596   106161929.720       -3808.102          22.000  
> 2021  9 12 13  3 43.9978844  0  6
G10  24118925.615   126745992.909       -4884.346          23.000  
G29  23643022.176   124245051.4671      -1458.445          14.000  
G31  21399352.636   112454452.960       -1931.172          27.000  
G32  20992555.256   110316684.6831      -2324.940          21.000  
J01  36332799.826   190930179.947        -637.443          28.000  
R02  19895154.471   106164456.375       -3805.171          25.000  
> 2021  9 12 13  3 44.9978836  0  5
G29  23643063.548   124245247.275       -1454.654          15.000  
G31  21399480.348   112455122.849       -1928.545          25.000  
G32  20992760.614   110317749.975       -2326.880          23.000  
J01  36332677.811   190929557.194        -637.181          28.000  
R02  19895627.843   106166982.093       -3806.108          27.000  
> 2021  9 12 13  3 45.9978829  0  3
G29  23643123.506   124245599.155       -1456.380          14.000  
J01  36332589.971   190929090.614        -636.157          28.000  
R02  19896128.197   106169668.568       -3806.667          28.000  
> 2021  9 12 13  3 46.9978821  0  4
G31  21399767.849   112456615.9441      -1928.210          25.000  
G32  20993202.808   110320042.6881      -2327.627          22.000  
J01  36332471.853   190928465.737        -635.629          29.000  
R02  19896600.070   106172195.102       -3805.588          25.000  
> 2021  9 12 13  3 47.9978811  0  4
G10  24121665.419   126760340.1741      -4884.632          20.000  
G31  21399837.101   112456968.906       -1929.476          25.000  
J01  36332294.676   190927525.319        -635.137          25.000  
R02  19897014.983   106174402.289       -3809.393          27.000  
> 2021  9 12 13  3 48.9978806  0  3
G31  21400054.750   112458111.381       -1931.314          29.000  
J01  36332265.296   190927372.800        -636.601          29.000  
R02  19897582.490   106177411.865       -3811.442          27.000  
> 2021  9 12 13  3 49.9978796  0  4
G31  21400122.803   112458468.288       -1932.359          29.000  
G32  20993774.812   110323083.9181      -2327.260          28.000  
J01  36332087.519   190926433.308        -636.193          30.000  
R02  19897994.405   106179621.956       -3810.462          25.000  
> 2021  9 12 13  3 50.9978788  0  3
G31  21400251.414   112459140.460       -1932.695          29.000  
J01  36331968.502   190925809.710        -637.584          29.000  
R02  19898467.777   106182151.448       -3808.735          29.000  
> 2021  9 12 13  3 51.9978778  0  4
G29  23643239.526   124246277.4601      -1462.919          16.000  
G31  21400318.868   112459497.630       -1933.035          30.000  
J01  36331792.523   190924871.856        -636.825          29.000  
R02  19898881.191   106184361.415       -3810.643          30.000  
> 2021  9 12 13  3 52.9978772  0  4
G31  21400505.039   112460484.334       -1931.575          28.000  
G32  20994371.699   110326287.3321      -2329.203          28.000  
J01  36331735.263   190924562.878        -635.437          29.000  
R02  19899414.822   106187211.899       -3810.878          30.000  
> 2021  9 12 13  3 53.9978762  0  6
G10  24125764.481   126781920.0721      -4885.934          18.000  
G29  23643314.774   124246680.7971      -1460.908          17.000  
G31  21400572.492   112460840.545       -1931.058          27.000  
G32  20994513.201   110327041.447       -2331.134          26.000  
J01  36331556.287   190923622.166        -633.914          28.000  
R02  19899828.835   106189424.090       -3811.151          31.000  
> 2021  9 12 13  3 54.9978755  0  5
G10  24126480.985   126785701.390       -4882.532          18.000  
G31  21400731.382   112461668.102       -1930.294          28.000  
G32  20994745.540   110328271.408       -2333.803          22.000  
J01  36331466.649   190923153.726        -634.195          28.000  
R02  19900336.983   106192116.121       -3811.870          28.000  
> 2021  9 12 13  3 55.9978747  0  5
G29  23643420.900   124247242.6161      -1461.565          24.000  
G31  21400861.192   112462337.180       -1929.722          26.000  
G32  20994948.200   110329343.481       -2331.845          24.000  
J01  36331347.332   190922527.639        -634.843          28.000  
R02  19900809.756   106194648.237       -3811.901          27.000  
> 2021  9 12 13  3 56.9978737  0  5
G10  24127794.675   126792628.2861      -4882.281          19.000  
G29  23643399.915   124247129.069       -1463.241          23.000  
G31  21400931.344   112462690.744       -1929.226          25.000  
J01  36331167.156   190921587.526        -635.994          29.000  
R02  19901228.866   106196861.056       -3812.815          27.000  
> 2021  9 12 13  3 57.9978732  0  4
G31  21401149.592   112463832.050       -1928.776          27.000  
G32  20995384.698   110331639.7531      -2329.203          21.000  
J01  36331136.877   190921435.840        -635.369          30.000  
R02  19901798.472   106199873.431       -3813.574          27.000  
> 2021  9 12 13  3 58.9978721  0  4
G10  24129170.123   126799866.0781      -4880.670          19.000  
G31  21401187.666   112464028.736       -1930.069          28.000  
J01  36330929.121   190920338.251        -636.030          31.000  
R02  19902185.204   106201928.282       -3814.095          27.000  
> 2021  9 12 13  3 59.9978714  0  4
G29  23643544.115   124247886.4571      -1458.253          16.000  
G31  21401344.757   112464856.785       -1931.348          30.000  
J01  36330843.680   190919871.510        -636.613          29.000  
R02  19902694.551   106204624.310       -3816.377          25.000  
> 2021  9 12 13  4  0.9978703  0  3
G10  24130481.715   126806794.5081      -4881.215          18.000  
G29  23643490.452   124247610.896       -1455.711          16.000  
G31  21401382.831   112465054.711       -1930.701          30.000  
> 2021  9 12 13  4  1.9978698  0  2
G31  21401601.080   112466198.051       -1931.461          26.000  
J01  36330601.448   190918625.1081       -636.153          29.000  
> 2021  9 12 13  4  2.9978688  0  3
G31  21401668.233   112466553.067       -1929.662          31.000  
G32  20996280.777   110336355.0661      -2330.957          19.000  
J01  36330422.772   190917684.436        -635.088          30.000  
> 2021  9 12 13  4  3.9978680  0  3
C06  36187569.267   188438275.6731       -702.310          24.000  
G31  21401795.046   112467222.308       -1929.643          32.000  
J01  36330303.154   190917059.458        -635.697          30.000  
> 2021  9 12 13  4  4.9978670  0  4
C06  36187403.182   188437416.502        -701.118          20.000  
G10  24133202.931   126820837.0931      -4884.563          16.000  
G31  21401861.600   112467577.345       -1930.420          30.000  
J01  36330126.877   190916119.995        -636.718          30.000  
> 2021  9 12 13  4  5.9978665  0  5
C06  36187386.993   188437336.164        -699.692          22.000  
G10  24133992.285   126824936.416       -4884.883          15.000  
G29  23643746.775   124248919.6971      -1464.810          15.000  
G31  21402078.050   112468720.718       -1931.207          31.000  
J01  36330097.797   190915969.102        -637.393          30.000  
> 2021  9 12 13  4  6.9978657  0  3
C06  36187282.066   188436787.442        -701.649          22.000  
G31  21402206.960   112469391.229       -1930.019          30.000  
J01  36329979.678   190915345.498        -636.114          29.000  
> 2021  9 12 13  4  7.9978647  0  3
C06  36187117.180   188435927.529        -701.495          25.000  
G29  23643765.362   124249014.8881      -1465.650          17.000  
G31  21402273.814   112469745.241       -1929.609          30.000  
> 2021  9 12 13  4  8.9978639  0  4
C06  36187012.852   188435379.999        -702.670          28.000  
G29  23643804.934   124249220.432       -1466.186          18.000  
G31  21402400.926   112470413.844       -1929.337          29.000  
J01  36329679.286   190913781.0261       -635.615          36.000  
> 2021  9 12 13  4  9.9978632  0  6
C06  36186938.204   188434989.904        -703.711          30.000  
G10  24136724.593   126839269.9141      -4880.048          16.000  
G29  23643876.285   124249584.133       -1466.042          20.000  
G31  21402559.816   112471240.331       -1928.898          30.000  
G32  20997723.379   110343861.6061      -2337.039          23.000  
J01  36329585.751   190913314.095        -635.989          38.000  
> 2021  9 12 13  4 10.9978624  0  5
C06  36186832.977   188434444.996        -704.851          27.000  
G29  23643916.757   124249790.303       -1466.880          25.000  
G31  21402686.329   112471909.529       -1930.027          29.000  
G32  20997927.837   110344937.115       -2335.106          27.000  
J01  36329464.935   190912690.268        -636.836          30.000  
> 2021  9 12 13  4 11.9978614  0  6
C06  36186668.691   188433588.660        -705.226          26.000  
G10  24138049.676   126846191.8971      -4879.267          18.000  
G29  23643898.470   124249682.698       -1468.722          21.000  
G31  21402752.583   112472264.326       -1930.649          33.000  
G32  20998071.737   110345697.639       -2336.595          29.000  
J01  36329285.359   190911751.872        -637.443          28.000  
> 2021  9 12 13  4 12.9978606  0  5
C06  36186565.862   188433045.052        -705.552          28.000  
G29  23643940.141   124249891.740       -1470.179          23.000  
G31  21402879.695   112472934.783       -1931.194          30.000  
G32  20998276.795   110346773.794       -2337.196          28.000  
J01  36329168.740   190911129.557        -638.174          26.000  
> 2021  9 12 13  4 13.9978598  0  5
C06  36186461.834   188432500.925        -704.353          27.000  
G29  23643983.311   124250101.998       -1471.074          20.000  
G31  21403007.706   112473605.159       -1931.104          25.000  
G32  20998481.554   110347850.904       -2337.952          29.000  
J01  36329051.221   190910508.227        -639.508          26.000  
> 2021  9 12 13  4 14.9978591  0  5
C06  36186387.485   188432112.153        -703.456          26.000  
G29  23644051.963   124250470.248       -1471.503          20.000  
G31  21403163.598   112474433.384       -1931.046          25.000  
G32  20998716.291   110349086.551       -2338.197          28.000  
J01  36328963.082   190910044.085        -638.820          26.000  
> 2021  9 12 13  4 15.9978583  0  4
C06  36186281.958   188431567.595        -705.779          22.000  
G31  21403292.209   112475103.764       -1931.239          27.000  
G32  20998920.150   110350164.387       -2338.696          30.000  
J01  36328842.865   190909421.721        -637.608          30.000  
> 2021  9 12 13  4 16.9978573  0  6
C06  36186118.571   188430711.539        -705.069          24.000  
G10  24141463.113   126864127.9201      -4885.640          17.000  
G29  23644071.750   124250576.1101      -1471.131          20.000  
G31  21403361.461   112475460.582       -1934.042          27.000  
G32  20999064.050   110350927.316       -2338.476          34.000  
J01  36328662.690   190908483.003        -636.496          30.000  
> 2021  9 12 13  4 17.9978565  0  3
C06  36186013.644   188430166.216        -703.494          24.000  
G10  24142151.137   126867755.792       -4888.976          16.000  
G31  21403491.571   112476132.463       -1931.698          22.000  
> 2021  9 12 13  4 18.9978557  0  4
C06  36185908.717   188429621.384        -704.532          26.000  
G31  21403621.381   112476802.461       -1930.061          23.000  
G32  20999469.969   110353088.5051      -2341.059          29.000  
J01  36328426.753   190907235.2531       -636.493          29.000  
> 2021  9 12 13  4 19.9978550  0  5
C06  36185834.368   188429232.734        -704.306          28.000  
G10  24143567.356   126875169.3841      -4885.763          15.000  
G31  21403780.271   112477630.048       -1930.350          22.000  
G32  20999702.009   110354326.275       -2339.563          29.000  
J01  36328336.216   190906769.007        -636.537          29.000  
> 2021  9 12 13  4 20.9978540  0  4
C06  36185672.180   188428375.851        -704.118          26.000  
G10  24144196.321   126878480.087       -4886.170          13.000  
G31  21403845.026   112477986.301       -1932.701          23.000  
J01  36328157.240   190905830.696        -638.011          29.000  
> 2021  9 12 13  4 21.9978532  0  5
C06  36185568.752   188427831.299        -704.214          24.000  
C16  36755480.510   191395514.4751       -662.529          27.000  
G31  21403972.138   112478659.217       -1934.896          23.000  
G32  21000055.464   110356171.4301      -2341.783          22.000  
J01  36328038.522   190905207.897        -638.072          31.000  
> 2021  9 12 13  4 22.9978524  0  4
C06  36185464.124   188427285.373        -701.905          27.000  
C16  36755367.189   191394927.199        -660.617          27.000  
G10  24145574.766   126885725.2361      -4877.740          13.000  
J01  36327919.505   190904585.530        -638.441          30.000  
> 2021  9 12 13  4 23.9978516  0  6
C06  36185358.298   188426738.469        -702.651          26.000  
C16  36755252.968   191394337.767        -658.896          28.000  
G10  24146263.689   126889344.010       -4880.923          12.000  
G31  21404234.157   112480010.0631      -1933.358          18.000  
G32  21000470.077   110358335.9361      -2343.804          22.000  
J01  36327803.185   190903962.860        -637.625          30.000  
> 2021  9 12 13  4 24.9978506  0  6
C06  36185192.213   188425880.022        -702.397          25.000  
C16  36755079.688   191393436.383        -660.224          26.000  
G10  24146892.954   126892650.435       -4883.285          11.000  
G31  21404299.812   112480367.712       -1933.947          25.000  
G32  21000613.678   110359103.851       -2343.493          22.000  
J01  36327626.008   190903024.814        -637.257          29.000  
> 2021  9 12 13  4 25.9978499  0  6
C06  36185118.164   188425489.885        -703.709          26.000  
C16  36754995.746   191393004.257        -661.194          27.000  
G10  24147612.756   126896429.377       -4880.854          12.000  
G31  21404458.402   112481196.999       -1931.700          22.000  
G32  21000847.516   110360344.907       -2343.360          19.000  
J01  36327540.267   190902559.919        -637.763          28.000  
> 2021  9 12 13  4 26.9978493  0  5
C06  36185073.795   188425257.014        -704.854          28.000  
C16  36754942.383   191392728.955        -662.188          28.000  
G31  21404646.671   112482182.514       -1930.402          21.000  
G32  21001110.134   110361741.678       -2342.874          19.000  
J01  36327484.506   190902252.363        -637.173          29.000  
> 2021  9 12 13  4 27.9978483  0  4
C06  36184908.909   188424400.178        -704.859          26.000  
C16  36754770.002   191391829.294        -662.063          27.000  
G31  21404716.523   112482537.055       -1930.212          22.000  
J01  36327305.829   190901314.560        -638.181          30.000  
> 2021  9 12 13  4 28.9978476  0  5
C06  36184834.860   188424012.076        -705.121          25.000  
C16  36754687.559   191391398.641        -662.567          28.000  
G29  23644524.137   124252954.8981      -1474.471          16.000  
G31  21404872.715   112483365.065       -1930.545          25.000  
J01  36327217.691   190900849.927        -638.413          29.000  
> 2021  9 12 13  4 29.9978465  0  4
C06  36184640.295   188422999.263        -704.020          24.000  
C16  36754484.600   191390343.737        -662.551          30.000  
G31  21404907.191   112483563.248       -1932.086          27.000  
J01  36327009.035   190899755.456        -639.253          28.000  
> 2021  9 12 13  4 30.9978460  0  4
C06  36184625.305   188422921.296        -703.899          22.000  
C16  36754461.516   191390225.004        -661.565          28.000  
G31  21405123.941   112484707.902       -1932.722          24.000  
J01  36326982.353   190899607.455        -639.669          28.000  
> 2021  9 12 13  4 31.9978450  0  4
C06  36184460.719   188422063.537        -702.814          24.000  
C16  36754288.236   191389323.571        -658.422          25.000  
G31  21405191.394   112485065.475       -1934.423          22.000  
J01  36326805.176   190898670.946        -638.518          28.000  
> 2021  9 12 13  4 32.9978442  0  5
C06  36184353.693   188421515.714        -700.485          24.000  
C16  36754175.514   191388733.160        -658.739          28.000  
G29  23644641.056   124253488.8941      -1473.605          15.000  
G31  21405322.104   112485739.686       -1935.042          22.000  
J01  36326685.259   190898049.034        -638.968          27.000  
> 2021  9 12 13  4 33.9978435  0  5
C06  36184279.944   188421124.503        -700.474          23.000  
C16  36754094.270   191388300.246        -659.593          26.000  
G29  23644713.605   124253863.773       -1479.894          16.000  
G31  21405478.596   112486571.826       -1934.127          25.000  
J01  36326598.919   190897586.195        -641.036          27.000  
> 2021  9 12 13  4 34.9978424  0  3
C16  36753893.109   191387243.615        -662.158          27.000  
G31  21405517.868   112486773.121       -1935.003          28.000  
J01  36326391.762   190896493.589        -639.717          25.000  
> 2021  9 12 13  4 35.9978419  0  4
C16  36753870.625   191387125.179        -662.165          28.000  
G31  21405733.419   112487920.567       -1934.683          26.000  
G32  21002921.780   110371198.1801      -2344.968          18.000  
J01  36326362.682   190896345.681        -639.639          25.000  
> 2021  9 12 13  4 36.9978409  0  5
C16  36753699.144   191386226.608        -663.103          28.000  
G29  23644784.656   124254223.1231      -1487.093          16.000  
G31  21405799.673   112488279.681       -1933.403          25.000  
G32  21003069.278   110371969.273       -2347.725          19.000  
J01  36326187.604   190895411.277        -641.325          26.000  
> 2021  9 12 13  4 37.9978401  0  6
C06  36183802.974   188418625.6331       -703.834          23.000  
C16  36753586.422   191385639.894        -661.675          27.000  
G29  23644830.824   124254451.245       -1489.342          17.000  
G31  21405927.085   112488952.323       -1933.260          26.000  
G32  21003278.833   110373057.222       -2348.793          19.000  
J01  36326069.785   190894791.730        -640.538          26.000  
> 2021  9 12 13  4 38.9978391  0  4
C06  36183638.388   188417768.567        -705.077          28.000  
C16  36753412.242   191384740.187        -662.103          26.000  
G31  21405995.138   112489310.328       -1933.024          25.000  
J01  36325891.109   190893856.841        -640.857          28.000  
> 2021  9 12 13  4 39.9978386  0  5
C06  36183623.998   188417692.574        -703.533          27.000  
C16  36753389.758   191384621.174        -661.242          23.000  
G31  21406211.888   112490455.586       -1932.554          25.000  
G32  21003726.123   110375390.8671      -2349.726          20.000  
J01  36325862.928   190893709.347        -640.481          28.000  
> 2021  9 12 13  4 40.9978376  0  6
C06  36183459.412   188416835.281        -704.328          27.000  
C16  36753216.777   191383721.203        -661.328          25.000  
G29  23644932.454   124254973.5671      -1488.357          17.000  
G31  21406279.341   112490813.445       -1934.726          25.000  
G32  21003870.923   110376166.538       -2352.538          21.000  
J01  36325683.053   190892774.690        -640.620          27.000  
> 2021  9 12 13  4 41.9978368  0  5
C06  36183352.087   188416289.997        -704.463          27.000  
C16  36753106.154   191383134.777        -663.155          26.000  
G29  23644975.924   124255200.061       -1485.929          17.000  
G31  21406405.854   112491488.022       -1935.733          27.000  
J01  36325564.035   190892155.825        -641.760          28.000  
> 2021  9 12 13  4 42.9978360  0  6
C06  36183247.759   188415745.638        -704.445          25.000  
C16  36752994.331   191382549.051        -663.873          28.000  
G29  23645021.192   124255420.414       -1477.649          17.000  
G31  21406532.966   112492163.732       -1935.915          32.000  
G32  21004293.330   110378354.7031      -2353.620          18.000  
J01  36325444.118   190891537.568        -641.591          31.000  
> 2021  9 12 13  4 43.9978353  0  5
C06  36183173.110   188415357.211        -704.082          26.000  
C16  36752911.589   191382119.499        -663.332          28.000  
G29  23645096.440   124255797.951       -1483.166          16.000  
G31  21406691.256   112492995.795       -1934.894          30.000  
J01  36325355.979   190891077.069        -641.745          28.000  
> 2021  9 12 13  4 44.9978345  0  4
C06  36183068.783   188414811.551        -701.775          25.000  
C16  36752799.167   191381534.368        -663.901          26.000  
G31  21406821.366   112493669.284       -1931.624          29.000  
J01  36325237.262   190890458.941        -642.762          28.000  
> 2021  9 12 13  4 45.9978335  0  5
C06  36182902.698   188413952.255        -702.893          26.000  
C16  36752626.786   191380637.078        -663.908          28.000  
G29  23645121.623   124255930.1111      -1486.876          15.000  
G31  21406891.517   112494025.115       -1931.843          28.000  
J01  36325058.585   190889526.169        -643.133          29.000  
> 2021  9 12 13  4 46.9978327  0  5
C06  36182797.471   188413407.030        -704.406          23.000  
C16  36752514.364   191380052.390        -664.250          28.000  
G31  21407020.728   112494697.803       -1933.870          28.000  
G32  21005102.170   110382586.1621      -2357.039          18.000  
J01  36324940.767   190888907.731        -641.872          30.000  
> 2021  9 12 13  4 47.9978319  0  4
C06  36182694.042   188412862.603        -704.770          23.000  
C16  36752403.141   191379467.569        -664.184          29.000  
G31  21407149.639   112495371.200       -1934.776          25.000  
J01  36324822.649   190888289.034        -641.631          31.000  
> 2021  9 12 13  4 48.9978312  0  4
C06  36182619.993   188412474.476        -705.257          25.000  
C16  36752319.798   191379038.170        -663.294          28.000  
G31  21407308.828   112496203.822       -1936.061          29.000  
J01  36324733.910   190887828.943        -642.934          31.000  
> 2021  9 12 13  4 49.9978301  0  4
C06  36182424.529   188411461.693        -704.382          23.000  
C16  36752116.839   191377983.625        -661.532          26.000  
G31  21407346.303   112496406.595       -1935.778          31.000  
J01  36324526.154   190886738.976        -643.372          31.000  
> 2021  9 12 13  4 50.9978294  0  6
C06  36182351.080   188411072.374        -702.981          25.000  
C16  36752033.497   191377552.045        -660.551          26.000  
G31  21407505.193   112497238.535       -1932.207          31.000  
G32  21005902.916   110386821.0491      -2358.091          19.000  
J01  36324438.914   190886279.851        -644.323          30.000  
R02  19926721.418   106332962.8791      -3853.279          34.000  
> 2021  9 12 13  4 51.9978286  0  3
G31  21407631.405   112497910.434       -1932.655          29.000  
J01  36324320.196   190885663.699        -643.961          29.000  
R02  19927201.086   106335537.099       -3854.745          33.000  
> 2021  9 12 13  4 52.9978278  0  7
C06  36182143.323   188409979.9691       -703.677          21.000  
C16  36751810.151   191376377.6381       -664.187          23.000  
G29  23645387.839   124257357.5181      -1490.678          16.000  
G31  21407758.817   112498583.500       -1933.998          27.000  
G32  21006320.227   110389017.2831      -2360.384          19.000  
J01  36324202.978   190885047.219        -644.387          26.000  
R02  19927680.754   106338112.701       -3856.677          33.000  
> 2021  9 12 13  4 53.9978271  0  5
C06  36182068.975   188409590.717        -704.772          22.000  
C16  36751728.008   191375948.555        -664.096          23.000  
G31  21407915.908   112499416.722       -1936.586          28.000  
J01  36324116.937   190884589.124        -645.757          28.000  
R02  19928195.797   106340848.882       -3856.687          31.000  
> 2021  9 12 13  4 54.9978260  0  5
C06  36181873.510   188408577.129        -703.464          23.000  
C16  36751525.948   191374896.617        -666.081          23.000  
G31  21407955.181   112499620.280       -1935.985          26.000  
J01  36323909.781   190883501.164        -644.990          30.000  
R02  19928591.523   106342945.611       -3857.334          31.000  
> 2021  9 12 13  4 55.9978253  0  6
C06  36181800.960   188408189.022        -705.966          23.000  
C16  36751443.205   191374469.752        -665.895          28.000  
G31  21408113.172   112500454.272       -1937.581          29.000  
G32  21006915.615   110392163.2741      -2360.104          20.000  
J01  36323823.440   190883042.410        -644.207          27.000  
R02  19929101.170   106345683.961       -3858.093          29.000  
> 2021  9 12 13  4 56.9978245  0  6
C06  36181694.234   188407646.236        -707.159          21.000  
C16  36751329.584   191373887.108        -666.690          26.000  
G29  23645533.238   124258143.6121      -1498.976          18.000  
G31  21408244.181   112501131.711       -1937.812          31.000  
J01  36323707.421   190882425.197        -643.733          27.000  
R02  19929585.035   106348261.316       -3857.585          24.000  
> 2021  9 12 13  4 57.9978237  0  5
C06  36181590.806   188407103.809        -705.862          25.000  
C16  36751217.162   191373304.740        -666.139          24.000  
G31  21408374.591   112501809.352       -1936.870          31.000  
J01  36323592.001   190881810.368        -645.373          26.000  
R02  19930064.703   106350839.879       -3858.421          28.000  
> 2021  9 12 13  4 58.9978227  0  7
C06  36181426.520   188406246.983        -702.225          23.000  
C16  36751045.680   191372410.766        -667.181          23.000  
G29  23645565.316   124258307.5231      -1500.397          19.000  
G31  21408442.644   112502170.232       -1934.695          28.000  
G32  21007471.430   110395146.3721      -2361.002          29.000  
J01  36323416.322   190880880.710        -646.094          27.000  
R02  19930486.511   106353099.804       -3860.586          29.000  
> 2021  9 12 13  4 59.9978220  0  6
C06  36181354.270   188405856.345        -704.090          21.000  
C16  36750963.238   191371983.294        -664.982          24.000  
G31  21408602.433   112503002.370       -1935.801          25.000  
G32  21007707.067   110396405.333       -2363.525          29.000  
J01  36323330.282   190880424.790        -646.082          26.000  
R02  19931003.953   106355839.928       -3859.064          34.000  
> 2021  9 12 13  5  0.9978214  0  5
C06  36181309.001   188405623.063        -703.501          26.000  
C16  36750913.172   191371711.189        -664.305          23.000  
G32  21007973.583   110397823.548       -2364.210          28.000  
J01  36323274.820   190880125.395        -646.431          28.000  
R02  19931545.078   106358740.933       -3861.872          30.000  
> 2021  9 12 13  5  1.9978204  0  6
C06  36181142.916   188404767.149        -706.523          24.000  
C16  36750740.792   191370814.525        -665.663          25.000  
G31  21408865.351   112504358.0291      -1938.065          28.000  
G32  21008120.781   110398612.160       -2364.698          30.000  
J01  36323096.444   190879196.110        -645.892          29.000  
R02  19931968.985   106361002.804       -3861.701          27.000  
> 2021  9 12 13  5  2.9978196  0  7
C06  36181040.387   188404226.013        -709.184          26.000  
C16  36750626.870   191370231.298        -665.930          25.000  
G29  23645770.074   124259415.5731      -1496.604          21.000  
G31  21408996.960   112505037.523       -1940.106          26.000  
G32  21008328.837   110399715.992       -2364.196          33.000  
J01  36322977.726   190878581.361        -645.246          31.000  
R02  19932456.148   106363586.021       -3863.549          28.000  
> 2021  9 12 13  5  3.9978186  0  5
C16  36750454.490   191369336.660        -666.339          24.000  
G31  21409067.111   112505402.017       -1940.190          24.000  
G32  21008476.934   110400504.797       -2364.650          33.000  
J01  36322799.049   190877651.480        -645.442          30.000  
R02  19932884.851   106365851.187       -3865.492          27.000  
> 2021  9 12 13  5  4.9978181  0  5
C16  36750431.106   191369221.312        -665.245          25.000  
G31  21409286.260   112506554.040       -1938.571          26.000  
G32  21008775.527   110402081.076       -2364.211          33.000  
J01  36322771.768   190877509.543        -645.764          28.000  
R02  19933467.947   106368916.726       -3864.861          27.000  
> 2021  9 12 13  5  5.9978171  0  5
C16  36750259.924   191368324.600        -664.469          25.000  
G31  21409355.512   112506917.050       -1938.075          28.000  
G32  21008924.524   110402870.031       -2364.791          34.000  
J01  36322593.991   190876580.352        -647.139          27.000  
R02  19933897.550   106371182.450       -3865.591          26.000  
> 2021  9 12 13  5  6.9978163  0  5
C16  36750146.603   191367739.613        -663.973          27.000  
G31  21409483.223   112507594.042       -1935.613          28.000  
G32  21009134.679   110403975.184       -2365.834          31.000  
J01  36322474.374   190875967.427        -646.821          26.000  
R02  19934381.715   106373768.696       -3865.595          28.000  
> 2021  9 12 13  5  7.9978153  0  6
C16  36749975.721   191366842.243        -663.188          25.000  
G29  23645883.096   124260131.1731      -1500.978          25.000  
G31  21409551.576   112507953.738       -1936.038          26.000  
G32  21009284.575   110404765.203       -2365.607          32.000  
J01  36322295.698   190875038.797        -646.423          28.000  
R02  19934809.519   106376034.793       -3866.005          30.000  
> 2021  9 12 13  5  8.9978145  0  4
C16  36749864.798   191366255.997        -662.787          25.000  
G31  21409678.688   112508630.471       -1937.422          30.000  
G32  21009493.830   110405871.283       -2368.247          31.000  
J01  36322179.678   190874423.239        -644.130          26.000  
> 2021  9 12 13  5  9.9978138  0  5
C16  36749784.154   191365826.374        -663.687          27.000  
G31  21409836.379   112509465.276       -1937.916          29.000  
G32  21009731.865   110407136.505       -2369.924          30.000  
J01  36322093.038   190873964.008        -644.421          24.000  
R02  19935814.423   106381371.2941      -3869.504          25.000  
> 2021  9 12 13  5 10.9978130  0  6
C16  36749672.631   191365240.527        -663.004          25.000  
G29  23646036.889   124261011.6421      -1502.212          25.000  
G31  21409967.688   112510143.811       -1938.902          26.000  
G32  21009941.720   110408246.285       -2370.366          26.000  
J01  36321975.520   190873348.865        -645.441          28.000  
R02  19936298.588   106383959.923       -3867.510          27.000  
> 2021  9 12 13  5 11.9978122  0  4
C16  36749560.509   191364654.792        -663.850          25.000  
G29  23646077.661   124260976.152       -1504.640          25.000  
G31  21410097.498   112510822.739       -1939.093          28.000  
J01  36321858.301   190872734.678        -646.282          31.000  
> 2021  9 12 13  5 12.9978112  0  3
C16  36749386.929   191363758.399        -664.488          29.000  
G31  21410167.649   112511186.587       -1939.289          29.000  
J01  36321684.721   190871806.837        -648.072          29.000  
> 2021  9 12 13  5 13.9978107  0  4
C16  36749366.243   191363642.677        -664.143          25.000  
G29  23646200.876   124261623.2671      -1505.821          24.000  
G31  21410386.498   112512337.294       -1937.606          30.000  
J01  36321656.840   190871667.449        -648.116          27.000  
> 2021  9 12 13  5 14.9978097  0  3
C16  36749193.563   191362745.145        -662.838          29.000  
G31  21410453.052   112512697.763       -1936.588          28.000  
J01  36321479.063   190870740.293        -648.212          26.000  
> 2021  9 12 13  5 15.9978089  0  5
C16  36749080.541   191362159.458        -663.282          25.000  
G29  23646238.949   124261799.7801      -1506.477          24.000  
G31  21410580.164   112513373.596       -1936.575          28.000  
G32  21010984.698   110413634.1861      -2370.831          19.000  
J01  36321363.643   190870128.735        -649.532          27.000  
> 2021  9 12 13  5 16.9978079  0  4
C16  36748907.561   191361261.879        -663.183          26.000  
G29  23646226.958   124261732.574       -1510.065          23.000  
G31  21410650.615   112513735.662       -1938.441          27.000  
J01  36321187.065   190869202.060        -648.850          30.000  
> 2021  9 12 13  5 17.9978074  0  4
C16  36748886.875   191361145.815        -666.377          22.000  
G29  23646363.363   124262454.750       -1510.251          24.000  
G31  21410871.562   112514886.610       -1938.834          28.000  
J01  36321161.583   190869062.660        -647.796          28.000  
> 2021  9 12 13  5 18.9978063  0  4
C16  36748684.815   191360094.464        -665.744          21.000  
G29  23646319.594   124262232.537       -1510.999          26.000  
G32  21011576.488   110416653.6081      -2372.945          20.000  
J01  36320957.724   190867978.639        -648.443          27.000  
> 2021  9 12 13  5 19.9978056  0  4
C16  36748602.972   191359666.766        -664.960          23.000  
G31  21411072.723   112515929.7801      -1940.071          26.000  
G32  21011819.320   110417923.312       -2371.878          22.000  
J01  36320871.384   190867523.306        -646.998          28.000  
> 2021  9 12 13  5 20.9978045  0  5
C16  36748403.010   191358614.323        -665.594          24.000  
G29  23646355.868   124262417.7651      -1509.622          22.000  
G31  21411112.895   112516136.318       -1939.100          26.000  
G32  21011941.036   110418563.055       -2371.262          17.000  
J01  36320662.728   190866438.080        -648.601          26.000  
> 2021  9 12 13  5 21.9978040  0  2
G31  21411330.544   112517286.450       -1938.126          27.000  
J01  36320636.347   190866297.708        -647.202          26.000  
> 2021  9 12 13  5 22.9978033  0  3
G31  21411488.235   112518122.380       -1939.055          31.000  
G32  21012490.855   110421418.0941      -2375.969          20.000  
J01  36320549.707   190865841.864        -647.462          28.000  
> 2021  9 12 13  5 23.9978022  0  4
G29  23646540.840   124263326.9481      -1512.176          23.000  
G31  21411527.508   112518328.840       -1939.553          29.000  
G32  21012614.370   110422060.750       -2373.381          20.000  
J01  36320341.651   190864756.392        -647.907          31.000  
> 2021  9 12 13  5 24.9978015  0  3
G31  21411687.297   112519165.955       -1940.152          30.000  
G32  21012861.099   110423330.795       -2373.623          21.000  
J01  36320253.811   190864301.314        -647.788          26.000  
> 2021  9 12 13  5 25.9978007  0  2
G31  21411818.307   112519846.040       -1940.194          28.000  
J01  36320137.192   190863689.651        -648.925          26.000  
> 2021  9 12 13  5 26.9977999  0  3
G31  21411949.016   112520525.140       -1939.520          28.000  
G32  21013286.205   110425566.8321      -2381.396          21.000  
J01  36320019.674   190863078.529        -649.163          27.000  
> 2021  9 12 13  5 27.9977989  0  2
G31  21412017.669   112520887.284       -1937.398          28.000  
J01  36319846.094   190862152.395        -649.193          27.000  
> 2021  9 12 13  5 28.9977981  0  4
G29  23646776.177   124264428.0941      -1510.515          17.000  
G31  21412146.280   112521564.417       -1936.902          28.000  
G32  21013648.954   110427491.3261      -2380.924          20.000  
J01  36319730.674   190861540.665        -648.774          24.000  
> 2021  9 12 13  5 29.9977974  0  2
G31  21412305.170   112522399.454       -1938.665          28.000  
J01  36319647.032   190861086.616        -649.282          20.000  
> 2021  9 12 13  5 30.9977966  0  1
G31  21412434.680   112523077.892       -1939.233          28.000  
> 2021  9 12 13  5 31.9977956  0  2
G29  23646900.591   124265301.1701      -1515.727          16.000  
G31  21412505.731   112523441.694       -1939.707          29.000  
> 2021  9 12 13  5 32.9977948  0  2
G31  21412634.941   112524119.790       -1938.697          27.000  
J01  36319244.410   190858939.3161       -648.219          18.000  
> 2021  9 12 13  5 33.9977938  0  3
G29  23646940.164   124265492.6691      -1513.650          16.000  
G31  21412704.193   112524483.209       -1939.945          27.000  
J01  36319067.233   190858012.118        -648.327          24.000  
> 2021  9 12 13  5 34.9977933  0  2
G31  21412923.342   112525634.227       -1938.386          29.000  
J01  36319041.151   190857872.660        -647.699          23.000  
> 2021  9 12 13  5 35.9977925  0  3
G31  21413052.852   112526313.122       -1939.003          28.000  
G32  21015131.127   110435314.8201      -2374.516          16.000  
J01  36318922.433   190857259.883        -648.390          29.000  
> 2021  9 12 13  5 36.9977915  0  2
G31  21413121.205   112526676.977       -1939.888          29.000  
J01  36318743.757   190856332.769        -648.833          31.000  
> 2021  9 12 13  5 37.9977907  0  3
G29  23647184.495   124266682.7201      -1517.073          14.000  
G31  21413254.612   112527356.383       -1940.720          25.000  
J01  36318627.138   190855721.913        -649.896          27.000  
> 2021  9 12 13  5 38.9977900  0  3
G29  23647267.837   124267096.522       -1516.819          13.000  
G31  21413415.301   112528194.229       -1941.251          22.000  
J01  36318539.298   190855269.028        -649.610          28.000  
> 2021  9 12 13  5 39.9977892  0  1
J01  36318422.679   190854658.022        -648.367          29.000  
> 2021  9 12 13  5 40.9977882  0  3
G29  23647307.410   124267302.3451      -1517.749          14.000  
G32  21016105.753   110440424.6561      -2382.701          18.000  
J01  36318245.502   190853731.606        -649.978          30.000  
> 2021  9 12 13  5 41.9977874  0  2
G31  21413748.071   112529911.9591      -1936.673          21.000  
J01  36318127.384   190853121.181        -649.992          29.000  
> 2021  9 12 13  5 42.9977866  0  3
G29  23647410.239   124267827.2991      -1526.967          14.000  
G32  21016534.756   110442669.4831      -2383.041          19.000  
J01  36318009.565   190852510.616        -649.576          31.000  
> 2021  9 12 13  5 43.9977859  0  4
G29  23647491.183   124268250.422       -1523.436          15.000  
G31  21414038.869   112531428.7151      -1942.172          20.000  
G32  21016778.487   110443950.439       -2384.201          20.000  
J01  36317922.925   190852058.011        -649.774          31.000  
> 2021  9 12 13  5 44.9977848  0  3
G29  23647450.111   124268039.160       -1520.338          14.000  
G31  21414082.339   112531638.016       -1940.920          22.000  
J01  36317720.265   190850975.930        -650.838          30.000  
> 2021  9 12 13  5 45.9977841  0  6
C16  36745474.038   191343369.6001       -661.968          27.000  
C23  22641900.638   117902317.5921      -1811.930          30.000  
G29  23647532.254   124268459.747       -1521.752          12.000  
G31  21414241.829   112532474.651       -1938.657          24.000  
G32  21017140.037   110445880.8371      -2383.224          26.000  
J01  36317633.026   190850523.192        -649.643          29.000  
> 2021  9 12 13  5 46.9977833  0  5
C16  36745359.817   191342783.039        -663.417          28.000  
C23  22642007.364   117902880.994       -1813.050          31.000  
G31  21414369.540   112533153.279       -1940.392          28.000  
G32  21017350.491   110447003.249       -2382.924          23.000  
J01  36317515.807   190849912.412        -649.229          28.000  
> 2021  9 12 13  5 47.9977825  0  5
C16  36745246.195   191342197.332        -662.793          27.000  
C23  22642113.791   117903444.550       -1812.136          30.000  
G29  23647637.481   124268984.1221      -1524.872          14.000  
G31  21414498.151   112533832.396       -1939.616          25.000  
J01  36317398.588   190849301.729        -650.715          28.000  
> 2021  9 12 13  5 48.9977818  0  6
C16  36745161.654   191341767.673        -663.169          25.000  
C23  22642249.897   117904164.798       -1813.558          28.000  
G29  23647713.029   124269406.262       -1523.337          13.000  
G31  21414655.542   112534668.901       -1938.808          29.000  
G32  21017792.685   110449406.1671      -2384.396          25.000  
J01  36317311.948   190848848.889        -649.025          30.000  
> 2021  9 12 13  5 49.9977807  0  6
C16  36744958.395   191340713.299        -662.658          28.000  
C23  22642269.083   117904260.210       -1810.462          29.000  
G29  23647677.653   124269196.487       -1520.513          13.000  
G31  21414695.115   112534875.768       -1940.328          28.000  
G32  21017913.201   110450057.453       -2384.305          30.000  
J01  36317105.091   190847764.467        -649.112          31.000  
> 2021  9 12 13  5 50.9977800  0  5
C16  36744875.652   191340282.067        -661.704          27.000  
C23  22642407.288   117904977.289       -1809.742          25.000  
G31  21414852.206   112535713.740       -1941.229          27.000  
G32  21018155.734   110451338.935       -2384.594          33.000  
J01  36317019.351   190847311.563        -649.952          29.000  
> 2021  9 12 13  5 51.9977792  0  6
C06  36175564.378   188375684.6611       -704.334          27.000  
C16  36744761.731   191339694.787        -662.569          27.000  
C23  22642517.012   117905537.940       -1808.992          28.000  
G31  21414982.316   112536393.887       -1939.128          28.000  
G32  21018367.687   110452462.792       -2383.775          30.000  
J01  36316906.928   190846699.590        -647.262          24.000  
> 2021  9 12 13  5 52.9977784  0  7
C06  36175458.851   188375139.171        -703.340          23.000  
C16  36744648.709   191339107.939        -662.185          25.000  
C23  22642624.637   117906099.476       -1812.154          27.000  
G29  23647859.627   124270131.1961      -1516.323          11.000  
G31  21415112.726   112537072.461       -1939.881          28.000  
G32  21018583.238   110453587.789       -2385.405          28.000  
J01  36316789.710   190846086.686        -647.918          29.000  
> 2021  9 12 13  5 53.9977774  0  7
C06  36175295.764   188374281.797        -704.052          26.000  
C16  36744477.228   191338209.606        -663.495          27.000  
C23  22642671.405   117906349.915       -1810.488          26.000  
G29  23647854.231   124270070.847       -1511.465          13.000  
G31  21415182.278   112537436.261       -1938.395          25.000  
G32  21018735.832   110454399.238       -2387.616          26.000  
J01  36316613.731   190845160.493        -649.345          29.000  
> 2021  9 12 13  5 54.9977766  0  6
C06  36175191.436   188373737.759        -705.739          25.000  
C16  36744367.204   191337623.755        -663.706          26.000  
C23  22642778.730   117906911.447       -1809.822          25.000  
G31  21415310.289   112538114.473       -1939.414          26.000  
G32  21018947.485   110455527.860       -2389.272          28.000  
J01  36316495.014   190844549.578        -648.729          27.000  
> 2021  9 12 13  5 55.9977759  0  5
C06  36175116.188   188373350.299        -704.269          22.000  
C23  22642920.233   117907629.821       -1812.007          25.000  
G29  23647981.343   124270730.8751      -1509.288          13.000  
G31  21415470.378   112538951.721       -1940.729          27.000  
J01  36316408.673   190844095.231        -648.496          28.000  
> 2021  9 12 13  5 56.9977751  0  7
C06  36175011.561   188372804.842        -702.440          22.000  
C16  36744174.737   191336610.7001       -663.745          22.000  
C23  22643028.158   117908193.101       -1812.630          22.000  
G29  23648029.610   124270979.593       -1510.021          12.000  
G31  21415602.287   112539631.298       -1939.110          26.000  
G32  21019407.067   110457945.4761      -2389.130          21.000  
J01  36316292.354   190843483.612        -648.819          30.000  
> 2021  9 12 13  5 57.9977741  0  6
C06  36174848.773   188371947.544        -704.608          22.000  
C16  36744003.556   191335713.222        -663.034          26.000  
C23  22643076.125   117908444.753       -1814.269          22.000  
G29  23648017.618   124270916.765       -1514.598          12.000  
G31  21415669.441   112539994.708       -1938.399          26.000  
J01  36316115.476   190842557.031        -648.790          30.000  
> 2021  9 12 13  5 58.9977733  0  5
C16  36743890.834   191335125.641        -660.461          24.000  
C23  22643190.346   117909009.858       -1814.581          22.000  
G31  21415798.951   112540672.808       -1938.935          26.000  
G32  21019778.210   110459887.2151      -2388.109          20.000  
J01  36316000.956   190841946.564        -650.802          26.000  
> 2021  9 12 13  5 59.9977725  0  6
C06  36174638.919   188370853.8081       -701.255          21.000  
C16  36743776.613   191334537.578        -661.132          27.000  
G29  23648116.849   124271431.7731      -1522.855          11.000  
G31  21415927.262   112541351.482       -1938.023          27.000  
G32  21019996.459   110461015.779       -2389.460          24.000  
J01  36315885.236   190841337.220        -650.907          25.000  
> 2021  9 12 13  6  0.9977718  0  4
C06  36174564.870   188370462.740        -702.262          22.000  
C16  36743692.671   191334106.818        -663.082          26.000  
G32  21020241.390   110462303.147       -2391.100          24.000  
J01  36315801.294   190840885.262        -651.037          25.000  
> 2021  9 12 13  6  1.9977710  0  7
C06  36174459.942   188369915.558        -700.477          25.000  
C16  36743583.846   191333521.386        -664.104          26.000  
C23  22643555.793   117910861.3191      -1812.929          18.000  
G29  23648248.758   124272385.5281      -1526.118          13.000  
G31  21416211.465   112542865.7361      -1939.829          25.000  
G32  21020453.643   110463434.305       -2392.167          27.000  
J01  36315684.075   190840276.225        -651.861          29.000  
> 2021  9 12 13  6  2.9977700  0  5
C16  36743410.866   191332623.913        -663.228          28.000  
C23  22643603.460   117911112.614       -1811.801          23.000  
G31  21416280.118   112543229.078       -1939.395          28.000  
G32  21020608.935   110464251.169       -2392.957          25.000  
J01  36315507.797   190839352.191        -650.598          30.000  
> 2021  9 12 13  6  3.9977695  0  5
C06  36174276.470   188368978.5481       -703.239          24.000  
C16  36743388.082   191332506.039        -662.784          26.000  
G31  21416498.666   112544381.272       -1939.526          26.000  
G32  21020911.726   110465856.487       -2393.394          27.000  
J01  36315481.116   190839215.336        -651.429          25.000  
> 2021  9 12 13  6  4.9977684  0  5
C06  36174084.003   188367964.469        -703.447          24.000  
C16  36743184.822   191331452.546        -665.093          23.000  
G31  21416540.937   112544587.211       -1938.869          25.000  
G32  21021037.938   110466516.621       -2391.259          26.000  
J01  36315273.659   190838132.983        -650.384          29.000  
> 2021  9 12 13  6  5.9977677  0  6
C06  36174011.753   188367574.629        -701.808          19.000  
C16  36743102.979   191331024.502        -665.066          20.000  
G29  23648415.742   124273299.6051      -1531.620          16.000  
G31  21416699.527   112545423.021       -1938.207          25.000  
G32  21021283.768   110467804.739       -2391.948          22.000  
J01  36315191.216   190837681.548        -651.711          25.000  
> 2021  9 12 13  6  6.9977667  0  5
C06  36173848.066   188366714.887        -701.241          22.000  
C16  36742929.699   191330127.717        -664.066          27.000  
G31  21416769.379   112545785.495       -1937.941          25.000  
G32  21021438.761   110468622.424       -2393.368          22.000  
J01  36315014.339   190836758.009        -651.874          30.000  
> 2021  9 12 13  6  7.9977661  0  4
C06  36173802.797   188366479.299        -701.721          25.000  
C16  36742876.036   191329853.587        -662.112          22.000  
G31  21416957.949   112546778.726       -1939.451          27.000  
J01  36314958.577   190836464.391        -650.787          29.000  
> 2021  9 12 13  6  8.9977651  0  5
C06  36173639.111   188365620.162        -702.665          21.000  
C16  36742702.756   191328954.655        -661.735          24.000  
G29  23648509.877   124273801.2171      -1533.954          18.000  
G31  21417031.697   112547142.628       -1938.669          27.000  
J01  36314782.000   190835540.063        -651.906          29.000  
> 2021  9 12 13  6  9.9977644  0  5
C16  36742619.714   191328524.319        -663.391          25.000  
G29  23648589.922   124274233.170       -1535.294          17.000  
G31  21417189.388   112547978.679       -1939.481          23.000  
G32  21022127.984   110472185.6801      -2397.325          20.000  
J01  36314695.659   190835089.526        -653.902          30.000  
> 2021  9 12 13  6 10.9977633  0  4
C16  36742417.054   191327469.956        -663.327          25.000  
G31  21417228.961   112548186.512       -1941.642          22.000  
G32  21022253.896   110472849.834       -2397.967          20.000  
J01  36314489.402   190834009.788        -653.557          30.000  
> 2021  9 12 13  6 11.9977626  0  5
C16  36742334.911   191327040.447        -663.501          28.000  
G29  23648631.293   124274470.7911      -1537.687          17.000  
G31  21417390.249   112549024.152       -1939.868          25.000  
G32  21022501.525   110474145.857       -2401.285          19.000  
J01  36314402.762   190833560.137        -652.664          30.000  
> 2021  9 12 13  6 12.9977620  0  4
C16  36742282.147   191326767.609        -663.059          26.000  
G29  23648742.216   124275063.934       -1538.677          16.000  
G31  21417579.418   112550019.188       -1939.139          29.000  
J01  36314344.902   190833267.809        -652.526          31.000  
> 2021  9 12 13  6 13.9977610  0  4
C16  36742110.366   191325869.070        -662.690          28.000  
G31  21417648.670   112550383.303       -1939.993          27.000  
G32  21022935.025   110476426.4361      -2401.625          20.000  
J01  36314171.622   190832346.543        -654.746          28.000  
> 2021  9 12 13  6 14.9977603  0  5
C16  36742026.424   191325439.109        -663.076          28.000  
G29  23648816.865   124275462.4501      -1538.850          13.000  
G31  21417807.261   112551221.690       -1941.516          26.000  
G32  21023181.454   110477724.656       -2399.558          20.000  
J01  36314084.383   190831898.030        -654.059          27.000  
> 2021  9 12 13  6 15.9977592  0  6
C06  36172814.382   188361338.3871       -704.061          25.000  
C16  36741825.563   191324384.896        -662.907          27.000  
G29  23648778.791   124275268.169       -1539.884          11.000  
G31  21417846.833   112551429.530       -1941.735          25.000  
G32  21023310.065   110478391.822       -2400.779          20.000  
J01  36313879.324   190830817.687        -651.929          28.000  
> 2021  9 12 13  6 16.9977587  0  4
C06  36172798.193   188361260.697        -704.147          22.000  
C16  36741802.779   191324267.067        -662.453          22.000  
G31  21418066.581   112552583.008       -1941.534          25.000  
J01  36313852.343   190830681.714        -651.977          29.000  
> 2021  9 12 13  6 17.9977577  0  5
C06  36172633.607   188360403.233        -703.342          24.000  
C16  36741629.799   191323368.111        -661.789          25.000  
G31  21418135.234   112552949.112       -1941.229          29.000  
G32  21023780.140   110480825.8471      -2398.299          20.000  
J01  36313678.164   190829757.963        -652.934          28.000  
> 2021  9 12 13  6 18.9977569  0  5
C06  36172527.780   188359857.805        -703.252          26.000  
C16  36741517.377   191322781.128        -662.018          27.000  
G31  21418265.343   112553629.407       -1940.049          28.000  
G32  21023997.190   110481963.565       -2396.963          20.000  
J01  36313565.142   190829149.978        -651.828          30.000  
> 2021  9 12 13  6 19.9977559  0  5
C06  36172363.794   188358999.597        -704.041          24.000  
C16  36741344.996   191321882.510        -663.339          26.000  
G31  21418333.996   112553994.262       -1939.481          27.000  
G32  21024158.778   110482783.612       -2396.380          19.000  
J01  36313388.864   190828226.599        -651.807          30.000  
> 2021  9 12 13  6 20.9977554  0  3
C16  36741322.212   191321765.101        -662.896          22.000  
G31  21418552.245   112555146.267       -1940.605          26.000  
J01  36313363.082   190828092.123        -653.773          27.000  
> 2021  9 12 13  6 21.9977544  0  4
C06  36172183.019   188358064.2761       -703.227          21.000  
C16  36741150.431   191320866.704        -663.488          26.000  
G31  21418620.897   112555511.424       -1940.948          27.000  
J01  36313187.703   190827170.597        -654.919          27.000  
> 2021  9 12 13  6 22.9977536  0  4
C06  36172080.190   188357519.352        -703.875          24.000  
C16  36741038.308   191320280.606        -662.073          27.000  
G31  21418752.506   112556192.352       -1941.262          29.000  
J01  36313071.983   190826564.923        -654.994          29.000  
> 2021  9 12 13  6 23.9977528  0  4
C06  36171976.762   188356974.102        -703.342          23.000  
C16  36740924.088   191319693.667        -662.499          25.000  
G31  21418883.216   112556872.550       -1941.027          27.000  
J01  36312954.765   190825959.160        -654.312          27.000  
> 2021  9 12 13  6 24.9977521  0  4
C06  36171900.314   188356583.973        -702.508          25.000  
C16  36740839.246   191319262.543        -661.652          24.000  
G31  21419043.305   112557709.885       -1939.855          30.000  
J01  36312863.927   190825511.246        -654.736          31.000  
> 2021  9 12 13  6 25.9977513  0  4
C06  36171794.488   188356037.890        -703.117          26.000  
C16  36740725.325   191318675.553        -661.953          26.000  
G31  21419171.316   112558389.581       -1939.828          29.000  
J01  36312748.807   190824905.056        -653.071          28.000  
> 2021  9 12 13  6 26.9977503  0  5
C06  36171629.902   188355179.520        -702.813          27.000  
C16  36740552.944   191317776.181        -661.260          27.000  
G31  21419238.770   112558753.776       -1940.614          26.000  
G32  21025682.623   110490784.6691      -2403.871          20.000  
J01  36312572.829   190823983.412        -654.272          28.000  
> 2021  9 12 13  6 27.9977495  0  5
C06  36171525.274   188354632.807        -702.090          25.000  
C16  36740440.222   191317188.282        -659.581          25.000  
G31  21419367.680   112559434.597       -1941.087          31.000  
G32  21025901.172   110491926.707       -2402.753          20.000  
J01  36312457.709   190823377.564        -655.482          29.000  
> 2021  9 12 13  6 28.9977487  0  4
C06  36171419.747   188354084.871        -700.982          21.000  
C16  36740327.800   191316599.619        -661.372          26.000  
G31  21419497.490   112560116.293       -1942.560          30.000  
J01  36312343.787   190822772.055        -654.265          29.000  
> 2021  9 12 13  6 29.9977480  0  5
C06  36171342.401   188353693.358        -701.220          24.000  
C16  36740245.058   191316167.061        -658.205          25.000  
G31  21419658.779   112560955.897       -1942.473          25.000  
G32  21026359.854   110494369.0831      -2402.230          21.000  
J01  36312258.946   190822324.158        -654.650          28.000  
> 2021  9 12 13  6 30.9977469  0  4
C06  36171147.835   188352677.491        -702.132          25.000  
C16  36740042.398   191315108.631        -659.612          24.000  
G31  21419698.951   112561164.293       -1941.089          27.000  
J01  36312054.188   190821245.898        -653.799          26.000  
> 2021  9 12 13  6 31.9977462  0  4
C06  36171071.988   188352286.355        -702.115          26.000  
C16  36739957.856   191314674.497        -659.390          27.000  
G31  21419859.040   112562001.902       -1940.158          28.000  
J01  36311968.148   190820796.623        -653.949          25.000  
> 2021  9 12 13  6 32.9977452  0  4
C06  36170907.702   188351427.638        -701.678          26.000  
C16  36739784.277   191313773.304        -659.431          22.000  
G31  21419928.292   112562366.859       -1940.750          28.000  
J01  36311793.668   190819875.221        -654.833          29.000  
> 2021  9 12 13  6 33.9977446  0  3
G31  21420116.862   112563362.907       -1940.951          25.000  
G32  21027151.606   110498629.9791      -2404.748          29.000  
J01  36311737.008   190819584.965        -655.208          29.000  
> 2021  9 12 13  6 34.9977439  0  2
G31  21420275.452   112564201.309       -1940.892          27.000  
J01  36311652.466   190819136.866        -653.655          28.000  
> 2021  9 12 13  6 35.9977428  0  3
G31  21420314.425   112564409.166       -1940.161          28.000  
G32  21027517.353   110500605.6281      -2407.016          28.000  
J01  36311449.207   190818057.134        -653.461          28.000  
> 2021  9 12 13  6 36.9977421  0  3
G31  21420474.514   112565246.130       -1939.745          27.000  
G32  21027765.281   110501911.205       -2409.417          28.000  
J01  36311364.066   190817608.844        -654.537          24.000  
> 2021  9 12 13  6 37.9977413  0  3
G31  21420606.723   112565924.353       -1938.879          26.000  
G32  21027982.031   110502790.786       -2407.704          28.000  
J01  36311249.845   190817003.313        -654.219          26.000  
> 2021  9 12 13  6 38.9977405  0  3
G31  21420737.432   112566603.960       -1941.101          26.000  
G32  21028198.781   110503938.415       -2408.269          25.000  
J01  36311133.525   190816397.320        -654.159          30.000  
> 2021  9 12 13  6 39.9977395  0  2
G31  21420806.984   112566969.344       -1942.280          30.000  
J01  36310958.746   190815476.081        -653.664          30.000  
> 2021  9 12 13  6 40.9977388  0  2
G31  21420967.673   112567809.223       -1943.578          27.000  
J01  36310873.305   190815027.181        -654.458          28.000  
> 2021  9 12 13  6 41.9977380  0  3
G31  21421098.382   112568492.170       -1943.403          27.000  
G32  21028824.748   110507224.5181      -2407.608          22.000  
J01  36310757.286   190814421.304        -655.551          26.000  
> 2021  9 12 13  6 42.9977372  0  3
G31  21421226.993   112569174.720       -1941.363          27.000  
G32  21029044.495   110508371.475       -2407.933          22.000  
J01  36310643.365   190813816.486        -655.954          23.000  
> 2021  9 12 13  6 43.9977364  0  3
G31  21421354.405   112569854.839       -1941.161          23.000  
G32  21029262.445   110509518.440       -2409.279          22.000  
J01  36310527.945   190813211.045        -654.092          27.000  
> 2021  9 12 13  6 44.9977354  0  3
G31  21421423.957   112570219.997       -1940.295          28.000  
G32  21029420.435   110510352.651       -2409.125          22.000  
J01  36310353.166   190812289.760        -654.007          30.000  
> 2021  9 12 13  6 45.9977349  0  3
G31  21421643.405   112571372.221       -1940.239          27.000  
G32  21029730.720   110511975.521       -2410.876          24.000  
J01  36310327.084   190812156.364        -653.984          29.000  
> 2021  9 12 13  6 46.9977339  0  3
G31  21421714.755   112571737.319       -1940.596          28.000  
G32  21029888.411   110512812.904       -2413.677          25.000  
J01  36310152.305   190811234.793        -654.831          23.000  
> 2021  9 12 13  6 47.9977331  0  3
G31  21421842.767   112572417.705       -1941.887          27.000  
G32  21030106.960   110513966.222       -2414.452          26.000  
J01  36310041.381   190810630.333        -656.539          24.000  
> 2021  9 12 13  6 48.9977321  0  3
G31  21421912.918   112572783.602       -1941.186          27.000  
G32  21030266.449   110514804.750       -2413.700          29.000  
J01  36309866.602   190809711.412        -656.864          27.000  
> 2021  9 12 13  6 49.9977313  0  4
E01  24025176.017   126253151.4381      -2740.620          31.000  
G31  21422043.628   112573464.752       -1941.384          29.000  
G32  21030487.097   110515957.897       -2413.268          29.000  
J01  36309747.885   190809106.480        -655.619          26.000  
> 2021  9 12 13  6 50.9977306  0  4
E01  24025488.400   126254793.644       -2739.937          32.000  
G31  21422202.818   112574303.670       -1941.955          31.000  
G32  21030736.824   110517269.056       -2414.334          23.000  
J01  36309661.544   190808658.679        -654.732          30.000  
> 2021  9 12 13  6 51.9977298  0  4
C06  36168852.924   188340697.8591       -699.561          31.000  
C16  36737582.001   191302283.2241       -659.149          32.000  
G31  21422333.227   112574985.355       -1942.231          37.000  
J01  36309544.625   190808053.174        -655.258          27.000  
> 2021  9 12 13  6 52.9977290  0  3
C06  36168747.397   188340148.269        -700.191          26.000  
C16  36737468.080   191301692.999        -659.486          26.000  
J01  36309429.505   190807448.690        -656.702          26.000  
> 2021  9 12 13  6 53.9977280  0  4
C06  36168584.010   188339287.819        -701.480          24.000  
C16  36737295.100   191300791.091        -659.645          23.000  
G32  21031346.302   110520415.0841      -2416.562          19.000  
J01  36309253.827   190806529.852        -656.972          25.000  
> 2021  9 12 13  6 54.9977275  0  5
C06  36168567.522   188339208.260        -701.133          26.000  
C16  36737272.316   191300669.859        -659.566          23.000  
G31  21422752.037   112577183.6071      -1938.831          29.000  
G32  21031654.788   110522045.544       -2418.355          21.000  
J01  36309227.445   190806398.316        -654.129          25.000  
> 2021  9 12 13  6 55.9977265  0  5
C06  36168402.036   188338348.537        -700.951          26.000  
C16  36737100.235   191299767.845        -659.398          26.000  
G31  21422820.690   112577547.494       -1939.886          27.000  
G32  21031814.578   110522889.329       -2419.657          20.000  
J01  36309049.368   190805477.458        -655.643          25.000  
> 2021  9 12 13  6 56.9977257  0  4
C06  36168297.109   188337799.887        -699.836          29.000  
C16  36736986.613   191299179.082        -659.933          29.000  
G32  21032036.724   110524047.194       -2416.035          23.000  
J01  36308933.049   190804871.788        -654.950          25.000  
> 2021  9 12 13  6 57.9977247  0  5
C06  36168131.623   188336937.995        -699.197          28.000  
C16  36736812.134   191298276.933        -659.039          29.000  
G31  21423014.356   112578593.8491      -1941.883          28.000  
G32  21032195.614   110524887.318       -2416.073          16.000  
J01  36308756.771   190803950.995        -653.845          25.000  
> 2021  9 12 13  6 58.9977242  0  3
C06  36168114.835   188336856.356        -699.180          29.000  
C16  36736789.050   191298154.851        -657.625          26.000  
J01  36308731.888   190803818.736        -656.118          25.000  
> 2021  9 12 13  6 59.9977231  0  4
C06  36167919.670   188335837.876        -698.224          28.000  
C16  36736586.091   191297095.147        -658.012          30.000  
G31  21423274.276   112579954.6521      -1940.740          29.000  
J01  36308527.130   190802741.173        -654.420          27.000  
> 2021  9 12 13  7  0.9977224  0  4
C06  36167843.223   188335442.748        -698.169          29.000  
C16  36736500.950   191296660.933        -658.760          28.000  
G31  21423433.765   112580793.218       -1941.516          30.000  
J01  36308442.588   190802293.689        -656.117          24.000  
> 2021  9 12 13  7  1.9977216  0  3
C06  36167736.497   188334891.666        -697.782          27.000  
C16  36736389.727   191296070.738        -658.702          28.000  
J01  36308328.367   190801689.136        -655.844          22.000  
> 2021  9 12 13  7  2.9977208  0  5
C06  36167631.570   188334340.995        -698.769          25.000  
C16  36736275.506   191295481.467        -660.511          24.000  
G31  21423696.683   112582157.4411      -1943.283          31.000  
G32  21033327.031   110530829.4221      -2417.557          17.000  
J01  36308213.247   190801084.397        -656.082          27.000  
> 2021  9 12 13  7  3.9977201  0  4
C16  36736192.463   191295049.887        -661.673          24.000  
C33  25875635.670   134741224.7101      -4549.727          30.000  
G31  21423857.072   112582996.301       -1940.849          26.000  
J01  36308129.905   190800637.437        -655.333          31.000  
> 2021  9 12 13  7  4.9977190  0  5
C06  36167365.054   188332930.4501       -698.588          23.000  
C16  36735990.103   191293993.572        -661.082          23.000  
C33  25876179.194   134744057.025       -4549.058          30.000  
G31  21423899.343   112583204.104       -1941.668          26.000  
J01  36307924.247   190799558.805        -653.390          28.000  
> 2021  9 12 13  7  5.9977183  0  5
C06  36167288.907   188332537.471        -700.580          22.000  
C16  36735909.159   191293559.945        -659.123          26.000  
C33  25876843.234   134747513.345       -4548.810          32.000  
G31  21424058.533   112584042.808       -1940.521          29.000  
J01  36307841.504   190799109.554        -652.988          23.000  
> 2021  9 12 13  7  6.9977175  0  6
C06  36167183.680   188331988.739        -700.828          28.000  
C16  36735794.639   191292969.880        -658.798          29.000  
C33  25877476.096   134750813.517       -4548.642          32.000  
G31  21424188.643   112584722.664       -1940.057          29.000  
G32  21034189.234   110535302.3121      -2419.826          17.000  
J01  36307725.185   190798502.945        -654.532          27.000  
> 2021  9 12 13  7  7.9977167  0  4
C06  36167076.954   188331439.778        -699.982          28.000  
C16  36735681.917   191292379.299        -658.195          27.000  
C33  25878111.057   134754113.880       -4548.475          34.000  
J01  36307609.765   190797897.804        -656.768          27.000  
> 2021  9 12 13  7  8.9977160  0  5
C16  36735598.275   191291944.702        -657.920          26.000  
C33  25878777.195                       -4547.308          35.000  
G31  21424478.242   112586239.3941      -1940.232          29.000  
G32  21034656.910   110537779.3881      -2419.245          17.000  
J01  36307523.724   190797451.000        -656.066          30.000  
> 2021  9 12 13  7  9.9977149  0  5
C16  36735395.315   191290885.328        -657.821          27.000  
C33  25879320.719   134760414.6471      -4552.664          34.000  
G31  21424519.314   112586446.829       -1941.829          27.000  
G32  21034788.519   110538464.684       -2418.436          18.000  
J01  36307317.167   190796373.563        -655.695          28.000  
> 2021  9 12 13  7 10.9977142  0  4
C16  36735311.373   191290450.178        -658.058          25.000  
C33  25879984.160                       -4551.938          34.000  
G31  21424680.302   112587285.780       -1941.553          24.000  
J01  36307230.827   190795926.569        -655.814          28.000  
> 2021  9 12 13  7 11.9977134  0  5
C16  36735198.351   191289859.264        -658.519          27.000  
C33  25880619.720   134767168.2871      -4551.676          33.000  
G31  21424810.712   112587966.619       -1940.095          24.000  
G32  21035267.287   110540942.0801      -2421.047          16.000  
J01  36307115.107   190795320.760        -654.086          29.000  
> 2021  9 12 13  7 12.9977126  0  4
C16  36735085.030   191289268.986        -659.141          29.000  
C33  25881251.982   134770467.959       -4549.919          32.000  
G31  21424939.623   112588647.554       -1941.767          28.000  
J01  36306999.387   190794715.059        -654.396          28.000  
> 2021  9 12 13  7 13.9977116  0  5
C16  36734912.050   191288367.936        -660.145          25.000  
C33  25881824.586   134773455.640       -4548.406          32.000  
G31  21425010.374   112589013.655       -1941.680          31.000  
G32  21035648.623   110542953.2531      -2425.558          14.000  
J01  36306825.208   190793795.923        -656.800          28.000  
> 2021  9 12 13  7 14.9977108  0  5
C16  36734799.627   191287779.014        -659.949          25.000  
C33  25882459.846                       -4548.211          32.000  
G31  21425140.484   112589695.063       -1941.748          29.000  
G32  21035866.872   110544116.645       -2423.658          13.000  
J01  36306710.088   190793192.843        -658.381          26.000  
> 2021  9 12 13  7 15.9977101  0  4
C16  36734715.686   191287346.169        -660.313          26.000  
C33  25883126.285                       -4544.973          33.000  
G31  21425301.472   112590534.480       -1942.262          26.000  
J01  36306627.345   190792748.738        -658.436          24.000  
> 2021  9 12 13  7 16.9977093  0  5
C16  36734603.263   191286756.878        -658.812          25.000  
C33  25883757.647   134783513.3781      -4549.718          31.000  
G31  21425431.882   112591216.562       -1942.134          28.000  
G32  21036335.448   110546597.6611      -2422.381          15.000  
J01  36306511.625   190792145.953        -657.593          28.000  
> 2021  9 12 13  7 17.9977085  0  4
C16  36734489.342   191286166.102        -657.960          26.000  
C33  25884389.910   134786813.378       -4549.389          31.000  
G31  21425561.992   112591899.539       -1944.114          31.000  
J01  36306396.505   190791542.469        -656.275          28.000  
> 2021  9 12 13  7 18.9977075  0  5
C16  36734316.062   191285263.146        -657.992          24.000  
C33  25884962.513   134789801.145       -4548.994          30.000  
G31  21425631.244   112592267.883       -1943.826          27.000  
G32  21036711.688   110548610.0481      -2424.898          18.000  
J01  36306222.026   190790623.476        -656.518          28.000  
> 2021  9 12 13  7 19.9977070  0  3
C16  36734291.779   191285140.814        -658.677          25.000  
C33  25885686.212   134793570.265       -4549.576          31.000  
G31  21425851.891   112593423.020       -1943.487          23.000  
> 2021  9 12 13  7 20.9977060  0  5
C16  36734117.600   191284237.806        -658.015          27.000  
C33  25886260.315   134796559.339       -4550.000          30.000  
G31  21425922.642   112593791.189       -1943.331          23.000  
G32  21037172.469   110551097.4611      -2425.551          30.000  
J01  36306019.965   190789571.1031       -654.724          27.000  
> 2021  9 12 13  7 21.9977052  0  4
C16  36734003.978   191283648.045        -659.417          26.000  
C33  25886893.477   134799860.296       -4549.492          30.000  
G31  21426051.553   112594474.034       -1943.486          23.000  
J01  36305905.145   190788965.263        -653.774          24.000  
> 2021  9 12 13  7 22.9977042  0  5
C16  36733828.600   191282746.874        -660.323          24.000  
C33  25887466.980   134802848.654       -4550.517          24.000  
G31  21426122.904   112594841.671       -1942.844          24.000  
G32  21037547.209   110553113.0331      -2424.401          31.000  
J01  36305732.764   190788044.782        -656.660          24.000  
> 2021  9 12 13  7 23.9977037  0  4
C16  36733805.216   191282627.095        -662.130          24.000  
G31  21426344.151   112595995.905       -1941.751          24.000  
G32  21037862.291   110554751.718       -2428.060          31.000  
J01  36305707.282   190787914.047        -657.311          27.000  
> 2021  9 12 13  7 24.9977029  0  5
C16  36733693.093   191282039.137        -659.590          25.000  
C33  25888825.039   134809919.2931      -4551.322          24.000  
G31  21426472.762   112596677.234       -1941.700          25.000  
G32  21038081.739   110555918.586       -2426.905          32.000  
J01  36305590.363   190787311.294        -658.106          29.000  
> 2021  9 12 13  7 25.9977019  0  5
C16  36733520.413   191281137.210        -659.211          25.000  
C33  25889398.243   134812909.023       -4551.327          27.000  
G31  21426540.814   112597043.304       -1941.516          27.000  
G32  21038241.828   110556770.395       -2427.987          28.000  
J01  36305415.884   190786393.473        -657.347          27.000  
> 2021  9 12 13  7 26.9977011  0  5
C16  36733406.792   191280547.507        -658.705          26.000  
C33  25890031.704   134816211.039       -4549.850          29.000  
G31  21426670.625   112597725.033       -1942.913          27.000  
G32  21038462.775   110557938.002       -2427.857          29.000  
J01  36305302.562   190785790.722        -657.664          22.000  
> 2021  9 12 13  7 27.9977001  0  5
C16  36733232.912   191279645.063        -659.146          28.000  
C33  25890605.507   134819199.624       -4549.051          29.000  
G31  21426739.877   112598092.637       -1943.702          24.000  
G32  21038622.265   110558791.074       -2428.747          31.000  
J01  36305130.481   190784872.831        -657.661          25.000  
> 2021  9 12 13  7 28.9976996  0  5
C16  36733208.629   191279523.266        -659.429          26.000  
C33  25891329.206   134822968.949       -4550.252          31.000  
G31  21426959.025   112599249.035       -1943.262          27.000  
G32  21038933.749   110560433.011       -2430.789          30.000  
J01  36305105.299   190784742.936        -657.416          30.000  
> 2021  9 12 13  7 29.9976986  0  5
C16  36733035.649   191278621.372        -658.609          29.000  
C33  25891903.308   134825957.782       -4549.950          27.000  
G31  21427030.076   112599616.081       -1942.369          25.000  
G32  21039098.036   110561289.044       -2432.146          26.000  
J01  36304931.119   190783824.951        -657.395          23.000  
> 2021  9 12 13  7 30.9976978  0  5
C16  36732921.428   191278030.660        -657.583          27.000  
C33  25892537.669   134829258.896       -4551.810          30.000  
G31  21427160.186   112600298.414       -1943.376          29.000  
G32  21039321.980   110562460.693       -2432.698          30.000  
J01  36304815.699   190783222.506        -660.672          21.000  
> 2021  9 12 13  7 31.9976968  0  5
C16  36732748.747   191277126.631        -656.692          23.000  
C33  25893112.971   134832249.497       -4552.998          28.000  
G31  21427230.337   112600666.439       -1943.262          31.000  
G32  21039486.567   110563317.531       -2430.719          27.000  
J01  36304641.220   190782307.445        -660.458          27.000  
> 2021  9 12 13  7 32.9976963  0  5
C16  36732725.963   191277002.002        -656.047          24.000  
C33  25893839.368   134836020.835       -4551.961          28.000  
G31  21427450.385   112601822.116       -1942.244          30.000  
G32  21039799.850   110564960.718       -2432.093          26.000  
J01  36304616.037   190782178.721        -658.742          29.000  
> 2021  9 12 13  7 33.9976955  0  5
C16  36732613.241   191276409.773        -658.429          28.000  
C33  25894475.827   134839323.558       -4551.376          29.000  
C37  24560124.180   127891011.4081        -36.368          29.000  
G32  21040024.694   110566131.221       -2430.831          26.000  
J01  36304501.217   190781576.940        -658.235          29.000  
> 2021  9 12 13  7 34.9976945  0  6
C16  36732440.860   191275508.238        -660.325          27.000  
C33  25895049.930   134842314.004       -4551.755          28.000  
C37  24559832.782   127889487.764         -38.083          26.000  
G31  21427653.644   112602870.1631      -1941.488          26.000  
G32  21040190.479   110566987.439       -2432.715          24.000  
J01  36304324.939   190780659.236        -657.506          28.000  
> 2021  9 12 13  7 35.9976937  0  4
C16  36732329.038   191274919.337        -660.137          25.000  
C33  25895683.092   134845617.011       -4550.915          26.000  
C37  24559597.744   127888277.169         -38.131          27.000  
J01  36304209.819   190780057.119        -658.153          28.000  
> 2021  9 12 13  7 36.9976929  0  2
C16  36732216.316   191274330.300        -659.567          28.000  
C33  25896317.452   134848919.889       -4552.333          25.000  
> 2021  9 12 13  7 37.9976922  0  5
C16  36732130.275   191273897.827        -660.475          25.000  
C33  25896983.292   134852378.579       -4552.114          25.000  
C37  24559161.246   127886007.0881        -34.393          18.000  
G32  21040897.989   110570670.5711      -2434.804          22.000  
J01  36304007.758   190779012.3261       -660.457          26.000  
> 2021  9 12 13  7 38.9976911  0  5
C16  36731927.915   191272840.318        -659.021          27.000  
C33  25897527.415   134855212.992       -4551.920          26.000  
G31  21428122.519   112605543.2921      -1942.474          27.000  
G32  21041030.498   110571370.813       -2432.072          22.000  
J01  36303803.600   190777939.471        -660.721          26.000  
> 2021  9 12 13  7 39.9976904  0  5
C16  36731844.573   191272406.816        -659.639          29.000  
C37  24558637.809   127883268.3001        -35.855          20.000  
G31  21428284.108   112606383.546       -1943.682          26.000  
G32  21041285.921   110572700.060       -2433.087          22.000  
J01  36303720.257   190777496.768        -660.528          28.000  
> 2021  9 12 13  7 40.9976896  0  4
C16  36731731.551   191271817.607        -660.384          29.000  
C37  24558405.470   127882056.033         -37.656          21.000  
G32  21041510.465   110573874.855       -2436.597          23.000  
J01  36303607.835   190776896.147        -659.727          26.000  
> 2021  9 12 13  7 41.9976888  0  4
C16  36731616.431   191271229.311        -660.193          26.000  
C37  24558173.730   127880846.434         -40.155          20.000  
G32  21041733.511   110575052.618       -2439.438          25.000  
J01  36303492.415   190776295.899        -660.526          25.000  
> 2021  9 12 13  7 42.9976878  0  4
C16  36731443.751   191270326.290        -656.988          25.000  
C37  24557879.634   127879325.494         -39.875          25.000  
G32  21041897.497   110575916.477       -2439.745          26.000  
J01  36303319.735   190775381.322        -660.436          30.000  
> 2021  9 12 13  7 43.9976870  0  4
C16  36731330.729   191269734.420        -657.472          28.000  
C37  24557646.995   127878115.906         -39.466          24.000  
G32  21042120.243   110577097.036       -2441.253          29.000  
J01  36303204.015   190774781.532        -660.266          27.000  
> 2021  9 12 13  7 44.9976863  0  5
C16  36731248.286   191269299.065        -658.094          31.000  
C37  24557446.434   127877062.653         -38.818          28.000  
G31  21428908.575   112609639.7471      -1945.062          26.000  
G32  21042374.467   110578435.242       -2441.391          27.000  
J01  36303122.771   190774341.148        -663.295          24.000  
> 2021  9 12 13  7 45.9976855  0  5
C16  36731137.363   191268708.610        -659.281          29.000  
C37  24557214.394   127875852.607         -41.519          23.000  
G31  21429038.685   112610324.361       -1945.709          31.000  
G32  21042599.012   110579616.214       -2441.608          25.000  
J01  36303010.049   190773743.722        -662.554          27.000  
> 2021  9 12 13  7 46.9976847  0  5
C16  36731027.039   191268118.869        -659.201          30.000  
C37  24556982.355   127874645.846         -41.777          19.000  
G31  21429167.896   112611009.350       -1944.985          28.000  
G32  21042819.959   110580798.232       -2442.398          25.000  
J01  36302896.428   190773145.360        -662.568          28.000  
> 2021  9 12 13  7 47.9976837  0  4
C16  36730853.759   191267216.995        -659.725          33.000  
G31  21429237.747   112611378.776       -1944.104          27.000  
G32  21042985.744   110581665.396       -2443.075          26.000  
J01  36302722.248   190772231.642        -661.427          30.000  
> 2021  9 12 13  7 48.9976829  0  4
C16  36730739.838   191266628.088        -660.687          31.000  
G31  21429366.958   112612062.493       -1944.472          30.000  
G32  21043210.588   110582847.316       -2441.805          25.000  
J01  36302607.428   190771632.779        -661.537          29.000  
> 2021  9 12 13  7 49.9976822  0  4
C16  36730655.596   191266196.850        -661.878          28.000  
G31  21429526.148   112612905.222       -1947.185          31.000  
G32  21043462.414   110584186.004       -2441.667          28.000  
J01  36302522.886   190771192.397        -662.557          30.000  
> 2021  9 12 13  7 50.9976814  0  5
C16  36730541.975   191265608.721        -660.361          29.000  
C37  24556034.711   127869677.0201        -48.165          17.000  
G31  21429653.560   112613591.414       -1946.844          28.000  
G32  21043684.261   110585367.191       -2441.492          27.000  
J01  36302411.364   190770595.345        -664.089          27.000  
> 2021  9 12 13  7 51.9976804  0  4
C16  36730369.894   191264707.104        -659.130          25.000  
G31  21429722.212   112613962.679       -1947.149          28.000  
G32  21043848.847   110586233.886       -2442.152          30.000  
J01  36302237.484   190769683.846        -665.211          26.000  
> 2021  9 12 13  7 52.9976796  0  4
C16  36730258.371   191264117.201        -659.466          26.000  
G31  21429852.022   112614649.072       -1946.754          31.000  
G32  21044078.488   110587417.053       -2444.533          25.000  
J01  36302124.162   190769087.021        -663.992          27.000  
> 2021  9 12 13  7 53.9976788  0  4
C16  36730142.651   191263527.846        -660.561          26.000  
G31  21429981.532   112615335.533       -1946.846          32.000  
G32  21044303.932   110588601.718       -2445.081          25.000  
J01  36302012.040   190768490.537        -662.366          27.000  
> 2021  9 12 13  7 54.9976781  0  3
C16  36730057.810   191263095.735        -661.383          27.000  
G32  21044562.053   110589943.632       -2446.353          26.000  
J01  36301926.000   190768049.797        -662.772          31.000  
> 2021  9 12 13  7 55.9976773  0  3
C16  36729942.690   191262507.704        -660.546          25.000  
G31  21430272.031   112616865.5551      -1945.538          27.000  
J01  36301811.779   190767452.199        -663.118          31.000  
> 2021  9 12 13  7 56.9976763  0  3
C16  36729769.710   191261606.678        -660.178          27.000  
G31  21430342.183   112617236.311       -1947.333          28.000  
J01  36301638.499   190766539.905        -662.610          31.000  
> 2021  9 12 13  7 57.9976758  0  2
G32  21045273.460   110593661.6791      -2446.759          22.000  
J01  36301614.515   190766415.364        -662.817          29.000  
> 2021  9 12 13  7 58.9976748  0  2
G31  21430637.778   112618763.7131      -1943.435          25.000  
J01  36301438.237   190765502.258        -661.967          29.000  
> 2021  9 12 13  7 59.9976740  0  3
E04  23794227.599   125039509.5751       -243.944          26.000  
G31  21430767.888   112619447.174       -1943.379          26.000  
J01  36301323.717   190764904.070        -662.573          28.000  
> 2021  9 12 13  8  0.9976730  0  2
G31  21430838.040   112619816.474       -1946.050          27.000  
J01  36301148.338   190763991.036        -663.157          30.000  
> 2021  9 12 13  8  1.9976722  0  2
G31  21430968.149   112620502.604       -1947.232          30.000  
J01  36301035.616   190763393.971        -663.739          27.000  
> 2021  9 12 13  8  2.9976714  0  3
G31  21431099.758   112621189.976       -1948.006          29.000  
G32  21046271.469   110598961.9051      -2448.713          17.000  
J01  36300920.795   190762797.538        -664.805          27.000  
> 2021  9 12 13  8  3.9976707  0  3
C33  25913267.418   134937215.7531      -4554.412          29.000  
G31  21431259.848   112622033.981       -1945.305          28.000  
J01  36300838.053   190762359.403        -664.406          29.000  
> 2021  9 12 13  8  4.9976696  0  2
C33  25913812.441   134940052.903       -4554.440          27.000  
G31  21431302.418   112622246.799       -1946.748          28.000  
> 2021  9 12 13  8  5.9976689  0  3
C33  25914477.081   134943514.854       -4553.979          28.000  
G31  21431461.908   112623090.498       -1946.510          28.000  
J01  36300551.151   190760851.4411       -662.819          29.000  
> 2021  9 12 13  8  6.9976684  0  3
C33  25915200.780   134947289.719       -4557.446          23.000  
G31  21431681.955   112624249.310       -1946.879          27.000  
J01  36300528.667   190760726.722        -663.438          29.000  
> 2021  9 12 13  8  7.9976673  0  4
C33  25915745.503   134950129.414       -4556.236          24.000  
G16  21985110.525   115532535.1571       1597.269          30.000  
G31  21431723.327   112624462.174       -1945.587          27.000  
J01  36300327.506   190759657.258        -664.153          31.000  
> 2021  9 12 13  8  8.9976666  0  5
C33  25916411.941   134953593.067       -4555.981          26.000  
G16  21984596.081   115529835.308        1596.347          31.000  
G31  21431884.915   112625304.715       -1944.155          27.000  
G32  21047637.923   110606099.5291      -2453.904          20.000  
J01  36300244.763   190759218.269        -663.994          32.000  
> 2021  9 12 13  8  9.9976655  0  5
C33  25916957.863   134956432.168       -4556.223          24.000  
G16  21983961.420   115526505.963        1596.084          32.000  
G31  21431927.785   112625516.866       -1945.517          27.000  
G32  21047773.430   110606821.025       -2454.973          21.000  
J01  36300041.504   190758149.376        -663.727          32.000  
> 2021  9 12 13  8 10.9976650  0  5
C33  25917683.661   134960207.160       -4555.086          24.000  
G16  21983507.534   115524122.348        1595.955          29.000  
G31  21432149.032   112626674.838       -1946.817          27.000  
G32  21048090.310   110608489.483       -2456.309          26.000  
J01  36300014.223   190758024.708        -661.428          31.000  
> 2021  9 12 13  8 11.9976640  0  5
C33  25918258.963   134963201.640       -4554.636          26.000  
G16  21982903.453   115520951.487        1595.311          29.000  
G31  21432222.181   112627045.667       -1945.593          28.000  
G32  21048257.894   110609370.191       -2456.215          30.000  
J01  36299840.943   190757112.188        -663.167          31.000  
> 2021  9 12 13  8 12.9976632  0  4
C33  25918892.124   134966507.665       -4554.547          29.000  
G16  21982359.629   115518096.307        1593.238          27.000  
G31  21432351.991   112627731.928       -1946.946          27.000  
J01  36299726.123   190756515.932        -664.649          31.000  
> 2021  9 12 13  8 13.9976622  0  3
C33  25919466.527   134969501.752       -4555.801          29.000  
G31  21432425.441   112628102.888       -1946.518          26.000  
J01  36299553.442   190755605.350        -664.283          30.000  
> 2021  9 12 13  8 14.9976617  0  5
C33  25920191.125   134973276.864       -4555.930          31.000  
G16  21981309.756   115512548.6511       1591.672          23.000  
G31  21432644.289   112629262.489       -1947.169          29.000  
G32  21048972.599   110613115.6761      -2455.887          17.000  
J01  36299530.358   190755481.342        -663.565          27.000  
> 2021  9 12 13  8 15.9976607  0  4
C33  25920766.427   134976270.936       -4555.045          30.000  
G16  21980708.672   115509381.090        1591.598          19.000  
G31  21432714.740   112629633.375       -1946.197          27.000  
J01  36299356.478   190754568.847        -663.469          28.000  
> 2021  9 12 13  8 16.9976599  0  3
C33  25921399.888   134979575.991       -4553.807          30.000  
G31  21432845.450   112630318.588       -1944.374          31.000  
J01  36299241.658   190753970.983        -662.505          25.000  
> 2021  9 12 13  8 17.9976589  0  6
C33  25921973.391   134982569.192       -4554.132          30.000  
E01  24049544.946   126381211.0301      -2758.313          31.000  
G16  21979564.664   115503360.6921       1592.813          22.000  
G31  21432914.702   112630687.597       -1945.148          30.000  
G32  21049541.006   110616070.3511      -2454.589          22.000  
J01  36299068.977   190753058.905        -663.382          29.000  
> 2021  9 12 13  8 18.9976584  0  5
C33  25922697.090   134986343.038       -4554.768          30.000  
E01  24049919.087   126383177.320       -2758.855          29.000  
G16  21979113.776   115500980.070        1593.051          23.000  
G31  21433131.152   112631843.724       -1944.378          28.000  
J01  36299047.093   190752935.386        -664.185          29.000    36299048.292   142445324.1351       -496.855          30.000  
> 2021  9 12 13  8 19.9976576  0  4
C33  25923332.350   134989649.360       -4555.602          31.000  
G16  21978572.651   115498128.025        1591.399          24.000  
G31  21433260.662   112632527.621       -1944.765          30.000  
J01  36298934.371   190752339.021        -663.643          30.000    36298934.670   142444879.493        -496.106          29.000  
> 2021  9 12 13  8 20.9976566  0  5
C33  25923907.652   134992644.029       -4555.739          30.000  
G16  21977970.668   115494960.722        1590.482          21.000  
G31  21433330.214   112632897.838       -1946.500          26.000  
G32  21050253.013   110619810.3811      -2454.478          19.000  
J01  36298758.093   190751427.305        -665.200          27.000    36298760.491   142444198.614        -496.239          30.000  
> 2021  9 12 13  8 21.9976558  0  5
C16  36726788.873   191246069.0731       -656.756          30.000  
C33  25924541.713   134995949.587       -4553.660          29.000  
G16  21977430.142   115492111.040        1588.052          21.000  
G31  21433459.725   112633583.503       -1945.460          27.000  
J01  36298645.371   190750831.795        -665.086          25.000    36298647.169   142443754.137        -497.570          26.000  
> 2021  9 12 13  8 22.9976550  0  5
C16  36726674.652   191245476.516        -656.026          24.000  
C33  25925176.374   134999254.442       -4554.020          29.000  
G16  21976891.415   115489263.114        1586.379          22.000  
G31  21433591.333   112634268.865       -1945.372          30.000  
J01  36298532.349   190750236.348        -664.719          28.000    36298533.848   142443310.756        -496.815          25.000  
> 2021  9 12 13  8 23.9976543  0  4
C16  36726592.809   191245037.717        -653.585          24.000  
C33  25925842.513   135002716.441       -4555.350          27.000  
G31  21433753.221   112635109.847       -1943.189          26.000  
J01  36298450.506   190749799.580        -666.911          25.000    36298450.206   142442982.960        -497.185          20.000  
> 2021  9 12 13  8 24.9976532  0  4
C16  36726388.350   191243973.733        -653.008          33.000  
C33  25926387.535   135005555.842       -4558.869          30.000  
G31  21433793.394   112635318.608       -1941.373          34.000  
J01  36298246.047   190748734.863        -668.779          25.000  
> 2021  9 12 13  8 25.9976525  0  4
C16  36726302.910   191243533.908        -652.457          22.000  
C33  25927051.576   135009022.144       -4559.846          25.000  
J01  36298161.805   190748300.088        -668.134          33.000  
J02  39304860.411   206548434.7951      -2027.537          31.000  
> 2021  9 12 13  8 26.9976515  0  5
C33  25927625.378   135012020.132       -4558.964          26.000  
G16  21974649.567   115477392.2051       1589.577          20.000  
G31  21434016.739                       -1943.740          35.000  
J01  36297988.525   190747392.138        -666.596          31.000  
J02  39304944.953   206548886.971       -2027.761          36.000  
> 2021  9 12 13  8 27.9976509  0  9
C33  25928319.698   135015642.569       -4560.152          26.000  
C37  24547283.469   127824146.0631        -47.269          27.000  
E01  24052398.371   126396205.6701      -2756.259          31.000  
E04  23788613.386   125010006.0441       -249.703          31.000  
G16  21974168.100   115474855.854        1590.197          20.000  
G31  21434208.906   112637515.0771      -1942.624          34.000  
G32  21051847.909   110628025.3301      -2458.315          20.000  
J01  36297933.364   190747112.998        -665.803          31.000  
J02  39305153.608   206549968.946       -2026.975          35.000  
> 2021  9 12 13  8 28.9976502  0  9
C33  25928984.937   135019109.392       -4559.664          26.000  
C37  24547081.409   127823099.978         -45.862          26.000  
E01  24052709.855   126397842.876       -2757.254          32.000  
E04  23788450.598   125009151.801        -248.215          31.000  
G16  21973655.755   115472163.380        1589.801          21.000  
G31  21434369.295   112638354.939       -1942.568          33.000  
G32  21052113.825   110629380.624       -2458.112          20.000  
J01  36297849.122   190746676.253        -666.643          30.000  
J02  39305327.188                       -2026.230          36.000  
> 2021  9 12 13  8 29.9976492  0  8
C33  25929559.040   135022106.609       -4557.373          26.000  
C37  24546791.510   127821583.927         -44.107          26.000  
E01  24052937.398   126399038.456       -2758.577          32.000  
E04  23788196.974   125007824.324        -248.586          31.000  
G31  21434437.947   112638721.850       -1943.865          34.000  
G32  21052288.604   110630263.618       -2459.158          21.000  
J01  36297676.441   190745767.233        -666.828          31.000  
J02  39305415.627   206551338.8471      -2026.361          36.000  
> 2021  9 12 13  8 30.9976484  0  7
C33  25930194.000   135025415.207       -4558.424          27.000  
C37  24546560.969   127820379.028         -44.351          26.000  
E01  24053224.899   126400549.120       -2758.024          33.000  
E04  23788003.908   125006812.864        -249.312          31.000  
G31  21434565.959   112639403.639       -1941.307          33.000  
J01  36297563.720   190745172.944        -665.774          31.000  
J02  39305561.026   206552104.950       -2025.329          36.000  
> 2021  9 12 13  8 31.9976476  0  7
C33  25930828.061   135028724.852       -4559.075          27.000  
C37  24546328.930   127819174.875         -45.039          26.000  
E01  24053508.802   126402041.784       -2757.628          33.000  
E04  23787810.541   125005800.777        -247.996          30.000  
G31  21434698.167   112640085.262       -1942.398          36.000  
J01  36297449.798   190744578.170        -665.868          30.000  
J02  39305705.226   206552870.758       -2026.978          35.000  
> 2021  9 12 13  8 32.9976468  0  8
C33  25931462.722   135032034.724       -4558.477          28.000  
C37  24546096.591   127817970.574         -44.561          26.000  
E01  24053792.406   126403531.448       -2758.481          33.000  
E04  23787617.475   125004788.129        -248.277          30.000  
G16  21971421.102   115460455.5291       1586.376          24.000  
G31  21434828.877   112640766.574       -1941.931          35.000  
J01  36297337.676   190743982.990        -664.733          31.000  
J02  39305852.125   206553636.194       -2026.862          36.000  
> 2021  9 12 13  8 33.9976458  0  8
C06  36157358.282   188280799.9571       -691.317          23.000  
C33  25932039.822   135035031.508       -4557.991          27.000  
C37  24545804.593   127816453.459         -44.289          25.000  
E01  24054018.450   126404720.028       -2756.272          33.000  
E04  23787365.350   125003461.393        -248.467          30.000  
G31  21434897.529   112641132.722       -1942.661          35.000  
J01  36297164.396   190743072.489        -664.735          30.000  
J02  39305936.966   206554086.301       -2026.596          35.000  
> 2021  9 12 13  8 34.9976451  0  9
C06  36157281.535   188280399.125        -693.332          24.000  
C33  25932705.362   135038496.060       -4556.530          26.000  
C37  24545601.933   127815405.596         -45.390          25.000  
E01  24054333.531   126406375.234       -2758.444          33.000  
E04  23787202.562   125002607.591        -248.453          30.000  
G16  21970296.580   115454605.0981       1585.997          25.000  
G31  21435057.918   112641971.362       -1941.313          35.000  
J01  36297080.154   190742634.281        -664.783          32.000  
J02  39306109.946   206555008.826       -2025.356          35.000  
> 2021  9 12 13  8 35.9976445  0 10
C06  36157238.665   188280153.998        -691.201          23.000  
C33  25933400.580   135042116.416       -4558.098          24.000  
C37  24545428.953   127814515.937         -47.276          24.000  
E01  24054676.194   126408175.982       -2760.041          30.000  
E04  23787068.855   125001910.690        -248.631          30.000  
G16  21969812.415   115452073.762        1586.126          25.000  
G31  21435249.186   112642966.811       -1942.111          37.000  
G32  21053691.633   110637895.6381      -2459.561          19.000  
J01  36297026.192   190742353.903        -665.319          34.000  
J02  39306315.004   206556088.670       -2027.741          34.000  
> 2021  9 12 13  8 36.9976435  0  7
C33  25933975.582   135045112.648       -4557.523          26.000  
C37  24545138.454   127813001.627         -46.591          19.000  
E01  24054899.839   126409351.562       -2758.944          24.000  
E04  23786816.729   125000584.142        -249.439          25.000  
G16  21969207.434   115448912.470        1585.292          23.000  
J01  36296855.310   190741444.125        -666.624          28.000    36296857.708   142436736.7431       -496.337          30.000  
J02  39306407.041   206556538.562       -2023.550          32.000  
> 2021  9 12 13  8 37.9976428  0  9
C33  25934642.321   135048576.900       -4555.917          24.000  
E01  24055212.523   126410994.768       -2758.668          25.000  
E31  24356412.207   127993605.5701       -349.163          28.000  
G16  21968697.487   115446223.950        1585.843          26.000  
G31  21435476.129   112644168.9551      -1939.027          19.000  
G32  21054114.640   110640136.8011      -2458.415          20.000  
J01  36296771.368   190741007.288        -664.600          28.000    36296774.666   142436409.575        -496.229          31.000  
J02  39306581.520   206557459.851       -2024.136          36.000  
J03  37264011.262   195823699.8911      -1188.309          26.000  
> 2021  9 12 13  8 38.9976417  0  6
C33  25935188.543   135051416.703       -4558.658          24.000  
E31  24356145.092   127992221.844        -348.964          28.000  
G16  21968068.223   115442905.472        1585.317          26.000  
G31  21435527.093   112644374.086       -1938.037          20.000  
J01  36296568.409   190739938.157        -663.299          31.000    36296571.406   142435611.389        -497.151          30.000  
J02  39306635.482   206557751.102       -2024.239          37.000  
> 2021  9 12 13  8 39.9976410  0  6
C06  36156717.026   188277450.3211       -689.358          24.000  
C16  36724615.378   191234711.9041       -650.849          30.000  
C37  24544411.757   127809238.8451        -46.236          20.000  
E31  24356001.191   127991467.316        -347.930          28.000  
J01  36296483.567   190739497.990        -662.866          28.000    36296488.364   142435284.607        -496.131          31.000  
J02  39306811.760   206558671.496       -2024.422          37.000  
> 2021  9 12 13  8 40.9976402  0  8
C01  37325101.170   194361595.7211      -1283.525          31.000  
C16  36724500.557   191234113.941        -651.061          32.000  
C33  25936489.642   135058191.4541      -4557.244          26.000  
E31  24355826.112   127990555.342        -347.374          26.000  
G16  21967020.448   115437371.4451       1585.186          27.000  
G31  21435818.192   112645889.6441      -1939.718          24.000  
J01  36296368.147   190738900.264        -662.984          26.000    36296374.443   142434839.237        -496.339          32.000  
J02  39306956.560   206559434.801       -2023.298          38.000  
> 2021  9 12 13  8 41.9976394  0 10
C01  37325108.365   194361630.119       -1282.793          30.000  
C16  36724385.437   191233515.847        -650.580          30.000  
C33  25937126.701   135061499.877       -4557.770          25.000  
C37  24543952.775   127806829.1341        -44.694          19.000  
E31  24355652.832   127989643.025        -348.537          28.000  
G16  21966481.122   115434525.977        1585.238          28.000  
G31  21435948.002   112646569.395       -1941.565          30.000  
G32  21054975.644   110644625.8781      -2465.288          20.000  
J01  36296255.125   190738302.848        -663.003          27.000    36296260.522   142434394.076        -496.406          32.000  
J02  39307099.861   206560197.371       -2022.740          36.000  
> 2021  9 12 13  8 42.9976384  0  7
C16  36724210.658   191232604.943        -650.637          27.000  
C33  25937702.602   135064495.818       -4556.747          21.000  
C37  24543662.876   127805313.130         -46.811          18.000  
G16  21965881.836   115431365.188        1585.355          29.000  
J01  36296081.246   190737391.235        -664.002          27.000    36296087.242                        -500.185          32.000  
J02  39307186.201   206560644.495       -2023.012          37.000  
J03  37263793.912   195822703.3641      -1184.554          23.000  
> 2021  9 12 13  8 43.9976376  0  7
C16  36724094.938   191232007.271        -651.918          24.000  
E31  24355248.712   127987503.6171       -349.711          28.000  
G16  21965344.309   115428520.013        1584.676          27.000  
G31  21436146.764   112647615.1371      -1939.824          22.000  
J01  36295968.524   190736795.103        -664.360          29.000    36295973.620   142433195.8761       -494.551          30.000  
J02  39307333.699   206561406.731       -2023.236          37.000  
J03  37263778.623   195822627.036       -1183.816          25.000  
> 2021  9 12 13  8 44.9976369  0  6
E31  24355106.910   127986750.350        -349.184          29.000  
G16  21964834.362   115425832.469        1584.960          28.000  
G31  21436304.455   112648452.773       -1940.657          23.000  
J01  36295883.683   190736357.202        -664.998          30.000    36295889.978   142432867.905        -497.167          31.000  
J02  39307508.478   206562326.257       -2022.545          37.000  
J03  37263794.512   195822708.470       -1185.026          24.000  
> 2021  9 12 13  8 45.9976361  0 11
C06  36156039.195   188273936.4551       -683.771          18.000  
C16  36723892.878   191230969.7961       -650.912          20.000  
C23  22660548.029   117999419.6951      -1824.939          24.000  
C32  22994153.479   119736590.8411         54.020          24.000  
C33  25939637.762   135074569.5511      -4551.399          20.000  
C37  24543001.534   127801857.7131        -46.068          15.000  
E31  24354934.530   127985838.557        -349.210          29.000  
G16  21964298.033   115422987.199        1584.792          27.000  
G31  21436433.066   112649132.694       -1940.195          23.000  
J01  36295769.462   190735760.868        -663.005          30.000    36295776.357   142432422.274        -495.846          31.000  
J02  39307651.479   206563087.958       -2021.508          36.000  
> 2021  9 12 13  8 46.9976353  0 12
C06  36155930.070   188273371.618        -684.940          19.000  
C16  36723775.359   191230371.730        -650.519          16.000  
C23  22660659.552   117999995.428       -1824.676          24.000  
C32  22993907.949   119735287.522          54.793          24.000  
C37  24542770.993   127800659.751         -52.564          14.000  
E31  24354763.648   127984928.164        -350.677          29.000  
G16  21963761.704   115420142.370        1584.188          25.000  
G31  21436561.677   112649812.072       -1939.185          25.000  
G32  21056106.461   110650491.1651      -2466.243          15.000  
J01  36295654.941   190735163.555        -663.574          28.000    36295662.436   142431976.675        -494.319          30.000  
J02  39307792.981   206563849.490       -2022.027          37.000  
J03  37263765.132   195822559.8291      -1186.198          22.000  
> 2021  9 12 13  8 47.9976343  0 11
C01  37325049.606   194361355.2681      -1282.571          29.000  
C06  36155761.587   188272496.623        -687.068          23.000  
C16  36723599.681   191229461.504        -650.007          17.000  
C23  22660711.416   118000259.562       -1826.334          26.000  
C37  24542481.094   127799147.817         -48.615          12.000  
E31  24354531.009   127983703.060        -350.977          31.000  
G31  21436628.831   112650175.843       -1939.471          26.000  
G32  21056278.841   110651378.391       -2462.229          14.000  
J01  36295481.961   190734251.817        -664.365          30.000    36295489.156   142431296.014        -497.133          30.000  
J02  39307878.122   206564296.291       -2021.421          36.000  
J03  37263690.184   195822170.182       -1186.263          22.000  
> 2021  9 12 13  8 48.9976338  0  9
C06  36155744.199   188272404.449        -689.803          25.000  
C16  36723575.997   191229331.022        -649.951          29.000  
C23  22660914.975   118001305.231       -1826.349          25.000  
C33  25941565.728   135084639.2611      -4554.141          23.000  
E31  24354447.667   127983265.499        -349.964          29.000  
G31  21436845.581   112651326.357       -1936.681          27.000  
G32  21056592.125   110653047.652       -2455.309          14.000  
J01  36295458.877   190734128.556        -664.598          29.000    36295466.072   142431203.042        -498.399          30.000  
J02  39308113.160   206565529.886       -2021.618          36.000  
> 2021  9 12 13  8 49.9976328  0  7
C01  37325092.476   194361580.9711      -1284.365          29.000  
C16  36723399.719   191228420.011        -650.477          31.000  
G16  21962133.232   115411788.9241       1581.420          19.000  
G31  21436911.235   112651688.226       -1937.699          22.000  
G32  21056753.413   110653929.380       -2456.111          11.000  
J01                                                                  36295294.291   142430522.659        -497.875          28.000  
J02  39308203.697   206565976.712       -2021.979          38.000  
> 2021  9 12 13  8 50.9976320  0  6
C06  36155470.489   188270977.5891       -693.573          20.000  
C16  36723283.100   191227821.263        -649.582          29.000  
G31  21437040.446   112652366.052       -1937.982          26.000  
J01  36295164.780   190732617.9291       -662.447          25.000    36295179.470   142430077.513        -496.137          26.000  
J02  39308346.998   206566737.725       -2022.149          33.000  
R14  20916322.531   111495769.7801       -560.458          28.000  
> 2021  9 12 13  8 51.9976310  0  7
C06  36155305.303   188270109.322        -691.470          23.000  
C16  36723108.021   191226909.386        -648.955          28.000  
G31  21437108.199   112652728.760       -1938.605          26.000  
J01  36294991.200   190731703.836        -661.304          31.000    36295004.691   142429397.690        -496.753          26.000  
J02  39308426.742   206567182.914       -2022.016          31.000  
R02  20045011.427   106964021.1461      -4013.348          21.000  
R14  20916128.566   111494735.705        -556.428          24.000  
> 2021  9 12 13  8 52.9976305  0  8
C06  36155288.814   188270019.775        -691.803          17.000  
C16  36723082.839   191226778.168        -649.630          26.000  
C23  22661323.592   118003463.5701      -1826.911          17.000  
C32  22992355.923   119727469.9611         55.778          17.000  
G31  21437326.448   112653879.679       -1938.735          34.000  
J01                                                                  36294979.509   142429305.442        -495.697          25.000  
J02  39308660.281   206568415.805       -2020.330          31.000  
R02  20045612.211   106967234.473       -4013.380          29.000  
> 2021  9 12 13  8 53.9976297  0  8
C01  37325152.135   194361878.2171      -1283.028          31.000  
C06  36155181.788   188269463.129        -690.686          14.000  
C16  36722967.419   191226178.488        -649.663          25.000  
C23  22661433.316   118004041.555       -1827.019          17.000  
G31  21437453.260   112654558.137       -1937.932          35.000  
J01                                                                  36294864.688   142428858.325        -492.488          24.000  
J02  39308808.078   206569175.900       -2019.562          34.000  
R02  20046124.557   106969968.591       -4014.111          28.000  
> 2021  9 12 13  8 54.9976287  0  8
C01  37325099.072   194361599.500       -1281.928          31.000  
C06  36155015.104   188268591.652        -689.127          13.000  
C16  36722793.839   191225264.476        -645.813          24.000  
C23  22661483.681   118004308.902       -1830.028          18.000  
G31  21437521.313   112654921.304       -1939.103          37.000  
J01  36294689.609   190730067.2131       -663.611          33.000    36294691.108   142428175.305        -493.043          23.000  
J02  39308895.018   206569620.608       -2019.968          34.000  
R02  20046576.644   106972383.819       -4015.517          30.000  
> 2021  9 12 13  8 55.9976279  0  7
C01  37325105.067   194361631.635       -1280.794          31.000  
C06  36154909.877   188268031.696        -688.161          13.000  
C16  36722679.618   191224662.212        -647.433          24.000  
G31  21437653.821                       -1937.486          35.000  
J01  36294574.789                        -662.665          34.000    36294577.787   142427727.938        -494.287          23.000  
J02  39309037.719   206570380.280       -2020.604          34.000  
R02  20047091.088   106975120.084       -4016.201          31.000  
> 2021  9 12 13  8 56.9976271  0  8
C01  37325110.464   194361663.195       -1279.955          30.000  
C16  36722567.496   191224060.216        -648.142          24.000  
C32  22991270.075   119721576.1601         53.531          19.000  
G16  21958279.399   115391740.2551       1578.925          26.000  
G31  21437783.032   112656308.6301      -1937.089          35.000  
J01  36294463.266   190728679.8231       -663.148          34.000    36294464.765   142427280.451        -492.985          23.000  
J02  39309181.320   206571139.964       -2020.251          34.000  
R02  20047602.833   106977856.650       -4016.857          31.000  
> 2021  9 12 13  8 57.9976264  0 10
C01  37325145.839   194361850.184       -1279.728          30.000  
C06  36154724.305   188267058.3951       -677.924          13.000  
C32  22991046.730   119720430.798          51.568          20.000  
C33  25947223.411   135114081.8901      -4554.462          24.000  
E19  24629654.445   129429707.6411      -2904.782          28.000  
G16  21957764.056   115389057.259        1580.982          26.000  
G31  21437942.521   112657144.573       -1938.649          36.000  
J01  36294381.722   190728240.510        -662.552          34.000    36294381.423   142426949.294        -493.245          24.000  
J02  39309356.998   206572057.213       -2020.796          34.000  
R02  20048146.957   106980753.976       -4017.603          32.000  
> 2021  9 12 13  8 58.9976253  0  9
C01  37325060.998   194361412.476       -1279.113          29.000  
C16  36722283.292   191222547.6111       -649.866          24.000  
C23  22661863.818   118006310.6311      -1827.494          18.000  
C32  22990704.367   119718662.941          50.016          24.000  
G16  21957130.595   115385743.013        1581.449          25.000  
G31  21437983.293   112657350.129       -1938.036          37.000  
J01  36294178.163   190727170.887        -663.162          34.000    36294177.264   142426147.744        -492.079          23.000  
J02  39309409.162   206572344.019       -2019.559          34.000  
R02  20048572.062   106983011.574       -4017.328          32.000  
> 2021  9 12 13  8 59.9976246  0 10
C01  37325095.774   194361598.823       -1278.993          30.000  
C06  36154445.498   188265605.2241       -680.064          16.000  
C32  22990483.420   119717519.098          51.212          24.000  
C33  25948439.069   135120382.0791      -4555.239          24.000  
E19  24630221.952   129432682.3851      -2905.450          28.000  
G16  21956616.151   115382796.439        1580.661          25.000  
G31  21438145.181   112658185.249       -1937.517          37.000  
J01  36294089.725   190726730.875        -662.997          34.000    36294094.221   142425817.355        -495.672          24.000  
J02  39309579.744   206573260.233       -2019.314          34.000  
R02  20049114.987   106985909.542       -4018.274          34.000  
> 2021  9 12 13  9  0.9976238  0  9
C01  37325101.470   194361629.083       -1279.400          30.000  
C06  36154337.273   188265037.261        -681.955          16.000  
C32  22990232.793   119716219.940          49.925          24.000  
C33  25949074.929   135123687.347       -4552.562          23.000  
G16  21956073.227   115379956.105        1579.872          25.000  
G31  21438275.591   112658862.757       -1937.972          36.000  
J01  36293973.705   190726133.314        -662.738          34.000  
J02  39309730.840   206574018.795       -2018.572          34.000  
R02  20049629.430   106988648.499       -4018.673          33.000  
> 2021  9 12 13  9  1.9976230  0 11
C01  37325108.065   194361659.280       -1279.046          30.000  
C16  36721969.110   191220899.6841       -645.342          18.000  
C32  22989981.867   119714922.290          48.751          26.000  
C33  25949708.990   135126990.406       -4551.630          25.000  
E01  24061871.513   126445987.4521      -2758.729          28.000  
E19  24630853.015   129435971.1001      -2904.262          26.000  
G16  21955530.902   115377115.492        1580.197          24.000  
G31  21438402.703   112659540.194       -1939.314          36.000  
J01  36293860.383   190725535.769        -663.110          34.000  
J02  39309871.742   206574777.167       -2018.594          34.000  
R02  20050144.174   106991387.582       -4019.187          33.000  
> 2021  9 12 13  9  2.9976223  0  8
C01  37325144.340   194361845.236       -1278.729          30.000  
C23  22662367.469   118008928.5521      -1825.956          17.000  
C32  22989760.920   119713781.058          49.268          25.000  
C33  25950374.829   135130450.076       -4553.666          26.000  
E19  24631195.678   129437772.261       -2905.490          26.000  
G31  21438561.293   112660375.239       -1938.567          37.000  
J01  36293778.840   190725095.890        -662.625          34.000  
J02  39310045.322   206575692.992       -2018.062          34.000  
> 2021  9 12 13  9  3.9976212  0 10
C01  37325060.398   194361406.406       -1278.278          30.000  
C25  24482690.786   127487795.1091      -3182.089          28.000  
C32  22989420.955   119712013.037          52.612          24.000  
C33  25950918.653   135133287.394       -4554.014          25.000  
E01  24062382.060   126448670.6961      -2759.478          26.000  
E19  24631419.023   129438943.842       -2904.317          27.000  
G31  21438602.065   112660580.203       -1938.348          36.000  
J01  36293576.180   190724025.938        -663.666          34.000  
J02  39310098.085   206575978.685       -2020.409          34.000  
R02  20051107.707   106996548.5351      -4021.215          33.000  
> 2021  9 12 13  9  4.9976205  0 10
C01  37325096.373   194361592.007       -1278.335          32.000  
C25  24483090.709   127489883.306       -3179.913          28.000  
C32  22989202.406   119710868.227          52.065          25.000  
C33  25951582.693   135136748.667       -4553.287          25.000  
E19  24631761.686   129440746.747       -2907.302          25.000  
G16  21953858.660   115368436.7071       1579.556          18.000  
G31  21438757.957   112661415.128       -1938.267          36.000  
J01  36293491.938   190723585.964        -661.949          32.000  
J02  39310275.263   206576894.183       -2021.020          33.000  
R02  20051649.732   106999449.535       -4020.975          33.000  
> 2021  9 12 13  9  5.9976197  0  9
C01  37325102.070   194361621.327       -1278.167          32.000  
C06  36153764.370   188262064.8661       -688.592          15.000  
C25  24483459.154   127491813.621       -3178.832          26.000  
C32  22988952.979   119709567.693          51.081          24.000  
C33  25952217.354   135140054.312       -4555.325          25.000  
G31  21438885.069   112662092.801       -1938.196          36.000  
J01  36293376.818   190722988.881        -661.387          32.000  
J02  39310418.863   206577652.366       -2018.477          33.000  
R02  20052167.473   107002190.821       -4021.185          31.000  
> 2021  9 12 13  9  6.9976189  0 10
C01  37325108.665   194361650.472       -1278.000          31.000  
C06  36153656.744   188261504.148        -687.371          17.000  
C16  36721358.732   191217711.4091       -643.934          16.000  
C25  24483829.697   127493745.112       -3181.045          23.000  
C32  22988703.552   119708269.299          48.263          24.000  
C33  25952851.115   135143360.480       -4554.730          26.000  
G31  21439013.080   112662770.472       -1937.158          36.000  
J01  36293259.899   190722391.834        -664.372          32.000    36293269.492   142422578.2221       -495.540          26.000  
J02  39310564.263   206578410.410       -2018.637          32.000  
R02  20052681.617   107004932.185       -4021.249          31.000  
> 2021  9 12 13  9  7.9976182  0 12
C01  37325145.240   194361835.702       -1278.089          31.000  
C06  36153579.398   188261098.908        -686.618          19.000  
C25  24484232.019   127495834.247       -3183.321          21.000  
C32  22988483.804   119707127.991          48.514          23.000  
C33  25953515.455   135146822.915       -4554.890          27.000  
E01  24063586.026   126454997.4361      -2758.542          26.000  
E31  24351037.228   127965363.5231       -354.183          27.000  
G16  21952255.370   115360080.4501       1571.444          17.000  
G31  21439167.473   112663605.711       -1939.474          36.000  
J01  36293178.655   190721952.429        -664.609          32.000    36293186.750   142422250.949        -496.701          26.000  
J02  39310737.842   206579325.944       -2018.495          32.000  
R02  20053223.043   107007834.339       -4022.859          31.000  
> 2021  9 12 13  9  8.9976172  0 10
C01  37325091.877   194361552.664       -1278.234          31.000  
C06  36153413.313   188260224.578        -687.456          19.000  
C32  22988175.018   119705519.036          48.363          22.000  
C33  25954092.855   135149816.688       -4554.971          26.000  
E01  24063814.468   126456198.016       -2757.803          24.000  
E31  24350804.589   127964143.520        -355.978          27.000  
G31  21439240.922   112663968.529       -1938.917          35.000  
J01  36293009.572   190721040.605        -664.160          33.000    36293012.870   142421570.511        -495.345          27.000  
J02  39310820.885   206579768.992       -2017.710          33.000  
R02  20053673.331   107010258.085       -4023.944          31.000  
> 2021  9 12 13  9  9.9976166  0  8
C01  37325157.231   194361894.443       -1278.625          31.000  
C32  22987986.748   119704534.906          46.897          23.000  
C33  25954790.173   135153434.663       -4554.212          27.000  
E31  24350691.867   127963554.653        -356.600          27.000  
G31  21439428.892   112664961.479       -1937.372          36.000  
J01  36292954.410   190720759.000        -662.740          33.000    36292959.507   142421359.332        -495.383          26.000  
J02  39311025.943   206580841.927       -2017.875          33.000  
R02  20054245.035   107013322.413       -4025.300          30.000  
> 2021  9 12 13  9 10.9976156  0  9
C01  37325102.669   194361612.026       -1278.671          30.000  
C16  36720857.479   191215141.6171       -645.800          14.000  
C32  22987675.264   119702927.732          45.646          23.000  
C33  25955365.175   135156427.455       -4554.678          25.000  
G16  21950569.937   115351258.2461       1575.701          17.000  
G31  21439497.245   112665324.352       -1938.665          35.000  
J01  36292781.730   190719847.371        -663.924          33.000    36292785.328   142420677.188        -494.436          26.000  
J02  39311112.283   206581284.729       -2018.118          33.000  
R02  20054695.323   107015748.307       -4025.175          30.000  
> 2021  9 12 13  9 11.9976148  0  9
C01  37325108.665   194361641.653       -1278.605          31.000  
C32  22987424.937   119701633.295          47.224          23.000  
C33  25956001.034   135159732.855       -4553.712          25.000  
E31  24350289.545   127961430.2821       -354.197          28.000  
G16  21950032.409   115348422.217        1575.760          17.000  
G31  21439626.156   112666002.367       -1939.398          36.000  
J01  36292668.109   190719250.903        -664.057          33.000    36292672.006   142420231.198        -495.662          26.000  
J02  39311253.186   206582042.603       -2019.088          33.000  
R02  20055208.568   107018494.025       -4025.889          28.000  
> 2021  9 12 13  9 12.9976138  0  7
C01  37325054.403   194361359.423       -1278.880          29.000  
C33  25956579.334   135162725.034       -4552.437          25.000  
E31  24350057.206   127960207.774        -353.417          26.000  
G31  21439697.506   112666365.373       -1938.057          36.000  
J01  36292494.529   190718339.627        -665.011          33.000    36292498.426   142419552.104        -498.007          25.000  
J02  39311337.427   206582485.348       -2017.631          32.000  
R02  20055661.554   107020921.318       -4028.219          27.000  
> 2021  9 12 13  9 13.9976133  0  9
C01  37325150.636   194361857.905       -1279.555          29.000  
C16  36720534.303   191213486.6171       -646.607          14.000  
C32  22986959.059   119699199.1611         44.479          23.000  
C33  25957304.232   135166499.123       -4556.074          23.000  
G31  21439914.256   112667515.929       -1940.242          36.000  
J01  36292466.648   190718215.787        -663.502          33.000    36292474.443   142419459.437        -494.888          24.000  
J02  39311571.266   206583715.509       -2018.726          33.000  
J03  37263301.353   195819897.9461      -1185.822          25.000  
R02  20056267.435   107024149.445       -4027.460          27.000  
> 2021  9 12 13  9 14.9976125  0  8
C01  37325156.932   194361888.725       -1279.983          29.000  
C32  22986710.831   119697906.154          43.251          21.000  
C33  25957939.492   135169805.945       -4554.852          25.000  
G31  21440043.767   112668194.201       -1938.541          35.000  
J01  36292355.425   190717619.625        -663.893          33.000    36292360.222   142419013.375        -496.323          25.000  
J02  39311718.464   206584473.223       -2019.234          33.000  
J03  37263284.865   195819822.713       -1185.013          24.000  
R02  20056779.181   107026897.986       -4028.286          27.000  
> 2021  9 12 13  9 15.9976115  0  9
C01  37325102.969   194361607.697       -1280.317          31.000  
C06  36152629.955   188256128.1031       -684.388          23.000  
C23  22663704.544   118015823.7001      -1826.645          21.000  
C33  25958513.295   135172799.626       -4554.107          24.000  
G16  21947869.706   115336925.0901       1573.502          20.000  
G31  21440111.220   112668557.359       -1938.251          35.000  
J01  36292180.346   190716708.536        -663.806          33.000    36292187.541   142418333.575        -497.577          26.000  
J02  39311804.204   206584915.799       -2018.674          33.000  
R02  20057235.165   107029326.102       -4028.012          28.000  
> 2021  9 12 13  9 16.9976108  0  7
C01  37325138.944   194361795.461       -1280.894          29.000  
C33  25959178.535   135176260.589       -4553.464          26.000  
G16  21947364.855   115334249.025        1573.159          21.000  
G31  21440271.309   112669392.907       -1939.468          35.000  
J01  36292099.402   190716270.009        -665.437          33.000    36292104.499   142418006.247        -497.253          26.000  
J02  39311973.887   206585830.672       -2016.840          33.000  
R02  20057776.890   107032235.174       -4030.036          29.000  
> 2021  9 12 13  9 17.9976097  0  9
C06  36152355.945   188254687.7091       -684.463          24.000  
C33  25959723.857   135179097.523       -4554.824          27.000  
E04  23778647.385   124957627.8501       -256.301          27.000  
G16  21946739.488   115330942.977        1572.651          21.000  
G31  21440308.184   112669598.462       -1939.147          35.000  
J01  36291892.546   190715201.355        -664.347          33.000    36291901.240   142417208.309        -495.417          26.000  
J02  39312028.749   206586115.346       -2017.894          33.000  
J03  37263122.977   195818965.2611      -1181.777          22.000  
R02  20058201.696   107034506.333       -4030.675          28.000  
> 2021  9 12 13  9 18.9976092  0  9
C06  36152337.358   188254591.233        -684.358          24.000  
C33  25960450.554   135182871.957       -4555.849          26.000  
E04  23778544.556   124957097.050        -257.120          28.000  
G16  21946292.498   115328582.307        1572.933          24.000  
G31  21440528.231   112670749.555       -1939.813          35.000  
J01  36291872.460   190715078.425        -663.201          34.000    36291877.856   142417115.818        -496.518          26.000  
J02  39312263.187   206587345.570       -2018.383          33.000  
J03  37263200.623   195819358.977       -1181.940          21.000  
R02  20058806.078   107037737.523       -4030.967          27.000  
> 2021  9 12 13  9 19.9976084  0 10
C06  36152228.533   188254027.698        -685.199          24.000  
C23  22664169.222   118018289.1061      -1825.052          23.000  
C33  25961086.714   135186178.124       -4554.756          26.000  
E04  23778352.689   124956093.552        -256.588          27.000  
G16  21945756.469   115325750.111        1570.832          23.000  
G31  21440656.542   112671428.054       -1938.971          35.000  
J01  36291757.939   190714482.811        -664.818          33.000    36291765.134   142416671.799        -496.086          26.000  
J02  39312407.686   206588103.005       -2017.174          32.000  
J03  37263186.233   195819281.722       -1183.661          24.000  
R02  20059320.821   107040488.270       -4031.188          25.000  
> 2021  9 12 13  9 20.9976074  0 11
C06  36152061.549   188253151.897        -685.134          25.000  
C23  22664216.290   118018553.777       -1826.468          24.000  
C32  22985120.732   119689707.8301         42.314          17.000  
C33  25961662.015   135189172.389       -4555.217          26.000  
E04  23778100.863   124954774.496        -256.747          29.000  
G16  21945160.781   115322604.113        1570.694          23.000  
G31  21440727.893   112671791.383       -1938.890          35.000  
J01  36291583.759   190713572.243        -665.524          33.000    36291591.254   142415988.931        -491.537          26.000  
J02  39312491.928   206588545.173       -2018.596          33.000  
J03  37263108.887   195818890.591       -1184.593          21.000  
R02  20059774.407   107042919.839       -4031.901          25.000  
> 2021  9 12 13  9 21.9976067  0 10
C06  36151985.102   188252744.256        -684.884          24.000  
C23  22664354.194   118019288.148       -1827.995          23.000  
C25  24489367.164   127522409.5501      -3177.711          19.000  
C33  25962327.255   135192635.365       -4555.757          26.000  
E04  23777938.676   124953928.393        -255.850          28.000  
G31  21440886.183   112672627.424       -1938.378          36.000  
J01  36291503.715   190713134.336        -665.329          33.000    36291507.012   142415659.549        -495.999          26.000  
J02  39312668.806   206589460.010       -2017.797          33.000  
J03  37263124.176   195818972.282       -1184.348          22.000  
R02  20060324.227   107045832.132       -4032.152          25.000  
> 2021  9 12 13  9 22.9976059  0  8
C06  36151874.178   188252180.257        -685.323          23.000  
C23  22664463.618   118019868.705       -1829.761          25.000  
C33  25962963.414   135195941.642       -4555.191          25.000  
E04  23777745.909   124952925.572        -258.334          27.000  
G31  21441015.094   112673305.931       -1938.028          35.000  
J01  36291390.093   190712539.006        -664.806          33.000    36291394.890   142415216.011        -498.492          26.000  
J02  39312814.505   206590217.091       -2018.325          32.000  
R02  20060838.970   107048584.997       -4032.843          24.000  
> 2021  9 12 13  9 23.9976051  0  8
C06  36151764.754   188251616.024        -684.740          23.000  
C23  22664572.443   118020449.574       -1830.245          24.000  
C33  25963598.375   135199247.411       -4554.042          25.000  
G16  21943574.879   115314267.0181       1571.083          20.000  
G31  21441146.403   112673984.493       -1938.688          36.000  
J01  36291275.873   190711943.747        -663.779          33.000    36291281.868   142414772.922        -497.232          26.000  
J02  39312954.508   206590974.292       -2014.684          33.000  
R02  20061356.412   107051338.350       -4033.547          22.000  
> 2021  9 12 13  9 24.9976041  0 11
C06  36151597.770   188250739.982        -685.504          24.000  
C23  22664621.909   118020718.254       -1830.975          25.000  
C25  24490420.934   127527882.5211      -3176.497          19.000  
C32  22984083.750   119684384.4611         45.459          14.000  
C33  25964173.377   135202241.231       -4556.034          27.000  
G16  21942976.493   115311119.606        1572.214          22.000  
G31  21441213.857   112674348.024       -1940.105          36.000  
J01  36291101.094   190711033.582        -666.144          33.000    36291108.588   142414093.011        -497.203          27.000  
J02  39313041.448   206591416.249       -2018.453          32.000  
J03  37263006.957   195818431.0611      -1184.189          21.000  
R02  20061808.199   107053772.354       -4034.175          24.000  
> 2021  9 12 13  9 25.9976033  0 10
C01  37325101.470   194361607.7871      -1277.879          30.000  
C06  36151490.744   188250176.928        -686.547          25.000  
C23  22664731.033   118021300.243       -1830.193          24.000  
C33  25964809.237   135205548.338       -4556.429          27.000  
G16  21942438.066   115308286.611        1571.966          22.000  
G31  21441344.566   112675026.832       -1939.630          36.000  
J01  36290991.969   190710438.643        -664.650          33.000    36290995.567   142413650.021        -497.016          26.000  
J02  39313179.652   206592173.276       -2017.948          32.000  
J03  37262990.468   195818355.214       -1185.030          22.000  
R02  20062330.438   107056528.048       -4035.870          24.000  
> 2021  9 12 13  9 26.9976028  0  8
C06  36151474.555   188250084.064        -688.138          25.000  
C23  22664930.695   118022349.821       -1830.532          25.000  
C33  25965532.936   135209324.046       -4556.262          26.000  
G31  21441564.614   112676178.300       -1939.769          36.000  
J01  36290967.386   190710316.483        -666.361          33.000    36290972.183   142413558.744        -497.248          27.000  
J02  39313417.687   206593402.996       -2017.160          32.000  
J03  37263062.718   195818752.573       -1184.738          21.000  
R02  20062940.216   107059764.552       -4036.766          24.000  
> 2021  9 12 13  9 27.9976018  0  9
C06  36151306.671   188249210.583        -687.358          24.000  
C23  22664981.060   118022619.483       -1830.302          25.000  
C33  25966110.036   135212318.684       -4556.403          26.000  
E04  23776758.393   124947756.5631       -259.638          28.000  
G31  21441635.665   112676542.187       -1940.111          36.000  
J01  36290794.406   190709406.801        -666.435          33.000    36290799.203   142412880.056        -498.712          26.000  
J02  39313503.128   206593845.035       -2016.642          32.000  
J03  37262984.173   195818360.942       -1184.336          22.000  
R02  20063408.491   107062201.993       -4037.682          24.000  
> 2021  9 12 13  9 28.9976010  0 10
C06  36151199.046   188248648.218        -686.038          25.000  
C23  22665089.285   118023200.340       -1829.547          25.000  
C33  25966747.695   135215626.099       -4556.119          27.000  
E04  23776567.125   124946756.281        -259.887          27.000  
G16  21940859.959   115299953.4951       1568.822          18.000  
G31  21441761.877   112677221.078       -1939.805          36.000  
J01  36290678.986   190708812.171        -665.919          33.000    36290686.181   142412437.808        -499.280          26.000  
J02  39313646.129   206594601.843       -2017.159          33.000  
J03  37262968.284   195818284.457       -1185.182          22.000  
R02  20063934.927   107064959.305       -4036.785          24.000  
> 2021  9 12 13  9 29.9976000  0 10
C06  36151030.263   188247772.873        -685.698          22.000  
C23  22665137.252   118023468.772       -1829.749          26.000  
C33  25967324.196   135218621.484       -4556.858          27.000  
E04  23776317.398   124945440.012        -256.715          26.000  
G16  21940265.470   115296809.083        1568.296          17.000  
G31  21441832.029   112677584.992       -1939.288          36.000  
J01  36290505.106   190707902.539        -666.287          33.000    36290513.500   142411759.888        -498.607          26.000  
J02  39313730.371   206595043.641       -2018.838          33.000  
J03  37262893.336   195817893.847       -1184.513          22.000  
R02  20064393.010   107067397.271       -4038.053          25.000  
> 2021  9 12 13  9 30.9975995  0  9
C06  36151012.275   188247677.191        -685.112          23.000  
C23  22665336.614   118024517.869       -1829.724          25.000  
C33  25968050.593   135222397.188       -4555.704          27.000  
E04  23776218.466   124944909.858        -259.068          26.000  
G16  21939822.677   115294454.309        1565.900          16.000  
G31  21442051.477   112678736.766       -1939.958          36.000  
J01  36290483.221   190707780.903        -666.081          33.000    36290490.416   142411669.901        -498.538          26.000  
J02  39313960.611   206596273.202       -2016.398          33.000  
R02  20065005.486   107070635.604       -4037.883          25.000  
> 2021  9 12 13  9 31.9975985  0  7
C06  36150846.190   188246800.983        -685.365          24.000  
C23  22665387.579   118024786.308       -1830.334          25.000  
C33  25968626.794   135225392.867       -4557.288          26.000  
G31  21442124.326   112679100.762       -1938.437          37.000  
J01  36290308.742   190706871.503        -666.394          33.000    36290317.136   142410991.459        -497.186          26.000  
J02  39314049.950   206596714.782       -2016.588          33.000  
R02  20065461.770   107073073.896       -4038.550          26.000  
> 2021  9 12 13  9 32.9975977  0  9
C06  36150737.965   188246237.206        -686.378          23.000  
C23  22665500.001   118025368.810       -1831.379          24.000  
C25  24493409.565   127543610.3111      -3179.160          20.000  
C33  25969261.754   135228701.297       -4557.670          27.000  
G31  21442251.738   112679780.219       -1940.786          37.000  
J01  36290201.416   190706277.662        -666.975          34.000    36290202.316   142410547.543        -498.332          26.000  
J02  39314188.154   206597471.868       -2018.665          33.000  
J03  37262879.245   195817827.4761      -1184.853          22.000  
R02  20065979.212   107075833.116       -4038.285          24.000  
> 2021  9 12 13  9 33.9975967  0  8
C06  36150570.980   188245361.650        -685.040          24.000  
C16  36718054.120   191200529.4421       -646.924          20.000  
C33  25969836.456   135231697.232       -4556.814          27.000  
C37  24531610.919   127742593.8771        -50.113          21.000  
G31  21442321.590   112680144.468       -1939.789          37.000  
J01  36290027.237   190705368.669        -666.504          33.000    36290030.235   142409870.006        -499.454          26.000  
J02  39314275.993   206597913.544       -2017.226          32.000  
R02  20066430.999   107078273.810       -4041.499          23.000  
> 2021  9 12 13  9 34.9975959  0  7
C06  36150463.055   188244797.613        -685.850          24.000  
C33  25970472.016   135235004.390       -4555.837          26.000  
G31  21442451.700   112680824.063       -1940.694          37.000  
J01  36289917.213   190704775.112        -665.933          33.000    36289917.813   142409427.452        -498.134          26.000  
J02  39314417.195   206598670.497       -2017.306          32.000  
J03  37262790.807   195817363.4951      -1185.277          20.000  
R02  20066948.141   107081037.231       -4044.208          24.000  
> 2021  9 12 13  9 35.9975954  0 10
C06  36150444.768   188244703.349        -687.025          25.000  
C16  36717916.515   191199795.3841       -647.187          20.000  
C23  22665864.249   118027274.2531      -1832.192          24.000  
C33  25971197.814   135238779.363       -4556.006          27.000  
G16  21937149.727   115280499.6211       1567.929          13.000  
G31  21442670.248   112681976.303       -1940.685          36.000  
J01  36289893.230   190704654.162        -666.560          33.000    36289894.729   142409337.590        -499.055          26.000  
J02  39314653.132   206599899.882       -2018.668          32.000  
J03  37262865.755   195817760.514       -1185.025          24.000  
R02  20067555.820   107084279.919       -4040.963          26.000  
> 2021  9 12 13  9 36.9975944  0  7
C06  36150278.083   188243829.320        -687.198          24.000  
C16  36717741.736   191198881.454        -647.438          21.000  
C33  25971773.116   135241773.691       -4554.640          26.000  
G31  21442739.500   112682341.035       -1940.459          37.000  
J01  36289719.050   190703745.661        -667.831          33.000    36289721.748   142408659.436        -498.357          26.000  
J02  39314736.774   206600341.730       -2017.145          32.000  
J03  37262790.207   195817370.700       -1186.275          24.000  
> 2021  9 12 13  9 37.9975936  0  9
C01  37325136.845   194361799.5051      -1280.432          34.000  
C06  36150171.657   188243267.801        -688.089          26.000  
C23  22666024.338   118028126.3601      -1831.454          21.000  
C33  25972405.678   135245079.783       -4555.521          26.000  
C37  24530719.936   127737962.4051        -52.272          20.000  
G31  21442872.308   112683020.933       -1940.498          37.000  
J01  36289607.827   190703152.499        -668.442          32.000    36289609.326   142408216.694        -498.083          26.000  
J02  39314880.674   206601098.622       -2017.481          33.000  
R02  20068522.651   107089484.7721      -4043.760          25.000  
> 2021  9 12 13  9 38.9975926  0  7
C06  36150005.572   188242393.984        -688.316          24.000  
C32  22980572.281   119665861.8961         32.651          27.000  
C33  25972977.981   135248075.024       -4556.900          23.000  
G31  21442938.263   112683386.013       -1940.230          38.000  
J01  36289435.447   190702244.748        -668.191          33.000    36289436.046   142407538.882        -499.426          27.000  
J02  39314967.015   206601540.698       -2016.477          33.000  
R02  20068980.434   107091929.249       -4044.700          26.000  
> 2021  9 12 13  9 39.9975921  0  7
C06  36149987.884   188242301.564        -689.267          24.000  
C32  22980418.787   119665049.313          31.317          29.000  
C37  24530294.830   127735724.6701        -51.851          20.000  
G31  21443155.612   112684538.690       -1940.191          37.000  
J01  36289410.264   190702124.575        -669.219          33.000    36289413.262   142407449.844        -499.245          27.000  
J02  39315203.551   206602770.203       -2015.492          32.000  
R02  20069584.216   107095174.409       -4045.811          25.000  
> 2021  9 12 13  9 40.9975910  0  9
C06  36149789.122   188241273.676        -688.670          22.000  
C23  22666291.753   118029563.6321      -1832.302          23.000  
C32  22980083.020   119663300.300          32.114          27.000  
C33  25974252.699   135254691.3151      -4558.480          27.000  
C37  24529977.650   127734057.452         -50.674          18.000  
G31  21443196.684   112684747.090       -1940.825          36.000  
J01  36289207.904   190701060.005        -667.621          34.000    36289210.902   142406656.395        -501.107          25.000  
J02  39315254.815   206603055.241       -2017.172          32.000  
R02  20070009.921   107097461.124       -4046.457          27.000  
> 2021  9 12 13  9 41.9975903  0  9
C06  36149713.574   188240868.887        -688.432          23.000  
C23  22666433.255   118030303.179       -1832.563          21.000  
C32  22979866.869   119662175.527          32.026          29.000  
C33  25974916.739   135258156.854       -4558.745          26.000  
C37  24529778.288   127733012.490         -45.348          17.000  
G31  21443355.274   112685584.781       -1940.839          37.000  
J01  36289122.763   190700624.902        -667.834          34.000    36289128.459   142406332.147        -497.957          27.000  
J02  39315432.592   206603969.468       -2016.131          32.000  
R02  20070557.642   107100388.927       -4047.844          26.000  
> 2021  9 12 13  9 42.9975895  0  9
C06  36149606.548   188240308.657        -688.540          22.000  
C16  36717003.348   191195116.4841       -649.143          19.000  
C32  22979622.538   119660894.973          30.865          29.000  
C33  25975551.100   135261466.668       -4558.013          27.000  
C37  24529547.148   127731808.851         -43.037          16.000  
G31  21443485.984   112686265.084       -1941.276          37.000  
J01  36289006.743   190700032.463        -666.461          34.000    36289015.437   142405888.743        -497.953          25.000  
J02  39315580.990   206604726.258       -2017.710          33.000    39315577.692   154282771.4481      -1507.502          23.000  
R02  20071075.384   107103155.645       -4046.692          28.000  
> 2021  9 12 13  9 43.9975887  0  8
C06  36149498.323   188239747.835        -688.357          24.000  
C32  22979377.308   119659615.628          29.867          29.000  
C33  25976188.459   135264776.424       -4558.850          27.000  
C37  24529314.809   127730604.846         -45.698          14.000  
G31  21443616.093   112686945.446       -1941.008          35.000  
J01  36288900.317   190699440.177        -667.040          34.000    36288902.416   142405446.374        -499.622          25.000  
J02  39315722.192   206605482.988       -2017.411          32.000    39315720.993   154283336.292       -1506.351          25.000  
R02  20071593.125   107105922.600       -4047.400          28.000  
> 2021  9 12 13  9 44.9975880  0  7
C01  37325177.317   194362020.3481      -1280.062          27.000  
C16  36716792.893   191194072.2141       -649.153          24.000  
C32  22979162.657   119658492.933          29.249          29.000  
G31  21443772.585   112687784.138       -1944.051          36.000  
J01  36288821.172   190699006.969        -671.963          32.000    36288819.673   142405122.022        -498.415          25.000  
J02  39315892.474   206606398.251       -2018.125          33.000    39315895.172   154284019.376       -1506.904          25.000  
R02  20072140.846   107108850.614       -4049.971          28.000  
> 2021  9 12 13  9 45.9975869  0  7
C06  36149220.715   188238312.0721       -686.256          24.000  
C32  22978832.585   119656745.894          31.300          25.000  
C33  25977400.220   135271081.6451      -4556.864          25.000  
C37  24528790.172   127727893.7721        -52.624          15.000  
J01  36288616.713   190697943.890        -669.581          31.000    36288616.713   142404326.397        -498.216          26.000  
J02  39315944.638   206606682.985       -2019.086          35.000    39315950.034   154284230.569       -1504.846          22.000  
R02  20072572.247   107111141.661       -4051.092          29.000  
> 2021  9 12 13  9 46.9975862  0  9
C06  36149140.671   188237904.832        -684.765          23.000  
C16  36716507.791   191192558.6141       -647.237          35.000  
C32  22978629.326   119655619.803          34.693          13.000  
C37  24528589.311   127726855.510         -56.281          16.000  
G16  21931061.842   115248507.3211       1558.224          19.000  
G31  21443970.148   112688832.7011      -1940.818          33.000  
J01  36288531.872   190697509.439        -667.849          25.000    36288532.772   142404002.254        -498.148          26.000  
J02  39316116.119   206607597.328       -2014.739          37.000    39316126.312   154284913.511       -1506.388          23.000  
R02  20073124.165   107114072.465       -4050.743          28.000  
> 2021  9 12 13  9 47.9975854  0 10
C06  36149029.448   188237341.352        -685.923          26.000  
C16  36716401.964   191191957.316        -648.193          33.000  
C32  22978382.897   119654335.726          35.007          11.000  
C37  24528358.471   127725664.874         -63.907          16.000  
E04  23772844.302   124927162.3251       -265.041          30.000  
G16  21930526.113   115245688.410        1559.105          19.000  
G31  21444103.256                       -1940.563          34.000  
J01  36288419.150   190696916.514        -667.783          24.000    36288421.549   142403560.412        -500.920          26.000  
J02  39316259.720   206608354.525       -2015.377          31.000    39316271.412   154285478.496       -1506.323          25.000  
R02  20073641.008   107116843.540       -4052.010          28.000  
> 2021  9 12 13  9 48.9975846  0  8
C06  36148919.724   188236778.191        -685.909          27.000  
C16  36716291.940                        -645.117          36.000  
C33  25979342.875   135281164.0651      -4557.165          22.000  
E04  23772652.135   124926167.062        -265.249          30.000  
G31  21444232.467   112690203.5211      -1940.935          34.000  
J01  36288305.229   190696322.805        -667.911          26.000    36288308.827   142403119.118        -500.158          28.000  
J02  39316408.417   206609110.509       -2017.864          32.000  
R02  20074160.548   107119615.726       -4051.945          27.000  
> 2021  9 12 13  9 49.9975839  0 10
C06  36148841.478   188236371.531        -686.879          30.000  
C16  36716205.900   191190921.6261       -647.435          35.000  
C33  25980006.016   135284628.115       -4556.784          22.000  
C37  24527931.866   127723452.5571        -64.457          16.000  
E04  23772493.245   124925330.839        -267.170          29.000  
G16  21929484.634   115240215.5381       1555.191          17.000  
G31  21444390.158   112691041.994       -1941.954          33.000  
J01  36288223.386   190695888.248        -669.038          26.000    36288226.683   142402795.941        -498.950          27.000  
J02  39316581.397   206610024.712       -2017.431          31.000  
R02  20074712.166   107122547.848       -4052.182          24.000  
> 2021  9 12 13  9 50.9975828  0 11
C06  36148643.315   188235340.412        -686.574          30.000  
C16  36715999.642                        -645.976          36.000  
C23  22667375.502   118035088.5951      -1830.661          20.000  
C33  25980549.240   135287468.087       -4557.439          20.000  
C37  24527614.686   127721799.474         -61.989          13.000  
E04  23772214.139   124923864.232        -266.513          30.000  
G16  21928856.568   115236927.248        1552.114          16.000  
G31  21444429.131   112691250.352       -1939.898          34.000  
J01  36288019.527   190694824.007        -668.148          26.000    36288023.724   142402001.167        -500.189          28.000  
J02  39316635.660   206610308.605       -2015.297          30.000  
R02  20075138.471   107124840.751       -4053.075          27.000  
> 2021  9 12 13  9 51.9975821  0  8
C06  36148563.870   188234933.723        -686.185          30.000  
C16  36715913.602   191189405.4581       -647.319          35.000  
C23  22667519.403   118035826.425       -1830.673          21.000  
E04  23772054.349   124923028.334        -267.016          29.000  
G31  21444587.721   112692088.772       -1940.287          34.000  
J01                                                                  36287941.281   142401677.865        -499.821          27.000  
J02  39316814.036   206611222.601       -2015.359          31.000  
R02  20075687.691   107127774.360       -4053.937          25.000  
> 2021  9 12 13  9 52.9975813  0  9
C06  36148456.244   188234371.719        -687.072          30.000  
C16  36715798.482   191188804.012        -647.883          36.000  
C23  22667636.921   118036409.467       -1832.078          21.000  
C33  25981841.346   135294241.8831      -4558.854          22.000  
E04  23771865.480   124922034.883        -267.000          29.000  
G31  21444718.730   112692770.058       -1942.299          34.000  
J01  36287825.861   190693800.0991       -669.918          27.000    36287828.259   142401236.103        -500.749          28.000  
J02  39316957.037   206611979.226       -2018.128          28.000  
R02  20076203.334   107130548.638       -4054.747          26.000  
> 2021  9 12 13  9 53.9975805  0  7
C06  36148349.219   188233810.465        -687.568          29.000  
C16  36715682.762   191188202.486        -648.603          36.000  
E01  24076457.615   126522638.1021      -2771.298          28.000  
E04  23771675.711   124921041.433        -267.370          29.000  
J01  36287713.139   190693209.976        -670.693          27.000    36287715.837   142400794.826        -499.378          28.000  
J02  39317098.539   206612735.851       -2017.150          29.000  
R02  20076716.279   107133323.638       -4055.175          26.000  
> 2021  9 12 13  9 54.9975795  0  9
C06  36148182.234   188232936.955        -687.213          30.000  
C16  36715504.685   191187288.232        -646.692          36.000  
C23  22667805.405   118037267.7001      -1833.185          22.000  
E01  24076684.558   126523830.682       -2770.267          28.000  
E04  23771426.884   124919734.134        -268.669          29.000  
G31  21444919.591   112693817.2021      -1940.888          34.000  
J01  36287541.058   190692303.927        -669.035          27.000    36287543.157   142400119.009        -501.418          28.000  
J02  39317185.179   206613176.655       -2016.746          29.000  
R02  20077162.969   107135779.105       -4055.922          24.000  
> 2021  9 12 13  9 55.9975788  0  9
C01  37325116.460   194361744.3721      -1275.499          30.000  
C06  36148105.188   188232531.171        -685.810          29.000  
C16  36715422.842   191186842.630        -648.402          32.000  
C32  22976393.474   119644109.4191         25.277          20.000  
E04  23771267.694   124918900.397        -269.952          26.000  
G31  21445078.481   112694656.002       -1941.092          34.000  
J01  36287459.215   190691870.618        -670.068          31.000    36287461.013   142399794.940        -498.914          28.000  
J02  39317355.761   206614090.580       -2017.289          29.000  
R02  20077711.290   107138715.178       -4058.059          22.000  
> 2021  9 12 13  9 56.9975782  0  8
C16  36715364.082   191186553.180        -648.043          29.000  
C23  22668127.082   118038909.1841      -1836.728          21.000  
E01  24077365.087   126527406.6361      -2770.914          30.000  
E04  23771143.880   124918225.260        -269.303          23.000  
G31  21445274.246   112695652.532       -1940.890          29.000  
J01  36287404.952   190691595.456        -670.030          26.000    36287408.850   142399588.557        -498.708          26.000  
J02  39317563.217   206615161.936       -2015.846          35.000  
R02  20078300.082   107141813.412       -4058.232          22.000  
> 2021  9 12 13  9 57.9975772  0  6
C16  36715185.706   191185639.481        -649.274          32.000  
E01  24077597.126   126528626.216       -2771.773          27.000  
G31  21445345.296   112696019.041       -1948.397          33.000  
J01  36287233.171   190690689.898        -670.220          26.000    36287234.071   142398910.697        -497.202          22.000  
J02  39317647.159   206615603.376       -2016.808          34.000  
R02  20078765.060   107144272.063       -4058.569          28.000  
> 2021  9 12 13  9 58.9975764  0  4
C16  36715061.892   191185037.716        -647.321          29.000  
E01  24077890.323   126530166.880       -2769.287          28.000  
J01  36287119.850   190690100.037        -669.417          28.000    36287122.248   142398468.756        -502.533          26.000  
J02  39317785.663   206616359.531       -2016.313          33.000  
> 2021  9 12 13  9 59.9975754  0  5
C16  36714889.511   191184123.876        -648.808          29.000  
E01  24078121.763   126531383.460       -2771.107          29.000  
G16  21923982.543   115211304.5921       1543.455          17.000  
J01  36286946.270   190689193.963        -669.283          29.000    36286951.067   142397794.238        -502.088          25.000  
J02  39317869.006   206616800.599       -2016.411          36.000  
> 2021  9 12 13 10  0.9975749  0  7
C16  36714868.825                        -647.260          29.000  
E01  24078501.300   126533377.750       -2770.649          29.000  
G16  21923540.649   115208973.101        1544.164          16.000  
G31  21445771.301   112698223.8491      -1941.839          21.000  
J01  36286923.186   190689075.826        -670.416          28.000    36286930.081   142397706.771        -499.864          26.000  
J02  39318105.542   206618029.094       -2016.092          36.000  
R02  20080376.445   107152768.1901      -4057.933          26.000  
> 2021  9 12 13 10  1.9975739  0  8
C01  37325123.355   194361752.7241      -1278.339          32.000  
C16  36714694.946                        -648.123          29.000  
C32  22974867.230   119636323.5471         21.378          26.000  
E01  24078731.241   126534586.330       -2771.474          30.000  
G31  21445838.155   112698589.821       -1941.177          25.000  
J01  36286750.206   190688170.247        -669.606          31.000    36286758.000   142397031.405        -500.697          28.000  
J02  39318189.484   206618469.897       -2017.481          36.000  
R02  20080835.727   107155226.243       -4059.850          23.000  
> 2021  9 12 13 10  2.9975731  0  7
C01  37325131.449   194361782.404       -1279.091          35.000  
C16  36714577.427   191182474.8631       -647.953          32.000  
C32  22974618.702   119635053.574          20.272          30.000  
E01  24079021.141   126536109.994       -2772.863          26.000  
J01  36286636.884   190687580.274        -670.902          27.000    36286645.878   142396592.169        -503.550          26.000  
J02  39318333.084   206619226.498       -2017.406          38.000  
R02  20081364.261   107158006.422       -4060.939          26.000  
> 2021  9 12 13 10  3.9975724  0  8
C01  37325168.623   194361968.891       -1279.459          33.000  
C06  36147237.288   188228025.7651       -686.440          23.000  
C16  36714498.282   191182030.120        -648.115          32.000  
C32  22974401.353   119633940.953          19.319          32.000  
E01  24079344.317   126537808.200       -2774.349          22.000  
J01  36286555.640   190687148.085        -671.036          32.000    36286563.435   142396270.229        -500.299          25.000  
J02  39318507.564   206620140.949       -2017.342          38.000  
R02  20081921.275   107160948.598       -4063.301          28.000  
> 2021  9 12 13 10  4.9975716  0  9
C01  37325174.919   194361999.736       -1280.079          34.000  
C06  36147132.961   188227463.744        -688.395          23.000  
C16  36714382.862   191181429.324        -648.252          33.000  
C32  22974152.225   119632673.442          19.449          33.000  
G16  21921358.459   115197577.1161       1551.400          19.000  
G31  21446246.772   112700793.3521      -1943.311          28.000  
J01  36286443.818   190686558.987        -672.400          31.000    36286450.713   142395830.344        -500.240          26.000  
J02  39318651.764   206620897.794       -2017.550          38.000  
R02  20082447.111   107163732.503       -4064.416          31.000  
> 2021  9 12 13 10  5.9975708  0  9
C01  37325182.414   194362030.982       -1280.288          34.000  
C06  36147027.134   188226902.382        -686.931          25.000  
C16  36714261.745   191180828.052        -647.355          32.000  
C32  22973906.396   119631405.530          17.296          32.000  
G16  21920821.231   115194765.323        1551.380          25.000  
G31  21446375.083   112701476.438       -1943.478          28.000  
J01  36286328.098   190685969.753        -671.119          27.000    36286338.591   142395390.390        -500.776          25.000  
J02  39318794.765   206621654.162       -2015.790          39.000  
R02  20082968.450   107166517.564       -4065.614          30.000  
> 2021  9 12 13 10  6.9975698  0  7
C01  37325128.751   194361750.198       -1280.390          35.000  
C06  36146864.347   188226028.763        -687.414          24.000  
C16  36714088.765   191179914.112        -645.758          32.000  
C32  22973597.609                          18.144          32.000  
G16  21920224.944   115191638.640        1550.914          25.000  
J01  36286154.218   190685065.472        -670.843          25.000    36286166.210   142394713.127        -499.469          26.000  
J02  39318880.505   206622094.882       -2015.873          38.000  
> 2021  9 12 13 10  7.9975690  0  8
C01  37325134.447   194361781.640       -1280.329          31.000  
C06  36146759.719   188225466.925        -686.953          23.000  
C16  36713966.150                        -646.374          30.000  
C32  22973349.681   119628282.6421         19.424          30.000  
G16  21919688.615   115188827.071        1551.593          23.000  
G31  21446575.345   112702525.5591      -1940.410          30.000  
J01  36286041.796   190684475.944        -668.914          25.000    36286054.387   142394271.902        -500.720          27.000  
J02  39319021.408   206622849.592       -2015.055          39.000  
> 2021  9 12 13 10  8.9975683  0  8
C01  37325170.122   194361968.797       -1279.765          30.000  
C16  36713877.112                        -645.862          28.000  
C32  22973135.329   119627171.303          17.908          27.000  
G16  21919179.868   115186173.010        1551.094          18.000  
G31  21446733.935   112703363.100       -1940.671          29.000  
J01  36285960.552   190684041.768        -668.624          26.000    36285971.944   142393948.624        -500.494          26.000  
J02  39319200.084   206623761.820       -2015.645          35.000  
R02  20084509.683   107174712.5411      -4064.149          21.000  
> 2021  9 12 13 10  9.9975675  0  8
C01  37325175.818   194361999.399       -1279.369          32.000  
C06  36146569.351   188224496.6781       -686.184          20.000  
C16  36713765.889   191178261.6891       -647.309          30.000  
C32  22972891.898   119625903.956          18.549          28.000  
C33  25992565.821   135350181.2241      -4560.391          20.000  
G31  21446862.246   112704043.492       -1940.904          31.000  
J01  36285849.029   190683450.700        -669.566          27.000    36285859.522   142393507.935        -501.003          27.000  
J02  39319343.385   206624516.246       -2014.546          34.000  
> 2021  9 12 13 10 10.9975667  0  9
C01  37325182.114   194362029.741       -1279.268          33.000  
C06  36146457.828   188223933.456        -685.249          24.000  
C16  36713651.368   191177658.426        -646.309          29.000  
C32  22972648.466   119624637.135          17.605          28.000  
C33  25993199.882   135353492.905       -4559.380          19.000  
E01                                                                                                                                  24081294.167    94500169.8711      -2070.381          29.000  
J01  36285736.907   190682859.660        -669.666          30.000    36285747.400   142393067.913        -500.245          29.000  
J02  39319483.388   206625270.399       -2015.157          36.000  
R02  20085548.464   107180279.8791      -4062.235          17.000  
> 2021  9 12 13 10 11.9975657  0 10
C01  37325128.751   194361747.763       -1279.101          33.000  
C06  36146286.047   188223057.231        -685.310          23.000  
C16  36713473.291   191176742.899        -647.647          29.000  
C32  22972344.477   119623057.496          18.974          27.000  
E01                                                                                                                                  24081522.609    94501066.421       -2071.881          28.000  
G16  21917518.418   115177417.4351       1551.055          19.000  
G31  21447064.906   112705090.3291      -1941.266          24.000  
J01  36285565.726   190681953.931        -669.636          29.000    36285574.719   142392392.039        -500.821          28.000  
J02  39319568.829   206625709.378       -2014.557          37.000  
R02  20086007.746   107182741.728       -4062.277          20.000  
> 2021  9 12 13 10 12.9975649  0  8
C01  37325135.346   194361777.850       -1279.041          33.000  
C16  36713355.773   191176139.581        -645.074          29.000  
C32  22972102.245   119621790.002          18.797          27.000  
E01                                                                                                                                  24081810.110    94502195.261       -2071.294          29.000  
G16  21916984.787   115174607.029        1548.486          19.000  
J01  36285452.404   190681363.348        -669.584          30.000    36285462.897   142391951.715        -501.222          28.000  
J02  39319709.731   206626463.390       -2014.401          37.000  
R02  20086532.983   107185527.128       -4067.298          20.000  
> 2021  9 12 13 10 13.9975642  0  8
C01  37325170.422   194361963.983       -1278.915          33.000  
C06  36146094.779   188222083.1771       -683.253          22.000  
C16  36713270.332   191175692.234        -645.067          28.000  
C32  22971888.493   119620679.385          18.072          27.000  
E01  24082152.473   126552564.7561      -2773.089          27.000    24082127.590    94503440.746       -2072.307          29.000  
J01  36285372.060   190680931.184        -670.747          29.000    36285380.454   142391628.967        -500.680          28.000  
J02  39319882.112   206627374.782       -2014.244          36.000  
R02  20087093.894   107188474.570       -4066.862          25.000  
> 2021  9 12 13 10 14.9975634  0  9
C01  37325176.418   194361993.809       -1278.669          32.000  
C16  36713154.912   191175088.617        -648.064          27.000  
C32  22971643.862   119619412.803          17.394          26.000  
C33  25995703.449   135366579.4521      -4554.558          18.000  
E01  24082440.274   126554077.420       -2772.148          27.000    24082414.791    94504567.586       -2072.460          29.000  
G16  21915954.101   115169147.2201       1548.461          20.000  
J01  36285261.136   190680341.533        -670.101          29.000    36285268.631   142391188.146        -500.320          28.000  
J02  39320026.912   206628128.447       -2014.016          36.000  
R02  20087622.129   107191260.511       -4066.118          26.000  
> 2021  9 12 13 10 15.9975624  0  9
C01  37325121.556   194361711.205       -1278.501          32.000  
C16  36712981.032   191174172.741        -645.162          28.000  
C23  22670076.932   118049089.3651      -1834.239          25.000  
C32  22971341.671   119617835.261          16.083          25.000  
E01  24082668.416   126555276.000       -2774.405          27.000    24082642.334    94505461.136       -2071.854          28.000  
G31  21447563.461   112707655.6731      -1941.054          28.000  
J01  36285091.454   190679436.373        -670.293          30.000    36285096.251   142390512.181        -500.460          28.000  
J02  39320112.652   206628566.845       -2012.693          36.000  
R02  20088088.905   107193728.664       -4069.656          27.000  
> 2021  9 12 13 10 16.9975616  0 11
C01  37325127.252   194361740.477       -1277.794          33.000  
C06  36145701.751   188220067.7301       -681.535          20.000  
C16  36712870.109   191173568.943        -643.930          28.000  
C23  22670187.256   118049674.786       -1835.320          24.000  
C32  22971098.240   119616570.663          15.378          26.000  
C33  25996910.114   135372875.6471      -4552.049          19.000  
E01  24082955.317   126556783.664       -2773.256          27.000    24082930.434    94506590.976       -2069.471          28.000  
G31  21447693.571   112708336.047       -1940.775          29.000  
J01  36284980.231   190678846.128        -670.241          31.000    36284983.828   142390070.706        -498.163          27.000  
J02  39320254.754   206629320.226       -2012.778          37.000  
R02  20088615.641   107196518.063       -4069.162          27.000  
> 2021  9 12 13 10 17.9975611  0 10
C01  37325222.886   194362237.561       -1277.473          33.000  
C06  36145681.965   188219969.737        -684.636          21.000  
C16  36712841.928   191173433.225        -646.442          29.000  
C23  22670383.920   118050730.326       -1836.004          22.000  
E01                                                                                                                                  24083307.273    94508069.751       -2068.148          28.000  
G16  21914391.582   115160881.1821       1547.384          20.000  
G31  21447912.719   112709489.002       -1940.474          29.000  
J01  36284958.346   190678728.633        -670.164          30.000    36284961.344   142389981.409        -500.628          27.000  
J02  39320488.292   206630545.917       -2013.600          36.000  
R02  20089225.119   107199786.644       -4068.503          25.000  
> 2021  9 12 13 10 18.9975601  0 10
C01  37325168.923   194361953.721       -1277.447          30.000  
C06  36145509.884   188219095.138        -690.668          20.000  
C16  36712663.552   191172517.005        -645.476          27.000  
C23  22670433.985   118051004.337       -1834.653          25.000  
E01                                                                                                                                  24083535.116    94508964.301       -2070.595          28.000  
G16  21913798.593   115157757.591        1547.750          20.000  
G31  21447982.571   112709853.712       -1940.459          31.000  
J01  36284785.965   190677823.753        -671.729          25.000    36284789.263   142389306.580        -503.689          26.000  
J02  39320574.033   206630984.143       -2014.807          37.000  
R02  20089682.602   107202256.402       -4070.886          25.000  
> 2021  9 12 13 10 19.9975593  0  9
C01  37325175.818   194361982.308       -1277.508          33.000  
C16  36712548.132   191171913.412        -645.940          27.000  
C32  22970391.929   119612932.2151         15.003          25.000  
E01                                                                                                                                  24083825.015    94510102.141       -2071.244          28.000  
G16  21913264.063   115154949.617        1547.134          19.000  
G31  21448109.083   112710534.701       -1941.830          29.000  
J01  36284671.744   190677234.813        -671.260          29.000    36284678.040   142388869.909        -503.755          18.000  
J02  39320718.533   206631737.848       -2015.027          34.000  
R02  20090201.543   107205048.366       -4072.290          29.000  
> 2021  9 12 13 10 20.9975583  0  8
C01  37325121.256   194361698.605       -1277.490          35.000  
C16  36712373.653   191170998.819        -646.753          25.000  
C23  22670594.074   118051858.2521      -1831.024          11.000  
C32  22970088.838   119611357.657          13.071          28.000  
E01                                                                                                                                  24084053.757    94510999.691       -2071.019          28.000  
J01  36284497.865   190676329.775        -670.216          27.000    36284506.259   142388196.279        -503.191          20.000  
J02  39320799.177   206632176.294       -2013.392          35.000  
R02  20090662.923   107207520.876       -4072.348          30.000  
> 2021  9 12 13 10 21.9975578  0  8
C01  37325215.991   194362195.742       -1277.812          33.000  
C16  36712348.770   191170864.432        -645.530          26.000  
C32  22969936.244   119610564.971          11.924          30.000  
E01                                                                                                                                  24084431.495    94512481.466       -2069.890          28.000  
G31  21448397.184   112712055.5591      -1942.775          33.000  
J01  36284472.982   190676213.249        -671.314          26.000    36284484.374   142388111.325        -503.532          23.000  
J02  39321035.414   206633402.235       -2014.447          36.000  
R02  20091273.601   107210793.436       -4072.404          30.000  
> 2021  9 12 13 10 22.9975567  0  9
C01  37325131.449   194361756.521       -1278.124          32.000  
C16  36712144.911   191169792.293        -645.348          30.000  
C32  22969604.973   119608835.558          11.682          29.000  
E01                                                                                                                                  24084629.358    94513258.371       -2069.180          28.000  
G31  21448434.957   112712264.993       -1942.085          31.000  
G32  21077875.890   110765077.7131      -2505.774          22.000  
J01  36284269.723   190675151.474        -671.150          29.000    36284281.415   142387320.050        -501.565          24.000  
J02  39321086.678   206633682.492       -2012.602          36.000  
R02  20091701.704   107213106.482       -4072.918          28.000  
> 2021  9 12 13 10 23.9975560  0  9
C01  37325167.124   194361941.665       -1277.886          31.000  
C16  36712060.969   191169344.282        -643.776          27.000  
C32  22969393.919   119607730.654          12.284          30.000  
C33  26001377.921   135396041.9251      -4561.902          19.000  
E01                                                                                                                                  24084947.438    94514506.856       -2070.568          25.000  
G31  21448592.648   112713103.751       -1941.332          31.000  
J01  36284188.479   190674719.092        -669.694          28.000    36284198.672   142386997.769        -500.208          25.000  
J02  39321259.658   206634591.865       -2010.275          36.000  
R02  20092251.224   107216056.951       -4069.334          24.000  
> 2021  9 12 13 10 24.9975552  0 10
C01  37325173.120   194361970.240       -1277.439          32.000  
C16  36711944.650   191168739.129        -643.387          32.000  
C23  22671072.843   118054353.7831      -1833.786          19.000  
C32  22969150.488   119606469.117          12.961          29.000  
C33  26002014.380   135399353.734       -4559.314          24.000  
E01                                                                                                                                  24085234.639    94515633.696       -2070.951          26.000  
G31  21448721.259   112713783.728       -1939.795          31.000  
J01  36284078.155   190674128.569        -670.659          26.000    36284083.851   142386554.988        -497.252          22.000  
J02  39321405.358   206635343.759       -2011.537          37.000  
R02  20092778.259   107218847.701       -4072.148          21.000  
> 2021  9 12 13 10 25.9975542  0  7
C16  36711766.573   191167821.617        -643.817          30.000  
C23  22671126.206   118054627.341       -1835.413          25.000  
C32  22968849.197   119604895.270          12.770          29.000  
E01                                                                                                                                  24085462.781    94516528.246       -2073.000          27.000  
J01  36283908.473   190673223.491        -672.227          22.000    36283911.171   142385874.652        -497.921          23.000  
J02  39321489.000   206635779.558       -2011.024          35.000  
R02  20093239.040   107221320.105       -4072.777          23.000  
> 2021  9 12 13 10 26.9975537  0  6
C16  36711738.992   191167684.742        -643.691          28.000  
C33  26003328.370   135406126.4211      -4555.919          21.000  
E01                                                                                                                                  24085842.318    94518018.021       -2073.720          24.000  
G31  21449006.062   112715299.9341      -1939.870          27.000  
J01  36283890.485   190673107.622        -671.115          25.000    36283887.787   142385784.509        -501.351          20.000  
J02  39321720.140   206637003.674       -2011.561          34.000  
> 2021  9 12 13 10 27.9975526  0  7
C06  36144458.212   188213610.2351       -678.961          32.000  
C16  36711533.634   191166611.059        -643.296          32.000  
E01                                                                                                                                  24086041.381    94518798.926       -2069.444          25.000  
G31  21449045.635   112715506.066       -1938.442          31.000  
J01  36283689.924   190672044.186        -668.129          27.000    36283686.926   142384991.458        -500.470          18.000  
J02  39321772.603   206637280.887       -2009.682          31.000  
R02  20094313.796   107226908.8451      -4073.937          17.000  
> 2021  9 12 13 10 28.9975519  0  5
C16  36711447.294   191166161.240        -642.981          34.000  
E01                                                                                                                                  24086359.161    94520046.411       -2070.941          29.000  
G16  21908389.138   115129392.4621       1546.566          24.000  
J01  36283607.481   190671608.723        -666.924          28.000    36283605.982   142384668.526        -502.395          17.000  
J02  39321942.586   206638188.057       -2009.968          29.000  
> 2021  9 12 13 10 29.9975511  0  7
C06  36144267.844   188212625.7041       -678.828          21.000  
C16  36711331.274   191165554.639        -641.254          33.000  
E01                                                                                                                                  24086646.661    94521174.251       -2069.986          28.000  
G16  21907859.405   115126585.965        1545.926          25.000  
G31  21449331.936   112717021.1991      -1939.748          31.000  
J01  36283493.860   190671016.431        -669.807          28.000    36283493.260   142384228.121        -500.593          17.000  
J02  39322082.888   206638937.557       -2010.016          34.000  
> 2021  9 12 13 10 30.9975503  0  8
C16  36711214.955   191164946.744        -641.497          32.000  
C32  22967668.914   119598741.5741         10.532          25.000  
E01                                                                                                                                  24086934.162    94522303.091       -2070.470          27.000  
G16  21907330.271   115123779.951        1544.641          23.000  
G31  21449460.248   112717700.002       -1938.927          30.000  
J01  36283381.738   190670425.099        -669.567          27.000    36283380.538   142383786.542        -498.717          19.000  
J02  39322224.091   206639687.038       -2010.275          33.000  
R02  20095894.602   107235453.8581      -4075.234          29.000  
> 2021  9 12 13 10 31.9975496  0  5
C06  36144082.572   188211644.1011       -680.844          21.000  
C16  36711126.816   191164494.389        -639.523          27.000  
E19  24658854.530   129583103.6391      -2929.308          33.000  
G16  21906824.821   115121133.462        1542.769          21.000  
J01  36283298.995   190669990.965        -668.096          29.000    36283298.695   142383461.057        -499.330          25.000  
> 2021  9 12 13 10 32.9975485  0  5
C06  36143882.311   188210608.979        -684.459          27.000  
C16  36710918.160   191163417.721        -642.519          25.000  
E19  24659081.773   129584301.468       -2931.827          32.000  
J01  36283095.736   190668926.543        -669.084          31.000    36283096.635   142382666.626        -499.827          22.000  
R02  20096870.426   107240725.0541      -4075.722          29.000  
> 2021  9 12 13 10 33.9975478  0  6
C33  26007692.749   135428799.3651      -4556.968          28.000  
E19  24659431.931   129586129.539       -2930.896          32.000  
G16  21905699.999   115115211.1561       1543.513          19.000  
J01  36283013.892   190668493.029        -669.802          30.000    36283014.192   142382343.240        -499.961          25.000  
J02  39322631.209                       -2010.965          35.000  
R02  20097421.445   107243681.208       -4076.516          25.000  
> 2021  9 12 13 10 34.9975470  0  8
C06  36143696.440   188209634.1771       -683.552          19.000  
C32  22966696.087   119593551.0691          8.378          26.000  
C33  26008327.110   135432107.545       -4557.587          26.000  
E19  24659750.010   129587800.460       -2931.443          33.000  
G31  21449954.605   112720257.1071      -1939.114          30.000  
J01  36282902.669   190667902.220        -669.061          29.000    36282902.070   142381902.272        -499.476          28.000  
J02  39322772.411   206642571.0651      -2009.934          36.000  
R02  20097942.784   107246478.753       -4078.502          30.000  
> 2021  9 12 13 10 35.9975462  0  6
C06  36143590.913   188209068.498        -681.923          26.000  
E19  24660069.289   129589472.080       -2932.253          33.000  
G31  21450083.816   112720935.807       -1939.184          28.000  
J01  36282789.348   190667310.733        -668.997          29.000    36282790.247   142381460.944        -499.818          29.000  
J02  39322913.913   206643320.582       -2010.246          39.000  
R02  20098462.624   107249277.455       -4078.503          33.000  
> 2021  9 12 13 10 36.9975455  0  7
C33  26009623.412   135438884.9051      -4558.771          26.000  
E19  24660417.049   129591301.314       -2935.895          30.000  
G16  21904108.401   115106959.2901       1542.898          19.000  
G31  21450242.406   112721772.168       -1939.032          28.000  
J01  36282705.406   190666876.551        -667.601          30.000  
J02  39323085.694   206644226.921       -2009.439          39.000  
R02  20099014.842   107252236.547       -4078.718          34.000  
> 2021  9 12 13 10 37.9975444  0  5
C06  36143312.705   188207616.9761       -678.840          24.000  
C25  24517029.014   127666603.6831      -3171.325          19.000  
C33  26010166.936   135441724.984       -4555.746          27.000  
J01  36282501.847   190665810.939        -668.428          21.000  
J02  39323136.659   206644503.150       -2010.346          35.000  
> 2021  9 12 13 10 38.9975439  0  9
C06  36143291.720   188207515.755        -680.711          28.000  
C25  24517487.097   127668993.933       -3169.750          16.000  
C32  22965756.837   119588672.9741          8.706          23.000  
C33  26010887.937   135445499.863       -4555.021          26.000  
G16  21903053.132   115101352.7981       1544.583          19.000  
G31  21450496.330   112723128.5061      -1938.548          31.000  
J01  36282477.863   190665691.711        -669.128          27.000  
J02  39323372.596   206645724.478       -2008.924          37.000  
R02  20100063.815   107257836.9291      -4081.411          25.000  
> 2021  9 12 13 10 39.9975429  0  6
C16  36710097.928   191159166.0631       -640.015          27.000  
C33  26011461.140   135448493.549       -4555.778          29.000  
G31  21450563.184   112723491.304       -1938.827          33.000  
J01  36282305.183   190664785.347        -669.213          31.000  
J02  39323455.938   206646157.790       -2009.191          38.000  
R02  20100532.091   107260318.005       -4080.835          30.000  
> 2021  9 12 13 10 40.9975421  0  7
C06  36143016.810   188206064.3411       -679.874          25.000  
C16  36709983.407   191158558.341        -641.820          26.000  
C23  22672810.740   118063241.0101      -1834.668          18.000  
G16  21901921.116   115095432.2701       1540.042          20.000  
G31  21450693.594   112724170.248       -1939.633          27.000  
J01  36282191.861   190664194.618        -670.588          28.000  
J02  39323597.440   206646907.262       -2009.856          37.000  
> 2021  9 12 13 10 41.9975411  0  5
C06  36142849.226   188205183.789        -680.434          27.000  
G16  21901326.627   115092317.355        1539.213          20.000  
G31  21450761.647   112724534.616       -1939.895          29.000  
J01  36282020.080   190663289.668        -670.957          27.000  
J02  39323679.283   206647340.947       -2008.048          41.000  
> 2021  9 12 13 10 42.9975404  0  9
C06  36142771.580   188204770.780        -679.398          27.000  
C16  36709725.586   191157187.9801       -640.591          30.000  
C23  22673003.206   118064255.2721      -1833.307          21.000  
C32  22964695.572   119583180.9281          6.630          26.000  
C33  26013339.640   135458261.2901      -4555.080          27.000  
G16  21900823.276   115089674.543        1540.330          25.000  
G31  21450919.937   112725370.718       -1938.494          29.000  
J01  36281936.438   190662856.946        -670.117          27.000  
J02  39323850.165   206648246.048       -2009.666          41.000  
> 2021  9 12 13 10 43.9975398  0 11
C06  36142719.416   188204513.481        -679.551          29.000  
C16  36709667.426   191156891.654        -640.189          29.000  
C23  22673177.386   118065151.575       -1832.633          21.000  
C32  22964509.401   119582236.341           8.816          22.000  
C33  26014035.158   135461879.825       -4555.127          26.000  
E19  24662612.429   129602848.0541      -2931.867          32.000  
E31  24334281.527   127877342.2991       -379.114          28.000  
G16  21900350.203   115087189.008        1540.218          19.000  
J01  36281884.274   190662581.317        -669.571          27.000  
J02  39324056.422   206649308.725       -2010.248          37.000  
R02  20102666.613   107271685.4121      -4082.351          27.000  
> 2021  9 12 13 10 44.9975388  0 10
C06  36142549.434   188203631.641        -679.057          28.000  
C16  36709487.551   191155971.088        -640.607          30.000  
C23  22673233.747   118065422.666       -1832.486          21.000  
C33  26014608.062   135464874.330       -4556.958          24.000  
E19  24662869.651   129604204.981       -2932.907          34.000  
E31  24334053.086   127876146.563        -380.162          27.000  
G16  21899762.910   115084073.298        1539.307          25.000  
J01  36281711.894   190661673.934        -667.641          30.000  
J02  39324134.368   206649741.421       -2006.305          35.000  
R02  20103129.493   107274168.319       -4084.967          33.000  
> 2021  9 12 13 10 45.9975380  0 10
C06  36142436.712   188203062.077        -678.597          29.000  
C16  36709367.334   191155363.103        -640.689          24.000  
C23  22673345.270   118066005.976       -1832.029          22.000  
C32  22963964.678   119579405.6361          8.484          21.000  
C33  26015245.121   135468181.764       -4555.834          24.000  
E19  24663186.531   129605876.895       -2932.530          32.000  
G31  21451306.969   112727402.9291      -1937.437          31.000  
J01  36281599.771   190661081.234        -667.979          31.000  
J02  39324277.069   206650487.815       -2006.636          34.000  
R02  20103653.230   107276972.289       -4083.408          26.000  
> 2021  9 12 13 10 46.9975370  0 10
C06  36142267.029   188202180.107        -679.270          24.000  
C16  36709191.655   191154443.208        -641.625          27.000  
C25  24520318.037   127683591.6041      -3168.540          19.000  
C33  26015819.223   135471176.356       -4554.986          24.000  
E19  24663443.453   129607234.518       -2932.382          30.000  
G16  21898634.191   115078158.7951       1538.142          27.000  
G31  21451376.521   112727765.099       -1937.855          32.000  
J01  36281425.892   190660173.804        -667.580          28.000  
J02  39324360.712   206650921.461       -2011.025          37.000  
R02  20104115.810   107279456.020       -4082.891          33.000  
> 2021  9 12 13 10 47.9975365  0  6
C06  36142248.442   188202079.695        -680.379          26.000  
C16  36709166.473   191154304.045        -640.123          25.000  
C23  22673598.295   118067329.1521      -1833.794          16.000  
G31  21451594.170   112728915.606       -1938.107          29.000  
J01  36281403.707   190660053.563        -667.244          26.000  
R02  20104729.785   107282739.306       -4084.457          31.000  
> 2021  9 12 13 10 48.9975357  0  8
C06  36142136.619   188201509.885        -678.651          23.000  
C16  36709051.053   191153694.861        -639.294          22.000  
C23  22673708.618   118067913.793       -1833.461          18.000  
C33  26017182.080   135478255.5351      -4552.567          17.000  
G31  21451721.882   112729592.274       -1936.960          25.000  
J01  36281293.083   190659461.144        -668.486          32.000  
J02  39324734.253   206652890.7781      -2007.637          28.000  
R02  20105258.020   107285543.981       -4085.806          27.000  
> 2021  9 12 13 10 49.9975347  0  6
C06  36141968.436   188200627.352        -678.048          23.000  
C16  36708876.873   191152772.655        -638.927          23.000  
C32  22962979.560   119574230.8931          8.606          18.000  
G31  21451790.834   112729953.572       -1936.380          28.000  
J02  39324815.497   206653322.017       -2006.037          24.000  
R02  20105731.092   107288030.567       -4087.476          22.000  
> 2021  9 12 13 10 50.9975340  0  9
C06  36141888.391   188200213.191        -679.105          20.000  
C16  36708792.032   191152318.004        -637.740          24.000  
C25  24521860.169   127691590.4011      -3169.257          18.000  
C33  26018419.323   135484703.7341      -4551.236          19.000  
G16  21896571.319   115067278.1631       1539.260          20.000  
G31  21451949.125   112730787.105       -1935.470          26.000  
J01  36281042.157   190658121.3531       -670.377          28.000  
J02  39324985.179   206654224.204       -2004.071          27.000  
R02  20106287.507   107290999.096       -4089.514          28.000  
> 2021  9 12 13 10 51.9975332  0  7
C16  36708676.612   191151707.178        -638.860          20.000  
C32  22962528.073   119571870.3291         10.850          16.000  
C33  26019053.084   135488006.698       -4552.888          20.000  
E01  24092900.932   126609048.7361      -2772.021          28.000  
J01  36280931.234   190657531.868        -671.352          27.000  
J02  39325126.681   206654967.645       -2003.843          25.000  
R02  20106813.643   107293808.967       -4090.091          29.000  
> 2021  9 12 13 10 52.9975324  0  9
C06  36141672.541   188199070.4721       -676.677          26.000  
C16  36708559.093   191151096.935        -639.943          23.000  
C32  22962283.742   119570613.595           6.529          15.000  
C33  26019685.646   135491310.868       -4551.428          20.000  
E01  24093188.733   126610560.400       -2770.050          30.000  
G31  21452208.745   112732135.3791      -1933.178          25.000  
J01  36280817.013   190656943.176        -670.866          23.000  
J02  39325267.584   206655712.287       -2005.256          23.000  
R02  20107343.676   107296619.104       -4090.027          29.000  
> 2021  9 12 13 10 53.9975316  0  7
C06  36141561.917   188198497.498        -675.786          22.000  
C16  36708441.275   191150486.000        -637.488          27.000  
C33  26020320.307   135494613.380       -4550.680          20.000  
G31  21452336.157   112732808.351       -1934.168          28.000  
J01  36280705.190   190656353.375        -670.810          28.000  
J02  39325410.285   206656457.366       -2005.777          27.000  
R02  20107869.512   107299429.547       -4090.219          26.000  
> 2021  9 12 13 10 54.9975306  0  8
C06  36141392.235   188197610.999        -674.389          21.000  
C16  36708264.397   191149562.072        -637.234          26.000  
C23  22674284.519   118070952.5451      -1833.173          16.000  
C33  26020895.309   135497604.600       -4553.212          20.000  
G16  21894380.736   115055757.4831       1541.795          18.000  
G31  21452403.310   112733167.669       -1934.850          29.000  
J01  36280534.609   190655448.654        -670.722          27.000  
J02  39325489.730   206656886.988       -2004.368          27.000  
> 2021  9 12 13 10 55.9975299  0  9
C06  36141311.291   188197191.859        -674.856          19.000  
C16  36708177.158   191149105.891        -637.080          27.000  
C23  22674424.223   118071694.013       -1834.460          17.000  
C32  22961531.263   119566693.8961          4.890          18.000  
G16  21893878.283   115053113.668        1540.853          19.000  
G31  21452561.001   112733999.623       -1934.966          29.000  
J01  36280451.266   190655017.501        -671.705          28.000  
J02  39325660.012   206657788.387       -2004.593          26.000  
R02  20108900.798   107304888.6591      -4090.492          22.000  
> 2021  9 12 13 10 56.9975291  0  8
C06  36141202.166   188196618.072        -675.801          25.000  
C16  36708059.339   191148493.349        -636.318          27.000  
C23  22674536.945   118072280.171       -1835.044          17.000  
C32  22961290.829   119565441.545           1.804          23.000  
G31  21452691.111   112734673.864       -1933.960          30.000  
J01  36280337.945   190654428.978        -671.944          26.000  
J02  39325801.814   206658534.058       -2006.829          31.000  
R02  20109428.133   107307700.090       -4091.086          28.000  
> 2021  9 12 13 10 57.9975283  0  6
C06  36141092.742   188196044.967        -675.865          28.000  
G16  21892814.020   115047516.5581       1536.742          20.000  
G31  21452820.322   112735347.342       -1933.571          32.000  
J01  36280226.122   190653840.050        -671.775          28.000  
J02  39325944.815   206659279.851       -2005.829          24.000  
R02  20109957.266   107310511.820       -4092.036          27.000  
> 2021  9 12 13 10 58.9975276  0  6
C06  36141011.498   188195629.515        -676.349          25.000  
G16  21892313.067   115044876.453        1536.881          23.000  
G31  21452978.912   112736177.654       -1933.167          31.000  
J01  36280144.579   190653409.059        -671.561          29.000  
J02  39326114.198   206660182.026       -2004.787          22.000  
R02  20110513.981   107313485.163       -4094.838          27.000  
> 2021  9 12 13 10 59.9975265  0  6
C06  36140812.136   188194587.403        -673.615          25.000  
C33  26024047.327   135513983.2481      -4558.200          24.000  
G31  21453018.784   112736377.176       -1932.201          30.000  
J01  36279941.919   190652345.871        -669.887          28.000  
J02  39326168.460   206660453.038       -2003.486          21.000  
R02  20110940.586   107315819.852       -4095.044          25.000  
> 2021  9 12 13 11  0.9975260  0  8
C06  36140790.851   188194480.618        -675.004          23.000  
C23  22675007.619   118074773.7651      -1828.416          17.000  
C33  26024772.225   135517761.067       -4558.215          27.000  
G16  21891254.500   115039284.0701       1534.732          25.000  
G31  21453236.134   112737521.852       -1932.810          29.000  
J01  36279919.434   190652228.515        -669.854          25.000  
J02  39326400.499   206661668.203       -2001.485          19.000  
R02  20111557.558   107319114.344       -4094.150          24.000  
> 2021  9 12 13 11  1.9975250  0  6
C06  36140619.969   188193593.075        -673.965          19.000  
C33  26025347.527   135520758.471       -4558.988          26.000  
G16  21890660.311   115036173.786        1534.273          25.000  
G31  21453303.287   112737879.196       -1933.370          29.000  
J01  36279749.152   190651324.108        -671.231          30.000  
R02  20112021.337   107321609.585       -4094.762          29.000  
> 2021  9 12 13 11  2.9975242  0  6
C06  36140510.245   188193017.781        -674.032          21.000  
C33  26025986.085   135524067.954       -4557.529          25.000  
G16  21890125.481   115033380.466        1531.896          25.000  
G31  21453430.999   112738551.908       -1933.148          31.000  
J01  36279635.531   190650734.568        -670.310          29.000  
R02  20112548.372   107324424.148       -4095.098          31.000  
> 2021  9 12 13 11  3.9975235  0  4
G16  21889623.329   115030746.046        1532.547          24.000  
G31  21453588.690   112739382.731       -1933.796          31.000  
J01  36279553.987   190650300.581        -667.581          26.000  
R02  20113105.087   107327399.312       -4094.299          31.000  
> 2021  9 12 13 11  4.9975227  0  5
G16  21889088.200   115027952.871        1534.172          25.000  
G31  21453717.301   112740056.142       -1933.515          28.000  
J01  36279441.865   190649708.589        -669.532          29.000  
J02  39326946.122   206664469.6771      -2001.298          20.000  
R02  20113632.122   107330214.591       -4096.077          28.000  
> 2021  9 12 13 11  5.9975219  0  5
G16  21888555.468   115025159.288        1531.462          25.000  
G31  21453844.113   112740729.222       -1932.685          30.000  
J01  36279330.042   190649118.439        -670.744          28.000  
J02  39327085.825   206665212.034       -2003.667          21.000  
R02  20114157.359   107333031.687       -4098.023          28.000  
> 2021  9 12 13 11  6.9975209  0  5
G16  21887961.280   115022052.584        1530.939          25.000  
G31  21453913.065   112741087.194       -1933.556          30.000  
J01  36279158.861   190648214.485        -672.149          23.000  
J02  39327167.369   206665639.896       -2002.632          23.000  
R02  20114622.637   107335530.117       -4097.865          26.000  
> 2021  9 12 13 11  7.9975201  0  5
G16  21887430.347   115019260.034        1532.512          29.000  
G31  21454042.276   112741759.812       -1934.932          27.000  
J01  36279047.938   190647625.206        -671.378          24.000  
J02  39327313.967   206666382.652       -2003.877          20.000  
R02  20115151.171   107338347.015       -4096.110          26.000  
> 2021  9 12 13 11  8.9975194  0  3
G31  21454200.566   112742591.398       -1934.069          25.000  
J01  36278966.994   190647193.923        -671.566          26.000  
R02  20115707.585   107341324.018       -4096.982          27.000  
> 2021  9 12 13 11  9.9975186  0  4
G16  21886402.359   115013828.5351       1535.935          22.000  
G31  21454328.577   112743263.976       -1932.570          30.000  
J01  36278856.370   190646604.664        -670.678          26.000  
R02  20116243.015   107344141.223       -4096.606          28.000  
> 2021  9 12 13 11 10.9975178  0  4
G16  21885873.225   115011034.610        1530.840          25.000  
G31  21454456.289   112743936.100       -1932.609          29.000  
J01  36278745.147   190646015.488        -670.806          26.000  
R02  20116779.044   107346959.385       -4098.455          29.000  
> 2021  9 12 13 11 11.9975168  0  4
G16  21885282.934   115007929.394        1529.045          28.000  
G31  21454524.342   112744293.488       -1932.802          27.000  
J01  36278572.467   190645110.379        -669.465          27.000  
R02  20117247.919   107349459.413       -4100.370          26.000  
> 2021  9 12 13 11 12.9975160  0  5
G16  21884753.800   115005140.172        1528.967          26.000  
G31  21454650.554   112744965.848       -1932.334          29.000  
J01  36278459.145   190644519.614        -670.692          26.000  
J02  39327994.196   206669943.2191      -2000.020          27.000  
R02  20117774.954   107352279.198       -4098.047          27.000  
> 2021  9 12 13 11 13.9975153  0  5
G16  21884253.447   115002506.880        1532.086          26.000  
G31  21454807.646   112745795.627       -1932.497          32.000  
J01  36278377.602   190644087.881        -670.782          24.000  
J02  39328165.078   206670841.229       -2001.116          24.000  
R02  20118331.369   107355258.042       -4099.562          26.000  
> 2021  9 12 13 11 14.9975145  0  5
G16  21883721.315   114999715.293        1529.417          25.000  
G31  21454934.458   112746468.265       -1932.438          30.000  
J01  36278264.580   190643498.692        -671.393          24.000  
J02  39328302.683   206671581.369       -2000.306          26.000  
R02  20118857.505   107358078.957       -4103.919          28.000  
> 2021  9 12 13 11 15.9975137  0  5
G16  21883186.185   114996926.636        1528.387          25.000  
G31  21455061.870   112747140.174       -1932.534          28.000  
J01  36278151.258   190642908.578        -669.813          26.000  
J02  39328441.187   206672321.473       -2000.769          25.000  
R02  20119382.142   107360904.090       -4105.790          28.000  
> 2021  9 12 13 11 16.9975127  0  5
G16  21882594.995   114993822.707        1527.259          27.000  
G31  21455128.424   112747496.942       -1932.408          26.000  
J01  36277982.775   190642002.119        -669.163          27.000  
J02  39328522.131   206672746.828       -2001.639          27.000  
R02  20119846.220   107363410.024       -4105.047          28.000  
> 2021  9 12 13 11 17.9975122  0  3
G16  21882148.604   114991505.886        1529.704          24.000  
J01  36277960.890   190641882.652        -668.581          26.000  
J02  39328751.172   206673960.281       -2001.903          27.000  
> 2021  9 12 13 11 18.9975112  0  4
G16  21881560.111   114988400.351        1530.168          22.000  
G31  21455412.327   112748999.0731      -1932.481          29.000  
J01  36277788.210   190640976.237        -670.172          24.000  
R02  20120928.471   107369216.5721      -4101.397          24.000  
> 2021  9 12 13 11 19.9975104  0  4
G16  21881028.879   114985610.121        1527.389          24.000  
G31  21455540.938   112749671.737       -1932.608          28.000  
J02  39328968.821   206675127.4631      -2002.134          29.000  
R02  20121467.498   107372039.736       -4104.752          25.000  
> 2021  9 12 13 11 20.9975096  0  5
G16  21880503.343   114982824.624        1523.929          21.000  
G31  21455669.549   112750345.227       -1932.824          27.000  
J01  36277561.567   190639797.2791       -671.805          27.000  
J02  39329108.225   206675868.880       -2001.446          24.000  
R02  20122001.128   107374865.166       -4106.065          27.000  
> 2021  9 12 13 11 21.9975089  0  5
G16  21880002.390   114980197.658        1523.779          22.000  
G31  21455825.741   112751175.473       -1932.390          29.000  
J01  36277476.426   190639366.422        -671.927          27.000  
J02  39329275.809   206676768.244       -2002.470          27.000  
R02  20122562.340   107377851.937       -4107.633          29.000  
> 2021  9 12 13 11 22.9975081  0  5
G16  21879473.556   114977412.246        1525.069          23.000  
G31  21455954.652   112751847.623       -1932.345          27.000  
J01  36277363.104   190638777.145        -671.114          27.000  
J02  39329414.313   206677509.333       -2000.553          23.000  
R02  20123090.874   107380679.826       -4107.950          29.000  
> 2021  9 12 13 11 23.9975071  0  5
G16  21878887.461   114974311.920        1525.323          24.000  
G31  21456024.803   112752205.091       -1933.123          26.000  
J01  36277191.323   190637873.126        -671.748          26.000  
J02  39329494.657   206677934.062       -1999.659          26.000  
R02  20123558.550   107383187.854       -4107.776          30.000  
> 2021  9 12 13 11 24.9975063  0  5
G16  21878356.829   114971526.716        1524.196          21.000  
G31  21456152.814   112752877.366       -1933.548          29.000  
J01  36277078.601   190637284.325        -672.165          25.000  
J02  39329634.660   206678672.566       -1998.351          25.000  
R02  20124092.481   107386015.298       -4107.438          32.000  
