     3.04           OBSERVATION DATA    M: Mixed            RINEX VERSION / TYPE
Higeo_Hi1105        Huawei CBG          20220209 110411 UTC PGM / RUN BY / DATE 
************************************************************COMMENT             
* If you have any problem,                                 *COMMENT             
*     please contact with LBS Technology Group, thanks.    *COMMENT             
*                                                          *COMMENT             
* Version Higeo2RinexV1.1 2020.07.21                       *COMMENT             
* Fuction:  Convert Higeo Log to Rinex file                *COMMENT             
*                                                          *COMMENT             
* Note that the verision support B1C B2A signal            *COMMENT             
*     BDS: C1D L1D D1D S1D indicate BDS B1C                *COMMENT             
*     BDS: C5D L5D D5D S5D indicate BDS B2A                *COMMENT             
*     Reference: RINEX V3.04                               *COMMENT             
*                                                          *COMMENT             
* Copyright(C) Huawei Technologies Co., Ltd. 2019 - 2020   *COMMENT             
*     All rights reserved.                                 *COMMENT             
************************************************************COMMENT             
                                                            MARKER NAME         
                                                            MARKER NUMBER       
                                                            MARKER TYPE         
                                                            OBSERVER / AGENCY   
                                                            REC # / TYPE / VERS 
                                                            ANT # / TYPE        
        0.0000        0.0000        0.0000                  APPROX POSITION XYZ 
        0.0000        0.0000        0.0000                  ANTENNA: DELTA H/E/N
G    8 C1C L1C D1C S1C C5I L5I D5I S5I                      SYS / # / OBS TYPES 
R    4 C1C L1C D1C S1C                                      SYS / # / OBS TYPES 
E    8 C1C L1C D1C S1C C5I L5I D5I S5I                      SYS / # / OBS TYPES 
J    8 C1C L1C D1C S1C C5I L5I D5I S5I                      SYS / # / OBS TYPES 
C   12 C2I L2I D2I S2I C1D L1D D1D S1D C5D L5D D5D S5D      SYS / # / OBS TYPES 
  2021    12     7     4    24    6.0000000     GPS         TIME OF FIRST OBS   
  2021    12     7     4    45   37.0000000     GPS         TIME OF LAST OBS    
G                                                           SYS / PHASE SHIFT   
R                                                           SYS / PHASE SHIFT   
E                                                           SYS / PHASE SHIFT   
J                                                           SYS / PHASE SHIFT   
C                                                           SYS / PHASE SHIFT   
  0                                                         GLONASS SLOT / FRQ #
 C1C    0.000 C1P    0.000 C2C    0.000 C2P    0.000        GLONASS COD/PHS/BIS 
                                                            END OF HEADER       
> 2021 12  7  4 24  6.0000000  0  3                     
G10  20025581.000        4906.191         481.951          20.000                                                                  
G32  21080565.055       -8724.778       -1018.587          29.000                                                                  
C21  21572928.883         668.601         119.411          26.000                                                                                                                                  
> 2021 12  7  4 24  7.0000000  0  3                     
G10  20025673.426        7438.063         481.172          24.000                                                                  
G32  21080371.575      -14075.254       -1019.302          29.000                                                                  
C21  21572953.784        1255.837         114.516          29.000                                                                                                                                  
> 2021 12  7  4 24  8.0000000  0  6                     
G10  20025757.405        9953.428         476.052          28.000                                                                  
G25  21521392.759       -8028.685       -1883.497          24.000                                                                  
G31  22083431.722      -11739.633       -2781.867          21.000                                                                  
G32  21080176.401      -19443.737       -1021.190          28.000                                                                  
R 8  20388914.826                                          22.000  
C21  21572973.232        1798.054         115.193          27.000                                                                                                                                  
> 2021 12  7  4 24  9.0000000  0  6                     
G10  20025848.914       12450.101         475.222          29.000                                                                  
G25  21521043.598      -17930.598       -1881.870          20.000                                                                  
G31  22082897.231      -26380.660       -2787.390          24.000                                                                  
G32  21079982.329      -24807.149       -1021.316          28.000                                                                  
R 8  20369845.093                                          23.000  
C21  21572990.674        2353.516         102.051          28.000                                                                                                                                  
> 2021 12  7  4 24 10.0000000  0  7                     
G10  20025942.509       14953.014         476.937          29.000                                                                  
G21  24768702.616       -5775.852        -718.472          18.000                                                                  
G25  21520683.827      -27826.459       -1882.642          17.000                                                                  
G31  22082376.141      -41035.991       -2789.430          29.000                                                                  
G32  21079787.321      -30189.151       -1025.160          30.000                                                                  
R 8  20369470.411                                          22.000  
C21  21573009.005        2877.213          98.569          27.000                                                                                                                                  
> 2021 12  7  4 24 11.0000000  0  8                     
G10  20026032.823       17447.083         474.042          30.000                                                                  
G21  24814435.359       -9560.764        -720.943          18.000                                                                  
G25  21520325.417      -37725.238       -1884.310          16.000                                                                  
G31  22081845.083      -55702.332       -2791.542          30.000                                                                  
G32  21079592.951      -35580.229       -1023.936          30.000                                                                  
R 8  20369102.325                                          25.000  
R 9  20373229.480                                          19.000  
C21  21573027.625        3387.942          96.240          29.000                                                                                                                                  
> 2021 12  7  4 24 12.0000000  0  8                     
G10  20026127.342       19935.283         472.181          32.000                                                                  
G21  24814298.318      -13345.548        -720.906          18.000                                                                  
G25  21519973.585      -47648.122       -1888.511          20.000                                                                  
G31  22081312.991      -70373.389       -2792.852          28.000                                                                  
G32  21079400.735      -40972.027       -1027.534          35.000                                                                  
R 8  20368733.289                                          29.000  
R 9  20381902.199                                          20.000  
C21  21573046.288        3880.229          94.063          30.000                                                                                                                                  
> 2021 12  7  4 24 13.0000000  0  8                     
G10  20026218.424       22418.677         470.683          29.000                                                                  
G21  24814107.779      -17146.910        -727.090          22.000                                                                  
G25  21519624.546      -57578.089       -1891.726          20.000                                                                  
G31  22080781.436      -85048.827       -2795.199          25.000                                                                  
G32  21079207.464      -46374.189       -1028.059          35.000                                                                  
R 8  20368365.919                                          29.000  
R 9  20382355.111                                          20.000  
C21  21573064.724        4373.101          94.016          27.000                                                                                                                                  
> 2021 12  7  4 24 14.0000000  0  7                     
G10  20026307.160       24885.246         469.967          28.000                                                                  
G21  24813967.466      -20960.201        -725.503          21.000                                                                  
G25  21519259.898      -67516.070       -1892.326          20.000                                                                  
G31  22080249.545      -99735.695       -2792.386          19.000                                                                  
G32  21079010.686      -51786.527       -1031.609          33.000                                                                  
R 8  20368000.808                                          29.000  
C21  21573081.764        4849.198          89.454          26.000                                                                                                                                  
> 2021 12  7  4 24 15.0000000  0  7                     
G10  20026398.486       27358.693         468.472          27.000                                                                  
G21  24813829.560      -24774.981        -726.706          22.000                                                                  
G25  21518898.696      -77460.619       -1892.719          22.000    21518893.890      -18279.587       -1400.810          19.000  
G31  22079717.244     -114422.652       -2794.711          22.000                                                                  
G32  21078813.079      -57202.760       -1032.059          34.000                                                                  
R 8  20367635.243                                          30.000  
C21  21573099.171        5317.902          91.293          27.000                                                                                                                                  
> 2021 12  7  4 24 16.0000000  0  8                     
G10  20026559.133       31824.698         466.734          27.000                                                                  
G21  24813563.745      -31714.577        -725.402          20.000                                                                  
G25  21518241.014      -95558.416       -1895.373          24.000    21518238.608      -28348.957       -1416.193          23.000  
G31  22078749.800     -141133.543       -2796.521          18.000                                                                  
G32  21078457.233      -67076.145       -1034.259          33.000                                                                  
R 8  20366968.165                                          25.000  
C13  37135675.146        9243.585        1699.118          27.000                                                                                                                                  
C21  21573131.602        6180.943          90.911          28.000                                                                                                                                  
> 2021 12  7  4 24 17.0000000  0  9                     
G10  20026646.620       34280.003         467.419          26.000                                                                  
G21  24813422.686      -35536.631        -727.768          20.000                                                                  
G25  21517879.279     -105517.969       -1893.946          19.000    21517877.667      -33906.319       -1416.411          23.000  
G31  22078218.475     -155838.040       -2797.720          28.000                                                                  
G32  21078260.488      -72517.379       -1036.280          35.000                                                                  
R 8  20366600.332                                          27.000  
C 6  36111194.379        1420.811         186.209          24.000                                                                                                                                  
C13  37136001.133       18092.358        1700.594          30.000                                                                                                                                  
C21  21573148.694        6646.804          87.669          27.000                                                                                                                                  
> 2021 12  7  4 24 18.0000000  0 12                     
G10  20026733.784       36733.323         465.783          29.000                                                                  
G21  24813287.608      -39359.308        -726.733          19.000                                                                  
G25  21517517.091     -115475.238       -1894.858          19.000    21517517.459      -39464.161       -1416.188          19.000  
G31  22077685.873     -170547.458       -2800.897          28.000                                                                  
G32  21078065.996      -77960.175       -1037.043          32.000                                                                  
R 8  20366233.074                                          20.000  
R 9  20384979.741                                          20.000  
C 6  36111233.142        2383.547         182.992          26.000                                                                                                                                  
C 8  37645857.291       14995.550        1863.058          20.000                                                                                                                                  
C 9  36648935.852        1192.322         145.378          23.000                                                                                                                                  
C13  37136327.351       26936.364        1696.675          25.000                                                                                                                                  
C21  21573165.490        7104.987          87.870          30.000                                                                                                                                  
> 2021 12  7  4 24 19.0000000  0 13                     
G10  20026821.821       39180.844         467.232          29.000                                                                  
G21  24813149.275      -43180.498        -729.035          15.000                                                                  
G25  21517154.929     -125446.911       -1897.847          27.000    21517157.269      -45016.041       -1412.979          17.000  
G31  22077150.091     -185272.159       -2801.920          30.000                                                                  
G32  21077866.782      -83420.046       -1038.095          30.000                                                                  
R 8  20365864.604                                          19.000  
R 9  20385434.512                                          23.000  
E 9  23993814.081      -21161.000        -878.531          26.000                                                                  
C 6  36111271.985        3332.446         182.250          23.000                                                                                                                                  
C 8  37646206.148       24690.795        1863.425          17.000                                                                                                                                  
C 9  36648965.012        1958.377         147.614          18.000                                                                                                                                  
C13  37136653.160       35772.472        1696.973          19.000                                                                                                                                  
C21  21573182.286        7557.162          84.558          29.000                                                                                                                                  
> 2021 12  7  4 24 20.0000000  0 14                     
G10  20026909.508       41628.665         464.053          32.000                                                                  
G21  24813010.354      -47018.365        -733.825          17.000                                                                  
G25  21516791.310     -135423.800       -1899.014          30.000    21516796.879      -50565.207       -1419.474          20.000  
G31  22076615.023     -199999.142       -2803.604          30.000                                                                  
G32  21077669.323      -88869.465       -1036.319          21.000                                                                  
R 8  20365494.337                                          17.000  
R 9  20385898.349                                          18.000  
E 9  23993648.321      -25768.788        -877.622          22.000                                                                  
E36  26096812.409        3982.620        1636.499          20.000                                                                  
C 6  36111305.732        4277.579         181.616          22.000                                                                                                                                  
C 8  37646563.381       34376.962        1859.221          20.000                                                                                                                                  
C 9  36648993.990        2732.493         149.160          17.000                                                                                                                                  
C13  37136978.724       44599.704        1693.766          21.000                                                                                                                                  
C21  21573198.562        8001.851          84.913          26.000                                                                                                                                  
> 2021 12  7  4 24 21.0000000  0 13                     
G10  20026997.798       44067.794         463.632          32.000    20027000.617        1763.944         348.364          21.000  
G21  24812876.750      -50866.217           0.014          14.000                                                                  
G25  21516428.145     -145408.475       -1899.030          34.000    21516431.942      -56133.419       -1419.050          28.000  
G31  22076080.541     -214738.178       -2805.412          24.000                                                                  
G32  21077473.426      -94322.811       -1039.128          30.000                                                                  
R 8  20365125.186                                          18.000  
R 9  20386357.256                                          20.000  
E 9  23993481.715      -30388.703        -879.953          25.000                                                                  
C 6  36111341.466        5216.021         178.006          23.000                                                                                                                                  
C 8  37646919.427       44045.270        1855.847          20.000                                                                                                                                  
C 9  36649023.263        3496.253         145.121          22.000                                                                                                                                  
C13  37137303.869       53420.637        1694.023          23.000                                                                                                                                  
C21  21573215.192        8446.555          84.699          28.000                                                                                                                                  
> 2021 12  7  4 24 22.0000000  0 16                     
G10  20027088.182       46496.507         461.168          34.000    20027089.187        3121.091         345.692          21.000  
G21  24812737.524      -54711.868           0.014          17.000                                                                  
G25  21516065.032     -155398.208       -1900.790          33.000    21516070.190      -61705.166       -1419.870          27.000  
G31  22075544.183     -229486.882       -2806.804          25.000                                                                  
G32  21077275.139      -99797.602       -1043.931          24.000                                                                  
R 8  20364756.481                                          17.000  
R 9  20386828.167                                          25.000  
E 9  23993314.891      -35016.603        -881.276          26.000                                                                  
E36                                                                  26187490.573        7406.220        1218.311          22.000  
C 3  36973831.992         658.871         120.375          32.000                                                                                                                                  
C 6  36111375.004        6141.344         177.818          23.000                                                                                                                                  
C 8  37647273.921       53707.238        1854.548          19.000                                                                                                                                  
C 9  36649050.574        4244.098         140.945          22.000                                                                                                                                  
C13  37137629.542       62240.490        1694.428          20.000                                                                                                                                  
C21  21573231.717        8880.371          84.508          25.000                                                                    21573229.516         749.561          64.766          18.000  
C26  22315427.098       -9404.422       -2000.255          29.000                                                                                                                                  
> 2021 12  7  4 24 23.0000000  0 17                     
G10  20027175.573       48923.918         460.611          32.000    20027176.761        4475.737         345.680          22.000  
G21  24812600.452      -58566.890        -732.714          17.000                                                                  
G25  21515700.829     -165389.513       -1901.018          34.000    21515708.264      -67278.321       -1420.736          30.000  
G31  22075012.021     -244229.619       -2804.650          23.000                                                                  
G32  21077074.687     -105281.942       -1043.761          27.000                                                                  
R 8  20364386.257                                          18.000  
R 9  20387289.247                                          22.000  
E 9  23993147.919      -39652.430        -882.887          24.000                                                                  
E24  27048226.528      -13193.532       -3036.717          22.000                                                                  
E36  26097748.884        9330.711        1633.827          20.000    26097761.258       12187.323        1218.526          25.000  
C 3  36973855.729        1288.591         123.015          30.000                                                                                                                                  
C 6  36111408.559        7060.181         176.129          22.000                                                                                                                                  
C 8  37647633.430       63365.684        1854.391          20.000                                                                                                                                  
C 9  36649076.619        4968.441         137.999          22.000                                                                                                                                  
C13  37137954.818       71055.327        1691.724          25.000                                                                                                                                  
C21  21573248.330        9315.434          82.184          27.000                                                                    21573244.637         994.479          62.088          19.000  
C26  22315042.574      -19827.070       -2001.943          30.000                                                                                                                                  
> 2021 12  7  4 24 24.0000000  0 18                     
G10  20027265.502       51343.075         461.412          33.000    20027264.980        5827.692         344.878          22.000  
G12  22134415.848         140.957         -15.429          18.000                                                                  
G21  24812462.381      -62422.449        -733.870          20.000                                                                  
G25  21515338.501     -175394.809       -1905.061          32.000    21515346.163      -72854.786       -1420.431          29.000  
G31  22074480.780     -258974.256       -2806.585          27.000                                                                  
G32  21076873.414     -110770.276       -1043.628          23.000                                                                  
R 8  20364018.520                                          18.000  
R 9  20387747.595                                          21.000  
E 4  24340184.667        7292.232         982.685          16.000                                                                  
E 9  23992981.077      -44294.737        -884.057          25.000                                                                  
E24  27047646.073      -29156.260       -3037.530          22.000                                                                  
E36  26098057.151       17913.852        1632.093          17.000    26098071.741       16966.107        1218.084          25.000  
C 3  36973880.481        1910.971         121.521          31.000                                                                                                                                  
C 8  37647989.433       73026.510        1856.090          20.000                                                                                                                                  
C 9  36649103.485        5686.540         137.899          20.000                                                                                                                                  
C13  37138279.501       79867.496        1692.155          22.000                                                                                                                                  
C21  21573264.035        9739.153          80.981          22.000                                                                    21573260.447        1234.497          61.294          20.000  
C26  22314657.894      -30250.128       -2004.266          27.000                                                                                                                                  
> 2021 12  7  4 24 25.0000000  0 19                     
G10  20027353.941       53764.952         460.496          34.000    20027352.756        7177.660         343.264          22.000  
G12  22134412.733          54.657         -13.525          17.000                                                                  
G21  24812325.615      -66276.879        -734.249          18.000                                                                  
G25  21514975.641     -185400.314       -1902.617          33.000    21514983.923      -78433.512       -1421.127          29.000  
G31  22073950.006     -273724.215       -2807.197          29.000                                                                  
G32  21076673.599     -116258.455       -1044.049          27.000                                                                  
R 8  20363647.022                                          20.000  
R 9  20388221.046                                          21.000  
E 9  23992812.308      -48944.339        -885.322          23.000                                                                  
E24  27047070.268      -45128.592       -3041.909          18.000                                                                  
E36                                                                  26188422.232       21741.898        1217.400          24.000  
C 3  36973905.833        2570.029         135.342          30.000                                                                                                                                  
C 6  36111471.803        1211.851         173.373          22.000                                                                                                                                  
C 8  37648343.866       82686.056        1854.204          21.000                                                                                                                                  
C 9  36649129.774        6399.795         134.553          24.000                                                                                                                                  
C13  37138604.052       88666.912        1687.721          20.000                                                                                                                                  
C21  21573280.814       10160.155          79.775          25.000                                                                    21573275.785        1472.943          60.940          17.000  
C22  24178375.838       18184.845        2333.116          17.000                                                                                                                                  
C26  22314273.204      -40683.803       -2003.515          27.000                                                                                                                                  
> 2021 12  7  4 24 26.0000000  0 20                     
G10  20027440.032       56188.195         462.668          27.000    20027440.155        8527.906         344.813          19.000  
G12  22134401.465         -42.694         -17.749          17.000                                                                  
G21  24812185.825      -70138.122        -735.702          17.000                                                                  
G25  21514612.196     -195404.955       -1905.504          30.000    21514621.542      -84013.297       -1422.344          29.000  
G31  22073415.279     -288476.759       -2808.704          26.000                                                                  
G32  21076474.151     -121751.921       -1044.786          25.000    21076471.474       -3786.925        -783.267          23.000  
R 8  20363276.702                                          22.000  
R 9  20388681.934                                          20.000  
E 9  23992644.349      -53601.427        -884.345          19.000                                                                  
E24  27046492.439      -61105.703       -3039.620          20.000                                                                  
E36  26098681.590       11268.345        1628.793          20.000    26098692.141       26511.965        1214.631          25.000  
J 2  38059360.849       30794.414         299.966          29.000                                                                  
C 3  36973933.183        3304.825         139.775          23.000                                                                                                                                  
C 6  36111504.826        2105.749         171.862          19.000                                                                                                                                  
C 8  37648701.046       92332.743        1851.169          24.000                                                                                                                                  
C 9  36649155.436        7090.386         132.022          26.000                                                                                                                                  
C13  37138927.667       97447.698        1685.391          21.000                                                                                                                                  
C21  21573296.929       10582.572          81.481          23.000                                                                    21573289.606        1712.420          61.699          19.000  
C22  24178823.540       30323.746        2329.520          13.000                                                                                                                                  
C26  22313889.326      -51117.321       -2004.142          32.000                                                                                                                                  
> 2021 12  7  4 24 27.0000000  0 21                     
G10  20027526.820       58603.513         458.414          27.000    20027527.651        9874.665         342.156          22.000  
G12  22134398.145        -136.100         -21.654          14.000                                                                  
G21  24812052.029      -74005.945        -736.292          17.000                                                                  
G25  21514249.738     -205416.113       -1905.565          33.000    21514258.831      -89599.066       -1423.122          27.000  
G31  22072880.085     -303241.510       -2809.833          26.000                                                                  
G32  21076274.764     -127245.435       -1048.678          26.000    21076272.619       -6858.984        -783.240          20.000  
R 8  20362914.846                                          19.000  
R 9  20389136.643                                          22.000  
E 4  24340744.845       22795.408         977.464          15.000                                                                  
E 9  23992476.042      -58247.802        -886.160          19.000                                                                  
E24  27045913.773      -77084.463       -3041.514          22.000                                                                  
E36  26098996.706       19821.927        1625.936          17.000    26099002.283       31284.036        1215.763          27.000  
J 2  38059416.393       32355.086         294.887          30.000                                                                  
C 3  36973957.367        3992.730         140.875          26.000                                                                                                                                  
C 6  36111536.566        2988.877         165.752          18.000                                                                                                                                  
C 8  37649056.683      101971.037        1850.767          21.000                                                                                                                                  
C 9  36649180.626        7777.359         132.103          21.000                                                                                                                                  
C13  37139251.582      106227.335        1688.888          17.000                                                                                                                                  
C21  21573312.163       10997.591          78.571          23.000                                                                    21573299.500        1943.003          59.115          18.000  
C22  24179266.383       42439.271        2327.114          16.000                                                                                                                                  
C26  22313504.688      -61564.838       -2007.123          29.000                                                                                                                                  
> 2021 12  7  4 24 28.0000000  0 20                     
G10  20027613.043       61009.247         457.560          28.000    20027615.077       11213.850         342.328          19.000  
G12  22134393.451        -247.649          -0.013          13.000                                                                  
G21  24811912.035      -77873.209        -735.311          16.000                                                                  
G25  21513887.611     -215431.504       -1906.226          33.000    21513896.084      -95185.595       -1422.956          29.000  
G31  22072345.978     -318013.719       -2813.150          30.000                                                                  
G32  21076074.775     -132757.261       -1047.859          19.000    21076074.166       -9933.213        -783.843          19.000  
R 8  20362543.968                                          19.000  
R 9  20389595.672                                          20.000  
E 4  24340931.091       27936.329         976.963          17.000                                                                  
E24  27045335.394      -93075.823       -3043.721          24.000                                                                  
E36  26099305.863       28358.413        1623.770          19.000    26099312.007       36050.556        1214.395          26.000  
J 2  38059473.874       33913.278         296.653          30.000                                                                  
C 3  36973982.204        4652.200         115.973          27.000                                                                                                                                  
C 6  36111568.481        3852.926         167.064          21.000                                                                                                                                  
C 8  37649411.901      111601.863        1848.795          23.000                                                                                                                                  
C 9  36649206.314        8467.460          -0.046          18.000                                                                                                                                  
C13  37139575.710      115014.523        1687.092          18.000                                                                                                                                  
C21  21573326.882       11404.743          76.590          22.000                                                                    21573316.252        2173.395          57.656          17.000  
C22  24179713.153       54552.964        2328.249          17.000                                                                                                                                  
C26  22313120.164      -72014.131       -2005.446          32.000                                                                                                                                  
> 2021 12  7  4 24 29.0000000  0 21                     
G10  20027701.856       63422.513         458.064          29.000    20027701.831       12553.523         339.052          21.000  
G12  22134389.722        -352.283          -0.013          17.000                                                                  
G21  24811771.992      -81742.711        -737.323          14.000                                                                  
G25  21513524.236     -225454.415       -1907.452          33.000    21513533.190     -100773.513       -1424.367          28.000  
G31  22071810.710     -332799.291       -2812.879          27.000                                                                  
G32  21075875.806     -138252.926       -1047.959          16.000    21075874.953      -13005.188        -784.134          16.000  
R 8  20362173.700                                          17.000  
R 9  20390053.593                                          17.000  
E 4  24341113.324       33063.380         975.461          13.000                                                                  
E 9  23992139.000      -67573.135        -889.405          22.000                                                                  
E24  27044756.024     -109074.107       -3044.949          24.000                                                                  
E36  26099617.725       36897.142        1627.723          17.000    26099621.496       40813.283        1214.376          25.000  
J 2  38059529.732       35465.491         292.314          33.000                                                                  
C 3  36974001.842        5203.811         114.223          25.000                                                                                                                                  
C 6  36111604.328        4725.065         166.934          17.000                                                                                                                                  
C 8  37649766.525      121226.373        1847.493          24.000                                                                                                                                  
C 9  36649231.715        9151.339         132.836          18.000                                                                                                                                  
C13  37139905.182      123789.508        1683.922          22.000                                                                                                                                  
C21  21573340.502       11802.189          75.184          24.000                                                                    21573331.722        2401.691          59.229          17.000  
C22  24180159.014       66658.537        2320.868          18.000                                                                                                                                  
C26  22312734.671      -82464.118       -2006.942          33.000                                                                                                                                  
> 2021 12  7  4 24 30.0000000  0 20                     
G10  20027789.613       65822.667         455.622          28.000    20027788.628       13886.111         339.931          18.000  
G12  22134381.572        -476.282         -23.151          17.000                                                                  
G21  24811628.202      -85614.747           0.014          17.000                                                                  
G25  21513162.301     -235474.774       -1905.527          33.000    21513170.147     -106365.284       -1423.569          28.000  
G31  22071274.443     -347576.478       -2811.949          29.000                                                                  
G32  21075688.722     -143761.010       -1049.435          17.000    21075675.374      -16083.034        -782.097          14.000  
R 8  20361802.578                                          18.000  
R 9  20390510.902                                          18.000  
E 4  24341298.788       38185.237         973.805          13.000                                                                  
E 9  23991971.155      -72265.894        -895.660          18.000                                                                  
E24  27044176.345     -125080.475       -3046.416          23.000                                                                  
E36  26099927.012       45438.308        1627.870          16.000    26099930.862       45574.455        1212.851          25.000  
J 2  38059586.629       37014.251         294.989          31.000                                                                  
C 3  36974022.779        5813.018         103.670          27.000                                                                                                                                  
C 6  36111638.320        5594.336         165.662          20.000                                                                                                                                  
C 8  37650120.494      130844.973        1847.400          22.000                                                                                                                                  
C 9  36649257.254        9842.616         133.078          19.000                                                                                                                                  
C13  37140226.502      132557.284        1685.011          17.000                                                                                                                                  
C21  21573354.960       12191.278          74.184          22.000                                                                    21573344.897        2635.522          60.035          17.000  
C26  22312350.059      -92917.030       -2010.313          32.000                                                                                                                                  
> 2021 12  7  4 24 31.0000000  0 20                     
G10  20027876.027       68214.123         454.713          28.000    20027874.659       15218.976         338.994          20.000  
G12  22134377.075        -601.847         -23.472          18.000                                                                  
G21  24811491.309      -89503.156        -740.320          15.000                                                                  
G25  21512800.593     -245497.201       -1910.334          33.000    21512807.069     -111956.407       -1424.876          29.000  
G31  22070738.695     -362369.399       -2815.258          28.000                                                                  
G32  21075488.916     -149280.213       -1051.592          25.000    21075475.437      -19155.842        -783.751          18.000  
R 8  20361442.457                                          17.000  
R 9  20390969.966                                          17.000  
E 4  24341483.988       43299.236         972.284          14.000                                                                  
E 9  23991801.539      -76969.383        -893.769          18.000                                                                  
E24  27043596.745     -141090.950       -3047.761          18.000                                                                  
E36  26100230.516       53994.246        1627.764          13.000    26100239.897       50330.629        1211.809          27.000  
J 2  38059640.785       38558.204         291.615          35.000                                                                  
C 3  36974041.640        6315.616          90.844          23.000                                                                                                                                  
C 6  36111670.400        6452.284         164.312          17.000                                                                                                                                  
C 8  37650474.848      140455.959        1843.562          19.000                                                                                                                                  
C 9  36649282.418       10524.716         128.977          19.000                                                                                                                                  
C13  37140549.414      141323.101        1682.319          19.000                                                                                                                                  
C21  21573369.251       12577.568          72.755          28.000                                                                    21573362.967        2867.150          60.423          19.000  
C26  22311964.907     -103378.923       -2009.537          35.000                                                                                                                                  
> 2021 12  7  4 24 32.0000000  0 22                     
G10  20027961.839       70608.034         455.273          22.000    20027961.456       16555.110         340.911          23.000  
G12  22134368.621        -726.752         -23.371          18.000                                                                  
G21  24811350.594      -93389.758        -739.981          16.000                                                                  
G25  21512436.817     -255528.062       -1908.597          33.000    21512443.746     -117550.914       -1424.940          27.000  
G31  22070202.839     -377165.701       -2816.345          24.000                                                                  
G32  21075275.228     -154825.576       -1055.980          29.000    21075277.734      -22239.984        -784.502          20.000  
R 8  20361071.300                                          18.000  
R 9  20391429.030                                          16.000  
E 4  24341668.785       48401.695         970.580          11.000                                                                  
E 9  23991632.167      -81661.733        -894.352          15.000                                                                  
E24  27043017.284     -157097.366       -3048.047          15.000                                                                  
E36  26100540.197       62545.312        1625.640          13.000    26100548.827       55086.163        1212.407          26.000  
J 1  38549935.086      -31545.367        -763.295          27.000                                                                  
J 2  38059697.970       40089.847         291.248          33.000                                                                  
C 3  36974058.564        6766.929          88.354          25.000                                                                                                                                  
C 6  36111701.974        7307.186         164.296          17.000                                                                                                                                  
C 8  37650828.924      150056.590        1843.687          19.000                                                                                                                                  
C 9  36649307.006       11195.146         127.638          20.000                                                                                                                                  
C13  37140873.049      150071.005        1677.818          17.000                                                                                                                                  
C21  21573385.550       12963.026          74.170          32.000                                                                    21573373.428        3085.863          56.647          18.000  
C22  24181526.056       25920.152        2320.286          22.000                                                                                                                                  
C26  22311579.397     -113843.005       -2011.425          34.000                                                                                                                                  
> 2021 12  7  4 24 33.0000000  0 22                     
G10  20028047.877       73002.335         454.880          24.000    20028048.262       17887.647         340.149          25.000  
G12  22134372.246        -849.137         -24.418          18.000                                                                  
G21  24811205.862      -97275.036        -740.602          16.000                                                                  
G25  21512072.526     -265570.258       -1910.337          34.000    21512080.206     -123148.972       -1426.638          29.000  
G31  22069666.306     -391959.323       -2815.071          25.000                                                                  
G32  21075076.093     -160379.642       -1055.744          27.000    21075078.398      -25313.876        -785.726          18.000  
R 8  20360699.534                                          19.000  
R 9  20391889.106                                          19.000  
E 4  24341843.951       53497.994         969.022          12.000                                                                  
E 9  23991462.882      -86360.713        -893.991          16.000                                                                  
E24  27042437.038     -173123.169       -3050.905          17.000                                                                  
E36  26100849.484       71085.774        1624.636          15.000    26100857.591       59838.712        1211.625          26.000  
J 1  38549788.879      -35558.343        -763.539          29.000                                                                  
J 2  38059750.992       41614.553         289.389          34.000                                                                  
C 3  36974076.797        7251.837         110.781          26.000                                                                                                                                  
C 6  36111732.676        8156.652         163.719          15.000                                                                                                                                  
C 8  37651182.937      159654.456        1841.963          18.000                                                                                                                                  
C 9  36649331.769       11853.603         126.742          20.000                                                                                                                                  
C13  37141195.332      158809.554        1678.469          17.000                                                                                                                                  
C21  21573400.208       13338.041          71.405          28.000                                                                    21573390.259        3306.316          55.251          18.000  
C22  24181971.111       37995.092        2318.939          20.000                                                                                                                                  
C26  22311193.948     -124319.383       -2012.505          34.000                                                                                                                                  
> 2021 12  7  4 24 34.0000000  0 23                     
G10  20028134.614       75396.591         456.109          29.000    20028134.659       19214.867         333.880          19.000  
G12  22134368.320        -975.785         -24.154          16.000                                                                  
G21  24811064.755     -101172.905        -743.074          15.000                                                                  
G25  21511710.391     -275599.861       -1910.262          27.000    21511716.788     -128746.436       -1430.033          21.000  
G31  22069128.630     -406756.308       -2816.937          32.000                                                                  
G32  21074875.842     -165915.094       -1053.442          25.000    21074876.664      -28399.103        -785.927          17.000  
R 8  20360330.828                                          19.000  
R 9  20392347.280                                          21.000  
E 4  24342028.321       58589.277         968.508          12.000                                                                  
E 9  23991292.394      -91071.116        -898.051          16.000                                                                  
E24  27041855.025     -189149.625       -3048.834          20.000                                                                  
E36  26101158.580       79620.727        1622.942          20.000    26101165.945       64584.169        1209.984          17.000  
J 1  38549643.022      -39582.582        -766.953          18.000                                                                  
J 2  38059806.327       43141.945         289.375          24.000                                                                  
C 3  36974098.320        7806.657          97.279          24.000                                                                                                                                  
C 6  36111764.094        9006.681         162.523          16.000                                                                                                                                  
C 8  37651536.515      169243.442        1841.576          20.000                                                                                                                                  
C 9  36649355.502       12500.989         123.090          23.000                                                                                                                                  
C10  40687221.420      -17338.801       -1185.106          17.000                                                                                                                                  
C13  37141517.385      167542.356        1677.207          25.000                                                                                                                                  
C21  21573414.186       13710.455          71.647          21.000                                                                    21573401.156        3521.202          54.995          16.000  
C22  24182416.432       50070.025        2318.839          17.000                                                                                                                                  
C26  22310807.898     -134787.063       -2010.536          30.000                                                                                                                                  
> 2021 12  7  4 24 35.0000000  0 23                     
G10  20028221.010       77783.563         450.873          31.000    20028220.767       20532.131         339.725          20.000  
G12  22134363.639       -1105.914         -24.733          12.000                                                                  
G21  24810923.351     -105078.648        -743.563          16.000                                                                  
G25  21511345.602     -285652.251       -1912.955          23.000    21511352.758     -134353.184       -1425.748          22.000  
G31  22068590.854     -421558.190       -2818.732          28.000                                                                  
G32  21074673.096     -171456.228       -1055.669          25.000    21074676.858      -31480.597        -784.194          16.000  
R 8  20359963.013                                          18.000  
R 9  20392804.763                                          20.000  
E 4  24342212.525       63675.784         967.061          13.000                                                                  
E 9  23991122.001      -95778.704        -894.252          19.000                                                                  
E24  27041271.987     -205175.263       -3048.616          19.000                                                                  
E36  26101467.135       88141.702        1620.931          21.000                                                                  
J 1  38549498.342      -43619.791        -767.525          25.000                                                                  
J 2  38059860.405       44659.051         286.416          31.000                                                                  
C 3  36974117.303        8332.968         106.275          27.000                                                                                                                                  
C 6  36111795.066        9845.186         160.387          19.000                                                                                                                                  
C 8  37651890.214      178829.519        1841.561          26.000                                                                                                                                  
C 9  36649378.817       13137.515         121.108          19.000                                                                                                                                  
C10  40686993.895      -23509.191       -1183.239          14.000                                                                                                                                  
C13  37141835.707      176289.042        1678.734          24.000                                                                                                                                  
C21  21573434.319       14088.906          70.853          23.000                                                                    21573424.126        3729.464          52.724          16.000  
C22  24182862.014       62150.675        2321.547          16.000                                                                                                                                  
C26  22310421.577     -145263.959       -2012.043          31.000                                                                                                                                  
> 2021 12  7  4 24 36.0000000  0 22                     
G10  20028304.972       80163.648         456.074          30.000    20028307.137       21861.106         337.863          23.000  
G12  22134358.875       -1239.122         -25.377          17.000                                                                  
G21  24810780.931     -108981.790        -742.175          14.000                                                                  
G25  21510983.597     -295698.585       -1912.120          31.000    21510988.467     -139952.725       -1426.937          21.000  
G31  22068054.635     -436359.252       -2817.516          26.000                                                                  
G32  21074472.295     -177012.982       -1059.040          23.000    21074477.087      -34557.988        -785.780          16.000  
R 8  20359579.762                                          26.000  
R 9  20393262.422                                          20.000  
E 4  24342396.459       68754.973         966.304          14.000    24342410.247       15753.477         723.458          12.000  
E 9  23990955.997     -100476.157        -895.899          14.000                                                                  
E24  27040693.285     -221198.178       -3051.685          16.000                                                                  
E36  26101782.015       96657.337        1621.536          18.000    26101778.788       74068.714        1208.102          29.000  
J 1  38549352.423      -47655.397        -769.067          27.000                                                                  
J 2  38059915.443       46163.634         286.938          31.000                                                                  
C 3  36974137.123        8845.613          81.106          27.000                                                                                                                                  
C 6  36111822.452       10681.373         160.249          21.000                                                                                                                                  
C 8  37652244.401      188428.536        1842.829          21.000                                                                                                                                  
C 9  36649402.052       13770.407         120.607          18.000                                                                                                                                  
C13  37142158.252      185026.360        1677.679          21.000                                                                                                                                  
C21  21573447.180       14458.703          71.213          26.000                                                                    21573438.898        3930.537          49.919          15.000  
C22  24183307.501       74236.931        2318.761          18.000                                                                                                                                  
C26  22310035.840     -155723.315       -2008.370          25.000                                                                                                                                  
> 2021 12  7  4 24 37.0000000  0 22                     
G10  20028391.239       82553.270         453.732          29.000    20028393.561       23189.195         337.931          24.000  
G12  22134357.079       -1377.925         -25.274          18.000                                                                  
G21  24810639.409     -112890.012        -744.276          14.000                                                                  
G25  21510621.234     -305750.678       -1911.444          31.000    21510623.190     -145554.592       -1427.267          20.000  
G31  22067519.000     -451159.460       -2816.689          30.000                                                                  
G32  21074271.905     -182576.797       -1058.337          27.000    21074269.271      -37649.235        -790.545          18.000  
R 8  20359184.846                                          23.000  
R 9  20393721.015                                          18.000  
E 4  24342580.263       73830.395         965.358          15.000    24342595.140       18599.458         726.007          11.000  
E 9  23990785.026     -105195.742        -899.329          19.000                                                                  
E24  27040112.664     -237234.500       -3054.557          16.000                                                                  
E36  26102090.222      105167.931        1620.431          17.000    26102087.492       78812.435        1210.060          23.000  
J 1  38549204.367      -51694.401        -770.366          27.000                                                                  
J 2  38059970.560       47667.536         286.792          30.000                                                                  
C 3  36974151.265        9254.424          84.303          24.000                                                                                                                                  
C 6  36111852.089       11508.486         158.455          22.000                                                                                                                                  
C 8  37652597.464      198012.888        1840.016          20.000                                                                                                                                  
C 9  36649425.236       14402.982         122.349          18.000                                                                                                                                  
C13  37142481.006      193767.325        1678.294          20.000                                                                                                                                  
C21  21573460.373       14829.060          71.993          28.000                                                                    21573451.427        4122.957          46.501          16.000  
C22  24183748.049       86308.190        2318.393          18.000                                                                                                                                  
C26  22309649.675     -166193.085       -2011.649          31.000                                                                                                                                  
> 2021 12  7  4 24 38.0000000  0 22                     
G10  20028479.912       84933.355         451.337          30.000    20028479.565       24513.866         336.880          24.000  
G12  22134347.521       -1512.336         -24.314          17.000                                                                  
G21  24810497.560     -116808.291           0.014          14.000                                                                  
G25  21510257.554     -315802.781       -1915.765          32.000    21510258.202     -151161.408       -1428.561          23.000  
G31  22066983.240     -465984.962       -2818.476          30.000                                                                  
G32  21074071.619     -188152.691       -1060.214          26.000    21074066.664      -40749.684        -789.851          17.000  
R 8  20358813.078                                          21.000  
R 9  20394179.380                                          18.000  
E 4  24342763.883       78900.660         964.165          16.000    24342780.104       21447.225         724.374          12.000  
E 9  23990612.417     -109930.108        -901.664          20.000                                                                  
E24  27039528.012     -253284.501       -3054.549          18.000                                                                  
E36  26102397.197      113690.009        1620.686          18.000    26102395.515       83553.582        1207.694          21.000  
J 1  38549057.645      -55743.653        -770.893          27.000                                                                  
J 2  38060025.720       49165.423         282.565          32.000                                                                  
C 3  36974168.991        9678.639          99.634          24.000                                                                                                                                  
C 6  36111881.769       12336.195         158.731          18.000                                                                                                                                  
C 8  37652950.683      207590.656        1838.374          24.000                                                                                                                                  
C 9  36649448.045       15029.523         118.441          20.000                                                                                                                                  
C13  37142802.902      202496.518        1674.667          19.000                                                                                                                                  
C21  21573472.893       15188.924          66.509          27.000                                                                    21573462.761        4313.955          49.410          16.000  
C22  24184189.470       98378.826        2318.455          18.000                                                                                                                                  
C26  22309263.702     -176675.299       -2013.094          31.000                                                                                                                                  
> 2021 12  7  4 24 39.0000000  0 22                     
G10  20028564.537       87294.236         450.832          29.000    20028565.533       25837.568         337.232          23.000  
G12  22134342.766       -1644.952         -25.724          17.000                                                                  
G21  24810355.445     -120733.951           0.014          14.000                                                                  
G25  21509892.967     -325863.252       -1914.270          33.000    21509893.701     -156770.361       -1429.713          25.000  
G31  22066445.206     -480792.289       -2819.179          28.000                                                                  
G32  21073871.027     -193732.725       -1062.965          27.000    21073866.745      -43851.863        -791.432          19.000  
R 8  20358438.492                                          19.000  
R 9  20394637.554                                          20.000  
E 4  24342947.302       83965.532         963.422          17.000                                                                  
E 9  23990441.126     -114661.384        -900.367          19.000                                                                  
E24  27038946.449     -269345.452       -3058.852          17.000                                                                  
E36  26102705.281      122197.180        1617.293          20.000    26102703.790       88291.532        1206.573          26.000  
J 1  38548911.648      -59797.211        -770.768          27.000                                                                  
J 2  38060079.379       50657.276         284.312          33.000                                                                  
C 3  36974184.380       10122.645          80.852          27.000                                                                                                                                  
C 6  36111913.256       13151.950         154.724          19.000                                                                                                                                  
C 8  37653303.318      217156.742        1835.719          25.000                                                                                                                                  
C 9  36649471.080       15651.735         120.419          17.000                                                                                                                                  
C13  37143124.186      211210.298        1673.076          21.000                                                                                                                                  
C21  21573484.759       15540.010          67.591          28.000                                                                    21573477.515        4509.663          50.141          16.000  
C22  24184632.295      110450.435        2317.990          17.000                                                                                                                                  
C26  22308876.499     -187167.371       -2013.747          28.000                                                                                                                                  
> 2021 12  7  4 24 40.0000000  0 22                     
G10  20028650.724       89670.339         451.604          32.000    20028651.503       27160.048         336.715          27.000  
G12  22134338.164       -1772.790         -22.453          16.000                                                                  
G21  24810213.474     -124655.617           0.014          19.000                                                                  
G25  21509526.992     -335921.738       -1915.148          35.000    21509529.707     -162378.048       -1429.393          27.000  
G31  22065909.388     -495611.207       -2821.329          30.000                                                                  
G32  21073670.148     -199304.532       -1059.879          24.000    21073663.458      -46959.108        -793.597          20.000  
R 8  20358067.360                                          22.000  
R 9  20395095.579                                          20.000  
E 4  24343130.581       89026.749         962.509          19.000                                                                  
E 9  23990267.653     -119393.998        -900.379          20.000                                                                  
E24  27038364.709     -285409.404       -3056.563          19.000                                                                  
E36  26103016.026      130706.729        1617.518          24.000    26103011.420       93025.948        1206.470          30.000  
J 1  38548763.836      -63853.064        -772.563          27.000                                                                  
J 2  38060133.876       52146.463         282.161          34.000                                                                  
C 3  36974202.002       10550.526          92.217          28.000                                                                                                                                  
C 6  36111941.235       13954.928         153.948          22.000                                                                                                                                  
C 8  37653655.857      226715.033        1834.860          18.000                                                                                                                                  
C 9  36649493.758       16272.633         117.240          21.000                                                                                                                                  
C13  37143445.561      219924.536        1672.997          25.000                                                                                                                                  
C21  21573498.353       15895.039          68.970          26.000                                                                    21573489.852        4700.086          48.227          18.000  
C22  24185077.512      122522.439        2317.431          16.000                                                                                                                                  
C26  22308490.230     -197657.105       -2015.531          35.000                                                                                                                                  
> 2021 12  7  4 24 41.0000000  0 22                     
G10  20028736.867       92038.828         449.943          27.000    20028737.262       28480.952         336.152          25.000  
G12  22134332.501       -1902.826         -25.866          16.000                                                                  
G21  24810062.966     -128559.405        -742.661          15.000                                                                  
G25  21509164.202     -345983.494       -1915.268          35.000    21509165.548     -167988.579       -1430.459          28.000  
G31  22065371.481     -510432.574       -2821.158          23.000                                                                  
G32  21073468.335     -204875.865       -1060.108          17.000    21073462.080      -50072.984        -793.546          20.000  
R 8  20357693.149                                          20.000  
R 9  20395553.430                                          18.000  
E 4  24343313.617       94081.130         961.543          19.000    24343326.741       29954.982         721.172          12.000  
E 9  23990097.095     -124127.367        -901.295          19.000                                                                  
E24  27037783.225     -301474.614       -3057.538          20.000                                                                  
E36  26103317.731      139198.901        1614.814          22.000    26103319.050       97760.433        1205.600          25.000  
J 1  38548616.233      -67925.631        -775.073          28.000                                                                  
J 2  38060188.251       53627.708         281.917          35.000                                                                  
C 3  36974222.887       11039.202          96.381          27.000                                                                                                                                  
C 6  36111970.873       14757.187         156.574          18.000                                                                                                                                  
C 8  37654008.414      236274.258        1835.008          16.000                                                                                                                                  
C 9  36649515.851       16878.441         117.071          20.000                                                                                                                                  
C13  37143767.155      228635.275        1671.539          20.000                                                                                                                                  
C21  21573510.760       16243.953          67.196          24.000                                                                    21573502.198        4893.008          47.867          18.000  
C22  24185522.789      134595.846        2320.265          14.000                                                                                                                                  
C26  22308103.437     -208154.842       -2017.220          33.000                                                                                                                                  
> 2021 12  7  4 24 42.0000000  0 22                     
G10  20028822.801       94406.809         449.925          30.000    20028823.064       29801.812         336.438          23.000  
G12  22134327.280       -2047.788         -27.960          16.000                                                                  
G21  24809921.414     -132469.064        -744.972          19.000                                                                  
G25  21508797.992     -356044.352       -1914.257          34.000    21508801.257     -173598.361       -1429.851          28.000  
G31  22064834.756     -525264.542       -2823.650          20.000                                                                  
G32  21073266.243     -210450.081       -1061.119          23.000    21073258.296      -53188.829        -794.417          23.000  
R 8  20357319.776                                          19.000  
R 9  20396011.342                                          21.000  
E 4  24343502.629       99134.752         960.611          21.000    24343510.666       32786.295         720.243          13.000  
E 9  23989925.707     -128880.363        -905.192          18.000                                                                  
E24  27037201.164     -317540.031       -3057.884          15.000                                                                  
E36  26103625.424      147682.646        1614.594          24.000    26103626.246      102490.108        1204.723          24.000  
J 1  38548468.893      -71994.653        -773.131          20.000                                                                  
J 2  38060241.308       55105.446         279.899          30.000                                                                  
C 3  36974242.908       11514.967          95.329          29.000                                                                                                                                  
C 6  36112000.083       15561.580         152.656          19.000                                                                                                                                  
C 8  37654361.101      245820.360        1832.565          22.000                                                                                                                                  
C 9  36649538.258       17486.727         114.605          20.000                                                                                                                                  
C13  37144088.143      237340.578        1671.068          23.000                                                                                                                                  
C21  21573523.228       16591.609          67.739          24.000                                                                    21573513.733        5080.621          47.317          18.000  
C22  24185968.232      146673.641           0.006          16.000                                                                                                                                  
C26  22307715.720     -218652.239       -2017.518          34.000                                                                                                                                  
> 2021 12  7  4 24 43.0000000  0 23                     
G10  20028908.147       96768.287         449.726          24.000    20028908.829       31118.782         333.814          19.000  
G12  22134325.805       -2202.580         -29.663          15.000                                                                  
G21  24809770.247     -136385.734        -746.760          22.000                                                                  
G25  21508433.204     -366109.823       -1914.189          28.000    21508436.600     -179213.738       -1431.981          19.000  
G31  22064297.961     -540097.602       -2822.308          36.000                                                                  
G32  21073061.900     -216034.614       -1062.869          32.000    21073056.579      -56305.359        -795.151          30.000  
R 8  20356947.929                                          26.000  
R 9  20396470.292                                          20.000  
E 4  24343685.263      104177.713         958.860          20.000    24343694.207       35611.635         719.767          12.000  
E 9  23989750.542     -133629.699        -903.419          19.000                                                                  
E11  27015156.146      109447.486        2837.900          20.000                                                                  
E24  27036619.094     -333614.073       -3060.561          18.000                                                                  
E36  26103929.241      156165.364        1614.041          27.000    26103933.300      107218.957        1202.986          19.000  
J 1  38548321.517      -76066.408        -775.135          18.000                                                                  
J 2  38060294.636       56580.664         280.932          22.000                                                                  
C 3  36974266.995       12014.326          82.493          28.000                                                                                                                                  
C 6  36112029.589       16350.064         151.264          25.000                                                                                                                                  
C 8  37654707.139      255364.300        1834.458          28.000                                                                                                                                  
C 9  36649560.255       18084.839         115.972          26.000                                                                                                                                  
C13  37144408.306      246039.175        1668.664          28.000                                                                                                                                  
C21  21573536.613       16935.680          66.349          25.000                                                                    21573525.049        5264.999          46.971          18.000  
C22  24186413.047      158734.381           0.006          18.000                                                                                                                                  
C26  22307327.801     -229154.389       -2017.683          32.000                                                                                                                                  
> 2021 12  7  4 24 44.0000000  0 23                     
G10  20028994.394       99125.211         449.805          31.000    20028994.073       32435.583         337.408          19.000  
G12  22134320.270       -2354.893         -28.138          16.000                                                                  
G21  24809614.486     -140312.118        -748.229          18.000                                                                  
G25  21508068.720     -376173.922       -1918.095          19.000    21508071.662     -184834.655       -1433.389          17.000  
G31  22063761.019     -554929.247       -2821.707          27.000                                                                  
G32  21072857.548     -221632.599       -1066.564          28.000    21072854.016      -59425.916        -795.943          23.000  
R 8  20356572.915                                          24.000  
R 9  20396929.626                                          19.000  
E 4  24343867.639      109214.333         957.765          15.000    24343873.809       38433.679         718.779          10.000  
E 9  23989573.448     -138387.159        -905.138          25.000                                                                  
E11  27015696.335      124364.192        2838.238          18.000                                                                  
E24  27036037.863     -349696.936       -3061.350          18.000                                                                  
E36  26104236.295      164651.610        1616.273          26.000    26104240.232      111944.054        1205.425          17.000  
J 1  38548173.487      -80147.962        -779.046          17.000                                                                  
J 2  38060348.575       58053.365         277.173          25.000                                                                  
C 3  36974285.473       12509.141          84.407          25.000                                                                                                                                  
C 6  36112058.781       17140.061         152.497          26.000                                                                                                                                  
C 8  37655059.966      264914.097        1834.076          27.000                                                                                                                                  
C 9  36649581.623       18681.053         114.901          30.000                                                                                                                                  
C13  37144727.606      254729.808        1672.640          29.000                                                                                                                                  
C21  21573548.706       17275.122          61.038          28.000                                                                    21573538.285        5452.555          47.951          20.000  
C22  24186851.466      170786.857        2313.985          16.000                                                                                                                                  
C26  22306939.658     -239657.834       -2016.150          33.000                                                                                                                                  
> 2021 12  7  4 24 45.0000000  0 23                     
G10  20029080.607      101489.968         450.192          30.000    20029079.265       33751.687         335.413          25.000  
G12  22134315.017       -2501.543         -28.571          14.000                                                                  
G21  24809476.389     -144249.777        -750.747          17.000                                                                  
G25  21507707.414     -386244.447       -1915.926          28.000    21507708.741     -190458.746       -1433.325          19.000  
G31  22063223.343     -569759.833       -2824.875          30.000                                                                  
G32  21072652.375     -227232.220       -1066.466          32.000    21072651.216      -62551.491        -796.181          18.000  
R 8  20356198.128                                          27.000  
R 9  20397388.838                                          19.000  
E 4  24344049.644      114239.712         955.015          14.000    24344057.237       41257.040         718.827          13.000  
E 9  23989398.283     -143152.317        -907.532          29.000                                                                  
E11  27016231.620      139286.073        2837.708          18.000                                                                  
E24  27035454.977     -365792.673       -3063.105          17.000                                                                  
E36  26104543.218      173141.504        1612.885          29.000    26104547.207      116670.587        1202.639          26.000  
J 1  38548026.503      -84237.754        -777.326          22.000                                                                  
J 2  38060400.393       59502.283         273.803          19.000                                                                  
C 3  36974302.022       12947.226          74.007          24.000                                                                                                                                  
C 6  36112088.087       17929.219         149.993          23.000                                                                                                                                  
C 8  37655411.807      274453.107        1831.618          18.000                                                                                                                                  
C 9  36649603.010       19274.503         111.403          26.000                                                                                                                                  
C13  37145048.275      263430.886        1669.786          19.000                                                                                                                                  
C21  21573559.263       17588.896          61.768          28.000                                                                    21573550.736        5643.022          47.706          17.000  
C22  24187295.661      182830.967        2312.567          15.000                                                                                                                                  
C26  22306552.699     -250160.380       -2018.437          26.000                                                                                                                                  
> 2021 12  7  4 24 46.0000000  0 23                     
G10  20029166.140      103846.554         446.583          30.000    20029165.313       35075.466         337.391          18.000  
G12  22134310.895       -2652.311         -28.379          13.000                                                                  
G21  24809326.989     -148194.213        -750.289          18.000                                                                  
G25  21507342.748     -396314.341       -1916.180          22.000    21507343.578     -196083.440       -1433.086          17.000  
G31  22062686.413     -584605.993       -2826.538          25.000                                                                  
G32  21072448.974     -232843.034       -1069.108          27.000    21072448.775      -65670.723        -794.769          18.000  
R 8  20355823.105                                          26.000  
R 9  20397848.574                                          16.000  
E 4  24344229.277      119254.078         953.692          10.000    24344240.342       44075.605         716.920          12.000  
E 9  23989225.936     -147925.226        -908.722          25.000                                                                  
E11  27016771.161      154188.022        2832.593          18.000                                                                  
E24  27034870.045     -381898.206       -3067.320          18.000                                                                  
E36  26104849.853      181604.120        1609.940          28.000    26104854.095      121383.488        1199.558          19.000  
J 2  38060453.852       60958.424         277.803          22.000                                                                  
C 3  36974316.624       13279.266          62.241          26.000                                                                                                                                  
C 6  36112116.920       18702.095         149.425          25.000                                                                                                                                  
C 8  37655763.352      283983.662           0.050          21.000                                                                                                                                  
C 9  36649623.201       19844.994         108.720          27.000                                                                                                                                  
C13  37145368.874      272123.442        1667.562          24.000                                                                                                                                  
C16  36208359.584       26548.324         215.458          28.000                                                                                                                                  
C21  21573571.269       17918.118          61.621          25.000                                                                    21573563.370        5836.227          47.549          15.000  
C22  24187740.057      194880.534        2314.404          12.000                                                                                                                                  
C26  22306165.209     -260674.655       -2020.311          34.000                                                                                                                                  
> 2021 12  7  4 24 47.0000000  0 23                     
G10  20029251.864      106202.157         447.364          31.000    20029250.854       36395.510         334.052          20.000  
G12  22134305.490       -2802.017         -28.793          13.000                                                                  
G21  24809184.163     -152140.749        -752.883          17.000                                                                  
G25  21506980.219     -406390.842       -1917.769          20.000    21506978.511     -201706.630       -1432.322          15.000  
G31  22062147.751     -599448.229       -2823.731          20.000                                                                  
G32  21072246.655     -238445.408       -1064.364          26.000    21072246.866      -68792.781        -798.069          20.000  
R 8  20355446.678                                          22.000  
R 9  20398308.370                                          18.000  
E 4  24344410.611      124260.730         952.179          10.000    24344425.803       46893.342         719.664          11.000  
E 9  23989052.847     -152702.970        -909.700          21.000                                                                  
E11  27017310.407      169078.406        2834.888          18.000                                                                  
E24  27034286.266     -398020.116       -3070.621          13.000                                                                  
E36  26105155.974      190071.989        1611.186          25.000    26105159.448      126084.591        1195.331          15.000  
J 2  38060506.700       62417.537         275.236          23.000                                                                  
C 3  36974329.562       13636.260          79.608          26.000                                                                                                                                  
C 6  36112145.432       19471.973         147.983          27.000                                                                                                                                  
C 8  37656122.600      293505.309        1827.992          26.000                                                                                                                                  
C 9  36649644.440       20419.423         109.840          25.000                                                                                                                                  
C13  37145688.257      280801.925        1666.607          25.000                                                                                                                                  
C16  36208399.990       27661.942         215.681          24.000                                                                                                                                  
C21  21573583.126       18241.082          62.500          20.000                                                                    21573575.507        6026.163          47.876          18.000  
C22  24188184.479      206925.348           0.006          12.000                                                                                                                                  
C26  22305776.784     -271191.931       -2019.554          34.000                                                                    22305772.559       -6091.274       -1521.257          21.000  
> 2021 12  7  4 24 48.0000000  0 23                     
G10  20029336.646      108558.630         447.199          32.000    20029335.950       37710.142         333.810          18.000  
G12  22134299.976       -2955.211         -30.500          14.000                                                                  
G21  24809040.853     -156099.446        -754.031          19.000                                                                  
G25  21506616.094     -416462.462       -1916.758          23.000    21506613.958     -207321.896       -1433.001          16.000  
G31  22061613.365     -614296.670       -2827.734          26.000                                                                  
G32  21072042.522     -244054.295       -1068.007          22.000    21072043.631      -71920.998        -798.219          18.000  
R 8  20355070.006                                          26.000  
R 9  20398763.141                                          17.000  
E 4  24344591.692      129260.933         951.628          10.000    24344609.274       49717.419         718.249          11.000  
E 9  23988879.794     -157485.212        -911.196          25.000                                                                  
E11  27017844.201      183959.157        2832.846          18.000                                                                  
E24  27033716.054     -414156.002       -3070.433          10.000                                                                  
E36  26105461.912      198539.275        1610.600          22.000    26105464.863      130786.255        1198.351          17.000  
J 2  38060559.627       63870.095         277.094          17.000                                                                  
C 3  36974345.299       14036.970          71.574          26.000                                                                                                                                  
C 6  36112173.115       20230.752         142.397          28.000                                                                                                                                  
C 8  37656465.873      303026.673        1826.573          26.000                                                                                                                                  
C 9  36649665.189       20994.328         109.373          25.000                                                                                                                                  
C13  37146007.940      289478.312        1665.622          25.000                                                                                                                                  
C16  36208440.413       28774.565         210.486          26.000                                                                                                                                  
C21  21573594.277       18559.484          60.980          24.000                                                                    21573583.874        6215.861          47.434          17.000  
C22  24188628.622      218967.105           0.006          13.000                                                                                                                                  
C26  22305388.238     -281711.349       -2022.364          34.000                                                                    22305381.377      -12064.652       -1523.080          22.000  
> 2021 12  7  4 24 49.0000000  0 23                     
G10  20029420.147      110901.008         446.041          29.000    20029420.620       39023.653         333.998          22.000  
G12  22134294.606       -3105.304          -0.013          14.000                                                                  
G21  24808892.059     -160060.671        -754.198          17.000                                                                  
G25  21506251.341     -426537.572       -1917.854          17.000    21506245.637     -212944.996       -1433.082          17.000  
G31  22061074.280     -629161.559       -2827.463          29.000                                                                  
G32  21071839.138     -249673.842       -1069.798          28.000    21071840.797      -75046.190        -796.410          18.000  
R 8  20354696.197                                          23.000  
R 9  20399218.558                                          16.000  
E 4  24344772.808      134262.424         950.973           6.000    24344792.676       52540.027         719.355          11.000  
E 9  23988707.420     -162270.657        -910.723          23.000    23988711.165      -11166.544        -676.246          18.000  
E11  27018385.646      198841.356        2830.212          18.000                                                                  
E24  27033131.986     -430285.277       -3068.882          14.000                                                                  
E36  26105768.094      207000.161        1610.510          20.000    26105773.557      135499.537        1202.031          17.000  
J 2  38060612.143       65311.774         273.081          21.000                                                                  
C 3  36974364.204       14495.318          84.638          26.000                                                                                                                                  
C 6  36112200.135       20976.668         146.338          28.000                                                                                                                                  
C 8  37656816.144      312540.360        1825.774          25.000                                                                                                                                  
C 9  36649686.139       21566.812         109.488          25.000                                                                                                                                  
C13  37146327.117      298146.428        1663.851          24.000                                                                                                                                  
C16  36208480.261       29871.248         211.707          26.000                                                                                                                                  
C21  21573606.396       18878.471          60.672          24.000                                                                    21573597.904        6402.434          46.341          19.000  
C22  24189070.633      231005.385           0.006          13.000                                                                                                                                  
C26  22304999.813     -292238.986       -2023.437          32.000                                                                    22304993.319      -18040.742       -1522.945          25.000  
> 2021 12  7  4 24 50.0000000  0 24                     
G10  20029506.290      113255.583         448.429          30.000    20029506.527       40341.003         338.959          21.000  
G12  22134289.537       -3247.526          -0.013          15.000                                                                  
G21  24808748.596     -164023.739        -754.012          16.000                                                                  
G25  21505886.222     -436621.430       -1919.330          20.000    21505881.241     -218572.291       -1435.001          17.000  
G31  22060535.879     -644012.762       -2827.544          31.000                                                                  
G32  21071637.054     -255297.647       -1071.334          30.000    21071634.395      -78171.902        -799.248          22.000  
R 8  20354323.748                                          18.000  
R 9  20399675.047                                          15.000  
E 4                                                                  24619407.289       55364.981         719.537          10.000  
E 9  23988533.895     -167063.834        -911.471          18.000    23988531.925      -13832.938        -677.954          21.000  
E11  27018915.025      213711.949        2827.640          18.000                                                                  
E24  27032548.276     -446404.872       -3067.082          15.000                                                                  
E36  26106074.388      215469.318        1609.577          18.000    26106081.152      140213.464        1201.238          16.000  
J 2  38060663.961       66750.026         272.461          22.000                                                                  
C 3  36974382.943       14980.376          94.518          29.000                                                                                                                                  
C 6  36112227.835       21730.555         143.411          26.000                                                                                                                                  
C 8  37657166.527      322046.663        1826.634          25.000                                                                                                                                  
C 9  36649706.600       22127.085         106.850          19.000                                                                                                                                  
C10  40683564.651      -13179.384       -1203.336          17.000                                                                                                                                  
C13  37146646.795      306812.036        1663.556          23.000                                                                                                                                  
C16  36208520.798       30974.485         212.808          28.000                                                                                                                                  
C21  21573618.000       19187.913          59.404          23.000                                                                    21573609.404        6580.816          44.356          18.000  
C22  24189515.220      243059.222           0.006          12.000                                                                                                                                  
C26  22304611.188     -302764.536       -2020.902          32.000                                                                    22304605.610      -24017.357       -1522.418          23.000  
> 2021 12  7  4 24 51.0000000  0 24                     
G10  20029590.688      115599.177         446.187          27.000    20029591.580       41652.852         333.683          23.000  
G12  22134285.903       -3394.786          -0.013          16.000                                                                  
G21  24808604.745     -167996.898        -757.682          17.000                                                                  
G25  21505531.363     -446705.738       -1918.366          20.000    21505520.013     -224201.064       -1434.928          17.000  
G31  22059999.695     -658873.555       -2827.448          24.000                                                                  
G32  21071434.020     -260920.586       -1067.633          23.000    21071433.001      -81310.011        -798.869          22.000  
R 8  20353947.382                                          23.000  
R 9  20400132.357                                          17.000  
E 4                                                                  24619590.970       58191.572         720.971           7.000  
E 9  23988360.065     -171860.502        -912.770          19.000    23988362.972      -16504.978        -681.687          22.000  
E11  27019451.436      228569.831        2825.978          19.000    27019461.663       22597.358        2115.306          17.000  
E24  27031964.684     -462520.340       -3066.672          16.000                                                                  
E36  26106379.759      223911.597        1606.962          19.000    26106385.475      144928.847        1201.145          18.000  
J 2  38060714.480       68180.758         272.139          22.000                                                                  
C 3  36974403.034       15453.796          78.252          27.000                                                                                                                                  
C 6  36112263.962       22478.543         141.987          25.000                                                                                                                                  
C 8  37657517.504      331556.290        1824.393          28.000                                                                                                                                  
C 9  36649727.079       22681.303         106.718          18.000                                                                                                                                  
C10  40683333.767      -19440.788       -1203.350          16.000                                                                                                                                  
C13  37146965.655      315469.152        1662.144          25.000                                                                                                                                  
C16  36208560.619       32071.529         210.911          22.000                                                                                                                                  
C21  21573629.902       19504.804          61.153          21.000                                                                    21573619.795        6753.704          42.829          18.000  
C22  24189959.712      255111.335           0.006          10.000                                                                                                                                  
C26  22304223.313     -313284.970       -2020.060          33.000                                                                    22304218.146      -29995.476       -1523.332          26.000  
> 2021 12  7  4 24 52.0000000  0 26                     
G10  20029676.387      117957.206         448.495          26.000    20029676.581       42962.187         333.986          22.000  
G12  22134280.258       -3551.035          -0.013          16.000                                                                  
G21  24808468.737     -171978.729        -757.343          15.000                                                                  
G25  21505166.339     -456788.333       -1917.937          17.000    21505154.710     -229828.123       -1434.803          13.000  
G31  22059462.478     -673739.140       -2828.770          32.000                                                                  
G32  21071226.711     -266541.359       -1070.418          30.000    21071229.391      -84447.845        -800.505          19.000  
R 8  20353573.973                                          27.000  
R 9  20400588.323                                          19.000  
E 4                                                                  24619775.000       61023.632         722.119           7.000  
E 9  23988186.435     -176671.465        -916.130          19.000    23988189.133      -19177.626        -682.337          21.000  
E11  27019989.310      243433.420        2828.847          15.000    27020001.125       30904.639        2117.353          16.000  
E24  27031362.372     -478638.066       -3068.378          21.000                                                                  
E36  26106686.001      232358.013        1607.400          19.000    26106692.913      149642.374        1200.648          23.000  
J 2  38060766.621       69612.506         272.570          22.000                                                                  
C 2  37449012.835        1014.733          79.487          27.000                                                                                                                                  
C 3  36974420.193       15862.283          86.773          26.000                                                                                                                                  
C 6  36112291.287       23226.352         143.843          24.000                                                                                                                                  
C 8  37657868.700      341062.534        1823.883          26.000                                                                                                                                  
C 9  36649747.959       23243.804         108.482          20.000                                                                                                                                  
C10  40683104.576      -25714.798       -1205.417          17.000                                                                                                                                  
C13  37147284.613      324123.135        1662.059          21.000                                                                                                                                  
C16  36208600.894       33168.486         209.592          22.000                                                                                                                                  
C21  21573641.885       19825.291          61.300          20.000                                                                    21573631.639        6922.242          42.262          17.000  
C22  24190404.806      267180.167           0.006          12.000                                                                                                                                  
C24  26014679.702      -26256.979       -3264.680          17.000                                                                                                                                  
C26  22303834.523     -323810.727       -2020.078          30.000                                                                    22303830.027      -35974.423       -1524.059          23.000  
> 2021 12  7  4 24 53.0000000  0 27                     
G10  20029759.651      120299.172         445.833          31.000    20029761.110       44265.554         330.342          20.000  
G12  22134274.291       -3714.806          -0.013          16.000                                                                  
G21  24808324.554     -175962.916        -758.299          17.000                                                                  
G25  21504801.096     -466875.835       -1920.221          13.000    21504788.987     -235461.743       -1436.802          14.000  
G31  22058926.398     -688604.985       -2829.789          36.000                                                                  
G32  21071024.662     -272175.677       -1072.619          33.000    21071024.515      -87591.850        -800.377          19.000  
R 1  23580267.004                                          16.000  
R 8  20353197.303                                          27.000  
R 9  20401045.695                                          19.000  
E 4                                                                  24619959.326       63860.065         723.668           7.000  
E 9  23988012.326     -181480.265        -914.680          20.000    23988015.721      -21852.657        -683.022          20.000  
E11  27020527.640      258297.796        2827.911          18.000    27020540.756       39212.977        2116.071          17.000  
E24  27030779.631     -494767.283       -3069.515          22.000                                                                  
E36  26106992.419      240809.419        1609.314          21.000    26106999.296      154351.987        1201.226          23.000  
J 2  38060816.468       71044.647         273.379          22.000                                                                  
C 2  37449029.546        1359.394          67.936          27.000                                                                                                                                  
C 3  36974435.817       16331.825          85.569          25.000                                                                                                                                  
C 6  36112318.726       23968.444         143.220          25.000                                                                                                                                  
C 8  37658219.022      350554.434        1822.581          24.000                                                                                                                                  
C 9  36649768.115       23803.160         106.822          25.000                                                                                                                                  
C10  40682873.117      -31992.158       -1204.246          17.000                                                                                                                                  
C13  37147604.166      332787.093        1663.047          21.000                                                                                                                                  
C16  36208641.108       34256.139         208.365          22.000                                                                                                                                  
C21  21573653.376       20135.634          57.089          20.000                                                                    21573643.819        7096.777          44.159          18.000  
C22  24190849.743      279244.077           0.006          13.000                                                                                                                                  
C24  26014052.672      -43260.336       -3268.280          19.000                                                                                                                                  
C26  22303445.671     -334337.099       -2022.284          32.000                                                                    22303441.820      -41954.107       -1523.116          23.000  
> 2021 12  7  4 24 54.0000000  0 26                     
G10  20029842.775      122645.725         446.948          30.000    20029846.049       45574.403         333.073          24.000  
G12  22134269.649       -3876.651         -30.164          15.000                                                                  
G21  24808174.705     -179945.406        -756.689          19.000                                                                  
G25  21504425.969     -476969.458           0.005          13.000    21504422.768     -241102.898       -1438.665          12.000  
G31  22058388.679     -703474.454       -2828.897          35.000                                                                  
G32  21070823.033     -277810.086       -1071.295          32.000    21070821.394      -90734.548        -801.535          22.000  
R 1  23579666.874                                          16.000  
R 8  20352821.644                                          24.000  
R 9  20401501.721                                          19.000  
E 9  23987837.885     -186282.710        -913.054          18.000    23987842.310      -24532.995        -684.014          22.000  
E11  27021067.751      273157.449        2828.008          18.000    27021080.028       47508.573        2113.143          15.000  
E24  27030198.399     -510905.758       -3071.497          20.000                                                                  
E36  26107299.019      249259.923        1607.875          24.000    26107305.713      159063.736        1200.141          23.000  
J 2  38060869.569       72471.574         269.702          23.000                                                                  
C 2  37449040.478        1677.379          54.574          27.000                                                                                                                                  
C 3  36974453.318       16753.324          67.368          25.000                                                                                                                                  
C 6  36112345.918       24705.482         141.256          27.000                                                                                                                                  
C 8  37658569.153      360041.646        1822.282          23.000                                                                                                                                  
C 9  36649788.560       24351.888         104.316          28.000                                                                                                                                  
C10  40682643.018      -38268.215       -1206.073          19.000                                                                                                                                  
C13  37147922.357      341443.136        1661.308          22.000                                                                                                                                  
C16  36208680.624       35341.882         208.963          27.000                                                                                                                                  
C21  21573664.326       20442.453          61.625          20.000                                                                    21573656.008        7274.421          45.641          19.000  
C22  24191294.384      291300.385           0.006          13.000                                                                                                                                  
C24  26013437.365      -60289.060       -3269.296          20.000                                                                                                                                  
C26  22303056.749     -344869.412       -2023.366          34.000                                                                    22303053.640      -47935.260       -1525.210          22.000  
> 2021 12  7  4 24 55.0000000  0 26                     
G10  20029930.472      124993.280         448.633          32.000    20029931.023       46882.855         335.567          22.000  
G12  22134264.044       -4031.726         -28.355          14.000                                                                  
G21  24808045.019     -183916.940        -754.087          20.000                                                                  
G25  21504058.668     -487059.281       -1920.381          22.000    21504056.314     -246747.848       -1438.922          18.000  
G31  22057850.423     -718332.333       -2829.261          29.000                                                                  
G32  21070618.698     -283446.403       -1072.867          31.000    21070616.920      -93883.719        -801.453          20.000  
R 1  23579073.488                                          16.000  
R 8  20352444.771                                          26.000  
R 9  20401958.421                                          18.000  
E 9  23987664.159     -191085.753        -914.828          24.000    23987668.881      -27215.355        -685.153          21.000  
E11  27021605.619      288009.507        2824.222          18.000    27021619.066       55807.455        2113.328          13.000  
E24  27029611.749     -527057.414       -3072.123          18.000                                                                  
E36  26107605.262      257707.646        1607.361          23.000    26107611.816      163774.798        1200.392          24.000  
J 2  38060922.434       73884.436         268.336          23.000                                                                  
C 2  37449055.278        1940.621          61.376          27.000                                                                                                                                  
C 3  36974467.021       17152.254          75.499          27.000                                                                                                                                  
C 6  36112373.654       25440.837         140.083          28.000                                                                                                                                  
C 8  37658919.354      369529.810        1822.735          24.000                                                                                                                                  
C 9  36649808.576       24897.154         102.968          26.000                                                                                                                                  
C10  40682410.982      -44560.921       -1208.885          16.000                                                                                                                                  
C13  37148240.885      350087.652        1660.092          18.000                                                                                                                                  
C16  36208720.699       36421.066         208.967          25.000                                                                                                                                  
C21  21573676.436       20764.057          60.511          22.000                                                                    21573666.967        7439.658          42.270          19.000  
C22  24191736.563      303336.580           0.006          14.000                                                                                                                                  
C24  26012812.638      -77334.300       -3275.384          17.000                                                                                                                                  
C26  22302667.428     -355399.808       -2021.604          31.000                                                                    22302665.924      -53910.762       -1520.914          20.000  
> 2021 12  7  4 24 56.0000000  0 26                     
G10  20030018.378      127340.749         445.696          33.000    20030016.058       48196.207         332.430          23.000  
G12  22134263.119       -4178.442          -0.013          14.000                                                                  
G21  24807901.656     -187876.946        -754.163          17.000                                                                  
G25  21503683.523     -497144.066       -1917.749          30.000    21503690.400     -252386.021       -1436.694          20.000  
G31  22057310.583     -733209.143       -2829.464          24.000                                                                  
G32  21070410.159     -289091.710       -1072.546          24.000    21070412.507      -97030.099        -802.445          22.000  
R 1  23578473.505                                          16.000  
R 8  20352066.634                                          30.000  
R 9  20402416.429                                          18.000  
E 9  23987492.650     -195901.560        -916.876          26.000    23987495.120      -29901.302        -685.278          19.000  
E11  27022140.799      302853.764        2826.437          18.000    27022157.283       64093.788        2110.901          12.000  
E24  27029027.079     -543205.313       -3075.954          17.000                                                                  
E36  26107910.510      266151.991        1606.857          18.000    26107917.788      168484.692        1200.317          24.000  
J 2  38060971.670       75294.434         267.758          18.000                                                                  
C 2  37449066.151        2285.776          61.807          27.000                                                                                                                                  
C 3  36974484.574       17585.286          84.894          26.000                                                                                                                                  
C 6  36112400.665       26169.225         138.364          29.000                                                                                                                                  
C 8  37659268.856      379015.596        1819.671          24.000                                                                                                                                  
C 9  36649828.078       25428.345         102.928          25.000                                                                                                                                  
C10  40682178.868      -50855.343       -1208.567          14.000                                                                                                                                  
C13  37148559.041      358732.633        1659.731          21.000                                                                                                                                  
C16  36208760.206       37497.064         207.667          26.000                                                                                                                                  
C21  21573688.616       21072.516          57.996          29.000                                                                    21573678.815        7614.726          44.964          18.000  
C22  24192180.052      315361.672           0.006          13.000                                                                                                                                  
C24  26012183.087      -94406.441       -3279.011          14.000                                                                                                                                  
C26  22302279.195     -365934.173       -2025.572          30.000                                                                    22302277.099      -59893.090       -1525.217          20.000  
> 2021 12  7  4 24 57.0000000  0 26                     
G10  20030101.388      129684.200         446.777          33.000    20030100.779       49503.140         333.125          23.000  
G12  22134257.627       -4331.073          -0.013          16.000                                                                  
G21  24807758.280     -191838.142        -752.243          17.000                                                                  
G25  21503320.585     -507228.758       -1921.707          32.000    21503323.911     -258017.076       -1434.406          20.000  
G31  22056770.106     -748080.577       -2829.708          24.000                                                                  
G32  21070203.024     -294731.968       -1074.089          25.000    21070207.946     -100179.798        -802.642          23.000  
R 1  23577873.096                                          15.000  
R 8  20351691.105                                          27.000  
R 9  20402870.196                                          16.000  
E 9  23987318.793     -200719.837        -917.549          24.000    23987320.461      -32591.860        -687.037          19.000  
E11  27022678.720      317707.549        2827.844          17.000    27022695.255       72376.253        2110.555          10.000  
E24  27028443.530     -559352.754       -3069.099          14.000                                                                  
E36  26108215.959      274586.797        1604.662          18.000    26108223.551      173192.420        1200.414          22.000  
J 2  38061022.485       76696.824         265.480          18.000                                                                  
C 2  37449073.035        2554.686          54.341          24.000                                                                                                                                  
C 3  36974501.629       18035.036          90.684          27.000                                                                                                                                  
C 6  36112428.051       26890.009         136.246          26.000                                                                                                                                  
C 8  37659618.428      388499.420        1820.697          23.000                                                                                                                                  
C 9  36649847.571       25954.132         101.014          28.000                                                                                                                                  
C10  40681946.955      -57142.357       -1208.589          14.000                                                                                                                                  
C13  37148877.040      367371.196        1657.942          22.000                                                                                                                                  
C16  36208799.905       38576.969         204.615          24.000                                                                                                                                  
C21  21573699.479       21366.725          56.156          26.000                                                                    21573689.704        7787.838          42.469          18.000  
C22  24192620.958      327394.946           0.006          12.000                                                                                                                                  
C24  26011554.844     -111473.672       -3277.231          15.000                                                                                                                                  
C26  22301890.169     -376476.844       -2022.510          32.000                                                                    22301887.915      -65884.614       -1523.720          20.000  
> 2021 12  7  4 24 58.0000000  0 26                     
G10  20030184.269      132025.703         444.888          32.000    20030186.059       50813.569         333.216          21.000  
G12  22134251.821       -4489.987          -0.013          15.000                                                                  
G21  24807614.573     -195794.840        -754.630          21.000                                                                  
G25  21502954.244     -517328.656       -1920.416          29.000    21502958.198     -263645.806       -1434.523          23.000  
G31  22056226.598     -762953.642       -2831.253          28.000                                                                  
G32  21069995.242     -300379.560       -1073.848          24.000    21070003.323     -103332.425        -803.429          19.000  
R 1  23577260.017                                          13.000  
R 8  20351316.466                                          24.000  
R 9  20403326.660                                          20.000  
E 9  23987143.837     -205540.526        -917.904          27.000    23987145.994      -35275.560        -685.356          19.000  
E11  27023219.999      332546.236        2821.092          20.000    27023233.315       80659.837        2111.107          10.000  
E24  27027859.480     -575482.516       -3072.128          20.000                                                                  
E36  26108520.683      283023.991        1606.030          22.000    26108528.712      177889.912        1195.176          15.000  
J 2  38061072.611       78093.733         266.964          19.000                                                                  
C 2  37449083.647        2761.264          44.526          25.000                                                                                                                                  
C 3  36974522.070       18533.537          77.532          26.000                                                                                                                                  
C 6  36112454.164       27609.752         139.224          25.000                                                                                                                                  
C 8  37659967.783      397979.421        1819.850          24.000                                                                                                                                  
C 9  36649866.697       26477.960          97.396          28.000                                                                                                                                  
C10  40681714.666      -63441.613       -1209.648          15.000                                                                                                                                  
C13  37149195.380      376008.116        1658.896          21.000                                                                                                                                  
C16  36208839.020       39639.684         204.605          24.000                                                                                                                                  
C21  21573710.578       21667.338          58.193          21.000                                                                    21573700.829        7959.616          44.133          18.000  
C22  24193064.761      339427.790           0.006          11.000                                                                                                                                  
C24  26010925.712     -128533.808       -3275.977          14.000                                                                                                                                  
C26  22301501.901     -387011.765       -2021.993          33.000                                                                    22301497.973      -71871.079       -1526.526          23.000  
> 2021 12  7  4 24 59.0000000  0 25                     
G10  20030267.637      134369.387         446.583          28.000    20030270.736       52118.698         331.751          22.000  
G12  22134250.477       -4648.902          -0.013          17.000                                                                  
G21  24807468.113     -199763.927        -755.291          18.000                                                                  
G25  21502589.491     -527424.250       -1918.348          24.000    21502591.988     -269271.372       -1432.000          18.000  
G31  22055690.012     -777829.075       -2831.118          33.000                                                                  
G32  21069796.474     -306025.453       -1075.903          33.000    21069798.544     -106483.861        -801.314          21.000  
R 1  23576661.091                                          11.000  
R 8  20350939.961                                          21.000  
R 9  20403785.993                                          17.000  
E 9  23986969.073     -210361.171        -915.268          20.000    23986971.212      -37965.987        -686.619          24.000  
E11  27023754.223      347376.657        2820.196          18.000    27023771.544       88949.676        2112.141          11.000  
E24  27027274.985     -591624.860       -3071.306          18.000                                                                  
E36  26108826.604      291463.518        1606.581          20.000    26108833.742      182585.160        1196.276          15.000  
J 2  38061122.283       79497.293         266.915          19.000                                                                  
C 2  37449091.988        2935.899          36.751          27.000                                                                                                                                  
C 3  36974536.750       18905.368          68.063          27.000                                                                                                                                  
C 6  36112480.320       28329.076         137.979          24.000                                                                                                                                  
C 8  37660317.556      407451.758        1819.723          23.000                                                                                                                                  
C 9  36649885.309       26993.516          98.177          22.000                                                                                                                                  
C13  37149513.584      384640.194        1657.591          25.000                                                                                                                                  
C16  36208878.387       40703.446         205.125          26.000                                                                                                                                  
C21  21573721.632       21961.121          54.054          21.000                                                                    21573711.936        8133.244          43.137          18.000  
C22  24193508.136      351450.038           0.006          12.000                                                                                                                                  
C24  26010296.701     -145590.613       -3276.031          16.000                                                                                                                                  
C26  22301113.015     -397550.594       -2024.989          32.000                                                                    22301110.011      -77858.495       -1526.177          24.000  
> 2021 12  7  4 25  0.0000000  0 25                     
G10  20030351.974      136709.221         445.323          29.000    20030355.309       53423.785         332.443          26.000  
G12  22134244.531       -4812.910          -0.013          17.000                                                                  
G21  24807321.143     -203733.473        -755.782          18.000                                                                  
G25  21502225.392     -537508.541       -1919.143          19.000    21502227.034     -274893.381       -1433.194          17.000  
G31  22055152.707     -792708.739       -2830.334          28.000                                                                  
G32  21069594.208     -311688.609       -1076.354          32.000    21069593.764     -109623.635        -804.070          25.000  
R 1  23576061.599                                          13.000  
R 8  20350564.039                                          21.000  
R 9  20404242.457                                          17.000  
E 9  23986793.768     -215183.575        -920.154          18.000    23986795.480      -40663.165        -686.780          24.000  
E11  27024290.303      362202.784        2822.423          16.000    27024309.849       97237.355        2110.249          14.000  
E24  27026693.308     -607767.568       -3072.094          18.000                                                                  
E36  26109132.113      299898.730        1605.654          23.000    26109138.345      187273.692        1194.833          17.000  
J 2  38061172.906       80904.149         267.277          24.000                                                                  
C 2  37449102.033        3182.468          47.736          27.000                                                                                                                                  
C 3  36974553.230       19302.659          80.014          28.000                                                                                                                                  
C 6  36112505.847       29035.805         134.730          25.000                                                                                                                                  
C 8  37660667.076      416926.856        1818.396          28.000                                                                                                                                  
C 9  36649904.260       27505.931          98.565          25.000                                                                                                                                  
C13  37149831.234      393263.819        1657.261          28.000                                                                                                                                  
C16  36208917.197       41766.507         203.726          25.000                                                                                                                                  
C21  21573732.102       22251.782          54.713          20.000                                                                    21573722.441        8301.262          42.885          18.000  
C22  24193951.450      363469.663           0.006          13.000                                                                                                                                  
C24  26009668.589     -162654.686           0.005          16.000                                                                                                                                  
C26  22300724.084     -408093.475       -2024.790          33.000                                                                    22300721.386      -83845.901       -1526.117          25.000  
> 2021 12  7  4 25  1.0000000  0 25                     
G10  20030436.565      139050.799         444.843          31.000    20030440.214       54737.361         333.265          20.000  
G12  22134236.068       -4980.289         -31.937          17.000                                                                  
G21  24807176.036     -207717.091        -759.591          16.000                                                                  
G25  21501859.958     -547601.073       -1921.106          17.000    21501863.328     -280513.140       -1433.052          15.000  
G31  22054614.586     -807580.803       -2832.897          30.000                                                                  
G32  21069389.280     -317342.982       -1075.755          29.000    21069388.435     -112778.957        -803.906          28.000  
R 1  23575462.272                                          13.000  
R 8  20350187.673                                          20.000  
R 9  20404699.174                                          20.000  
E 9  23986619.449     -220016.152        -919.909          24.000    23986620.097      -43357.328        -687.091          23.000  
E11  27024828.878      377029.648        2821.255          14.000    27024847.420      105513.673        2107.436          12.000  
E24  27026109.930     -623913.182       -3072.687          20.000                                                                  
E36  26109437.771      308331.101        1604.694          21.000    26109441.315      191960.044        1194.758          14.000  
J 2  38061223.956       82314.021         267.404          20.000                                                                  
C 2  37449114.932        3510.563          69.074          25.000                                                                                                                                  
C 3  36974568.357       19697.403          81.483          27.000                                                                                                                                  
C 6  36112531.401       29730.586         133.884          24.000                                                                                                                                  
C 8  37661016.318      426396.195        1818.325          29.000                                                                                                                                  
C 9  36649923.055       28018.243          98.094          25.000                                                                                                                                  
C13  37150148.640      401885.084        1656.020          30.000                                                                                                                                  
C16  36208955.866       42821.065         201.539          23.000                                                                                                                                  
C21  21573742.712       22538.211          54.690          17.000                                                                    21573733.400        8470.054          40.776          18.000  
C22  24194394.179      375473.755           0.006          13.000                                                                                                                                  
C24  26009039.360     -179717.399           0.005          17.000                                                                                                                                  
C26  22300335.450     -418636.838       -2025.864          30.000                                                                    22300332.612      -89835.607       -1527.706          22.000  
> 2021 12  7  4 25  2.0000000  0 25                     
G10  20030519.497      141390.031         445.894          26.000    20030524.533       56035.624         329.602          18.000  
G12  22134230.061       -5146.591         -30.710          17.000                                                                  
G21  24807031.674     -211703.805        -760.244          19.000                                                                  
G25  21501494.235     -557700.279       -1921.854          20.000    21501500.344     -286133.394       -1431.765          17.000  
G31  22054077.364     -822466.035       -2833.184          30.000                                                                  
G32  21069187.101     -323003.654       -1077.979          30.000    21069183.543     -115935.989        -804.622          27.000  
R 1  23574862.865                                          14.000  
R 8  20349811.821                                          22.000  
R 9  20405154.677                                          19.000  
E 9  23986444.668     -224846.573        -917.765          15.000    23986445.097      -46053.865        -687.608          23.000  
E11                                                                  25543675.679      113785.765        2106.841          13.000  
E24  27025521.591     -640073.486       -3076.917          20.000                                                                  
E36  26109742.854      316765.758        1605.197          25.000    26109746.197      196652.628        1195.671          13.000  
J 2  38061274.710       83716.508         265.287          23.000                                                                  
C 2  37449130.515        3859.205          59.497          26.000                                                                                                                                  
C 3  36974584.635       20135.945          83.230          29.000                                                                                                                                  
C 6  36112557.250       30421.665         133.731          23.000                                                                                                                                  
C 8  37661365.664      435858.956        1817.926          30.000                                                                                                                                  
C 9  36649941.484       28525.565          96.830          26.000                                                                                                                                  
C13  37150466.548      410516.595        1655.864          28.000                                                                                                                                  
C16  36208994.318       43865.231         200.308          21.000                                                                                                                                  
C21  21573753.139       22825.070          53.660          19.000                                                                    21573744.053        8631.635          41.315          20.000  
C22  24194835.041      387475.186           0.006          14.000                                                                                                                                  
C24  26008408.308     -196770.795       -3274.599          17.000                                                                                                                                  
C26  22299946.162     -429186.710       -2026.523          28.000                                                                    22299944.013      -95823.073       -1525.453          26.000  
> 2021 12  7  4 25  3.0000000  0 25                     
G10  20030602.089      143729.412         444.911          25.000    20030609.184       57339.293         335.101          20.000  
G12  22134224.373       -5303.080         -28.841          17.000                                                                  
G21  24806878.194     -215698.471        -759.343          17.000                                                                  
G25  21501119.360     -567799.037       -1922.308          19.000    21501135.067     -291754.940       -1433.389          18.000  
G31  22053539.090     -837349.377       -2831.905          31.000                                                                  
G32  21068985.306     -328677.966       -1080.057          28.000    21068978.475     -119094.397        -805.137          25.000  
R 1  23574263.337                                          16.000  
R 8  20349435.717                                          23.000  
R 9  20405603.192                                          12.000  
E 9                                                                  22355835.080      -48751.579        -687.384          23.000  
E11                                                                  25544212.604      122051.870        2105.483          15.000  
E24  27024936.904     -656230.142       -3072.789          18.000                                                                  
E36  26110048.320      325197.531        1604.402          24.000    26110050.956      201343.448        1194.257          14.000  
J 2  38061325.115       85109.087         263.941          27.000                                                                  
C 2  37449141.833        4181.001          50.824          27.000                                                                                                                                  
C 3  36974602.152       20537.299          74.119          28.000                                                                                                                                  
C 6  36112583.110       31116.548         133.471          24.000                                                                                                                                  
C 8  37661714.153      445326.463        1818.969          28.000                                                                                                                                  
C 9  36649960.166       29038.330          98.761          24.000                                                                                                                                  
C13  37150784.316      419135.965        1654.702          29.000                                                                                                                                  
C16  36209032.368       44911.999         201.062          24.000                                                                                                                                  
C21  21573763.600       23109.554          55.344          20.000                                                                    21573754.706        8802.637          43.138          18.000  
C22  24195277.998      399486.218           0.006          15.000                                                                                                                                  
C24  26007779.481     -213822.720       -3275.705          17.000                                                                                                                                  
C26  22056293.462     -439735.315       -2026.116          28.000                                                                    22056292.107     -101811.869       -1526.135          25.000  
> 2021 12  7  4 25  4.0000000  0 25                     
G10  20030685.607      146061.148         444.653          29.000    20030693.068       58644.233         332.578          19.000  
G12  22134216.045       -5453.014         -28.548          16.000                                                                  
G21  24806750.197     -219679.025        -756.639          20.000                                                                  
G25  21500770.967     -577902.129       -1924.606          20.000    21500765.114     -297379.114       -1433.159          19.000  
G31  22053000.446     -852231.549       -2834.132          29.000                                                                  
G32  21068781.530     -334357.453       -1080.657          27.000    21068773.722     -122249.081        -800.708          22.000  
R 1  23573663.547                                          14.000  
R 8  20349057.998                                          22.000  
R 9  20406057.134                                          15.000  
E 9                                                                  22355659.958      -51450.844        -688.144          21.000  
E11                                                                  25544740.325      130314.823        2104.413          15.000  
E24  27024350.969     -672391.362       -3077.205          21.000    27024356.476      -16650.816       -2292.948          17.000  
E36  26110353.839      333633.311        1606.022          19.000    26110355.428      206029.828        1193.199          17.000  
J 2  38061375.136       86493.595         263.450          28.000                                                                  
C 2  37449153.516        4464.927          73.886          27.000                                                                                                                                  
C 3  36974618.265       20964.696          82.674          28.000                                                                                                                                  
C 6  36112608.297       31809.069         134.452          28.000                                                                                                                                  
C 8  37662063.368      454792.250        1817.550          29.000                                                                                                                                  
C 9  36649978.961       29546.980          95.943          24.000                                                                                                                                  
C13  37151102.106      427758.690        1656.826          24.000                                                                                                                                  
C16  36209070.994       45962.341         201.344          26.000                                                                                                                                  
C21  21573773.477       23388.714          51.939          21.000                                                                    21573766.067        8986.049          47.334          19.000  
C22  24195720.701      411489.743           0.006          15.000                                                                                                                                  
C24  26007150.383     -230882.207       -3277.266          17.000                                                                                                                                  
C26  22055903.476     -450283.654       -2023.128          27.000                                                                    22055903.342     -107801.737       -1524.427          21.000  
> 2021 12  7  4 25  5.0000000  0 25                     
G10  20030769.961      148399.944         444.739          28.000    20030778.243       59954.404         334.831          19.000  
G12  22134210.225       -5614.306         -32.076          16.000                                                                  
G21  24806603.728     -223654.534        -757.676          17.000                                                                  
G25  21500397.872     -588012.882       -1921.255          28.000    21500401.329     -303006.654       -1435.893          28.000  
G31  22052460.388     -867118.730       -2831.434          35.000                                                                  
G32  21068580.502     -340030.989       -1079.464          25.000    21068568.446     -125409.504        -807.970          22.000  
R 1  23573063.765                                          13.000  
R 8  20348679.651                                          20.000  
R 9  20406512.150                                          15.000  
E 9                                                                  22355484.496      -54154.135        -689.364          20.000  
E11                                                                  25545276.919      138575.270        2105.410          15.000  
E24  27023765.724     -688565.960       -3077.385          16.000                                                                  
E36  26110659.227      342067.771        1602.452          18.000    26110663.556      210714.943        1194.593          18.000  
J 2  38061426.178       87877.985         263.199          32.000                                                                  
C 2  37449167.461        4806.652          56.605          24.000                                                                                                                                  
C 3  36974636.253       21401.522          77.868          27.000                                                                                                                                  
C 6  36112634.349       32509.567         134.507          19.000                                                                                                                                  
C 8  37662412.295      464260.086        1819.067          22.000                                                                                                                                  
C 9  36650002.104       30048.788          96.170          20.000                                                                                                                                  
C13  37151420.663      436387.049        1656.713          25.000                                                                                                                                  
C16  36209109.359       47001.514         199.845          25.000                                                                                                                                  
C21  21573783.799       23663.717          53.220          26.000                                                                    21573777.418        9164.206          42.126          19.000  
C22  24196161.467      423494.164           0.006          16.000                                                                                                                                  
C24  26006520.709     -247951.695       -3278.473          16.000                                                                                                                                  
C26  22298773.953     -460829.962       -2027.037          29.000                                                                    22298773.488     -113794.151       -1526.333          21.000  
> 2021 12  7  4 25  6.0000000  0 24                     
G10  20030855.912      150734.610         443.134          28.000    20030862.353       61257.995         330.642          22.000  
G12  22134204.184       -5781.098          -0.013          13.000                                                                  
G21  24806449.699     -227630.103        -754.530          19.000                                                                  
G25  21500033.948     -598106.823       -1921.117          30.000    21500035.093     -308640.217       -1434.895          28.000  
G31  22051921.704     -881999.667       -2831.416          28.000                                                                  
G32  21068372.136     -345702.749       -1080.702          28.000    21068362.487     -128583.556        -808.823          18.000  
R 8  20348304.428                                          21.000  
R 9  20406956.782                                          14.000  
E 9                                                                  22355309.253      -56855.281        -689.909          17.000  
E11                                                                  25545814.561      146836.851        2104.053          14.000  
E24  27023179.702     -704742.498       -3079.530          17.000                                                                  
E36  26110963.829      350492.189        1603.499          24.000    26110967.975      215400.188        1194.716          17.000  
J 2  38061475.144       89249.167         262.473          34.000                                                                  
C 2  37449177.994        5078.340          38.151          26.000                                                                                                                                  
C 3  36974649.164       21762.621          68.132          26.000                                                                                                                                  
C 6  36112659.885       33200.498         131.494          17.000                                                                                                                                  
C 8  37662761.135      473725.242        1816.728          20.000                                                                                                                                  
C 9  36650020.262       30546.834          97.481          17.000                                                                                                                                  
C13  37151738.532      445009.216        1653.770          24.000                                                                                                                                  
C16  36209147.993       48048.707         201.900          21.000                                                                                                                                  
C21  21573794.295       23943.749          53.836          22.000                                                                    21573788.307        9324.217          39.300          17.000  
C22  24196604.249      435500.121           0.006          15.000                                                                                                                                  
C24  26005891.236     -265021.328       -3278.752          14.000                                                                                                                                  
C26  22298385.005     -471385.314       -2026.962          29.000                                                                    22298384.278     -119787.418       -1526.270          17.000  
> 2021 12  7  4 25  7.0000000  0 24                     
G10  20030939.273      153056.542         441.745          26.000    20030947.232       62559.526         328.891          18.000  
G12  22134198.609       -5936.513          -0.013          15.000                                                                  
G21  24806305.839     -231604.499        -756.550          17.000                                                                  
G23  21533283.845       41307.626        2683.785          18.000                                                                  
G25  21499668.235     -608194.462       -1916.330          25.000    21499669.999     -314265.048       -1432.101          19.000  
G31  22051380.983     -896887.097       -2832.880          32.000                                                                  
G32  21068161.668     -351380.436       -1080.198          31.000    21068148.241     -131753.680        -807.468          20.000  
R 8  20347929.554                                          20.000  
R 9  20407411.998                                          15.000  
E 9                                                                  22355133.642      -59562.219        -689.075          17.000  
E11                                                                  25546350.902      155093.568        2104.295          13.000  
E24  27022594.613     -720928.273       -3080.105          26.000                                                                  
E36  26111267.873      358902.727        1600.391          26.000    26111272.080      220086.295        1197.987          20.000  
J 2  38061524.685       90638.981         263.849          20.000                                                                  
C 2  37449183.072        5254.289          52.794          28.000                                                                                                                                  
C 3  36974663.183       22149.503          72.080          26.000                                                                                                                                  
C 6  36112683.904       33884.248         134.050          18.000                                                                                                                                  
C 8  37663109.704      483171.129        1814.465          22.000                                                                                                                                  
C 9  36650038.735       31046.881          93.465          22.000                                                                                                                                  
C13  37152055.803      453614.672        1651.718          29.000                                                                                                                                  
C21  21573804.364       24222.722          52.949          20.000                                                                    21573799.458        9479.266          40.714          17.000  
C22  24197044.771      447510.088           0.006          13.000                                                                                                                                  
C24  26005261.083     -282089.657           0.005          12.000                                                                                                                                  
C26  22297996.214     -481942.636       -2026.198          27.000                                                                    22297993.934     -125779.646       -1526.670          18.000  
> 2021 12  7  4 25  8.0000000  0 26                     
G10  20031026.297      155391.707         444.438          29.000    20031031.368       63852.377         330.574          18.000  
G12  22134193.243       -6085.949          -0.013          12.000                                                                  
G21  24806161.774     -235577.946        -756.400          20.000                                                                  
G23  21533794.821       55418.125        2685.310          16.000                                                                  
G25  21499302.845     -618270.442       -1918.123          17.000    21499305.071     -319887.196       -1434.697          17.000  
G31  22050839.512     -911770.637       -2831.146          32.000                                                                  
G32  21067953.067     -357062.408       -1081.458          34.000    21067946.080     -134923.133        -808.163          22.000  
R 1  23571264.055                                          15.000  
R 8  20347551.879                                          24.000  
R 9  20407869.945                                          16.000  
E 9                                                                  22354957.151      -62264.871        -688.903          19.000  
E11  27028585.497      480727.030        2818.125          19.000    27028586.868      163350.126        2103.830          14.000  
E24  27022006.719     -737114.938       -3080.251          24.000    27022013.858      -52727.812       -2299.780          18.000  
E36  26111572.353      367323.371        1603.479          23.000    26111582.746      224783.008        1196.959          20.000  
J 2  38061574.845       92023.220         263.686          17.000                                                                  
C 2  37449195.010        5581.264          73.129          27.000                                                                                                                                  
C 3  36974681.076       22592.511          80.835          25.000                                                                                                                                  
C 6  36112706.596       34571.030         130.388          22.000                                                                                                                                  
C 8  37663458.160      492623.497        1816.622          21.000                                                                                                                                  
C 9  36650055.688       31534.144          94.435          24.000                                                                                                                                  
C13  37152373.218      462221.531        1652.034          27.000                                                                                                                                  
C16  36209224.390       50113.350         197.453          23.000                                                                                                                                  
C21  21573814.005       24492.007          52.943          17.000                                                                    21573810.024        9639.235          41.220          16.000  
C22  24197487.448      459512.495           0.006          13.000                                                                                                                                  
C24  26004631.453     -299162.692           0.005          14.000                                                                                                                                  
C26  22297607.196     -492496.586       -2026.924          34.000                                                                    22297605.527     -131779.461       -1528.756          17.000  
> 2021 12  7  4 25  9.0000000  0 25                     
G10  20031113.662      157722.964         442.815          32.000    20031115.940       65153.676         332.626          22.000  
G12  22134187.769       -6238.363          -0.013          12.000                                                                  
G21  24806017.548     -239550.850        -757.021          22.000                                                                  
G25  21498937.263     -628366.862       -1923.181          15.000    21498940.423     -325513.442       -1431.687          18.000  
G31  22050301.976     -926648.432       -2833.041          35.000                                                                  
G32  21067744.692     -362742.697       -1082.422          26.000    21067742.957     -138091.792        -807.832          20.000  
R 1  23570664.125                                          13.000  
R 8  20347172.685                                          26.000  
R 9  20408325.475                                          15.000  
E 9  23985209.681     -258784.076        -925.107          20.000    23985215.467      -64980.962        -693.150          18.000  
E11  27029118.993      495522.419        2815.771          20.000    27029123.113      171603.521        2103.004          13.000  
E24  27021420.872     -753299.656       -3080.688          18.000    27021425.166      -61750.709       -2298.763          17.000  
E36  26111877.723      375751.333        1603.809          25.000    26111887.837      229478.380        1197.945          15.000  
J 2  38061625.346       93397.314         261.692          16.000                                                                  
C 2  37449211.020        5880.158          49.212          28.000                                                                                                                                  
C 3  36974694.186       22975.767          70.013          25.000                                                                                                                                  
C 6  36112733.476       35248.118         129.761          27.000                                                                                                                                  
C 8  37663807.985      502078.565        1816.404          24.000                                                                                                                                  
C 9  36650073.009       32012.964          89.160          19.000                                                                                                                                  
C13  37152689.620      470827.837        1651.948          27.000                                                                                                                                  
C16  36209261.734       51135.309         197.034          23.000                                                                                                                                  
C21  21573823.864       24757.823          51.343          23.000                                                                    21573822.850        9804.546          40.950          17.000  
C22  24197930.265      471519.034           0.006          12.000                                                                                                                                  
C24  26004001.404     -316247.416           0.005          16.000                                                                                                                                  
C26  22297218.301     -503052.263       -2028.246          33.000                                                                    22297214.930     -137776.585       -1528.203          28.000  
> 2021 12  7  4 25 10.0000000  0 24                     
G10  20031197.738      160064.134         449.886          28.000    20031201.761       66456.923         333.336          20.000  
G12  22134182.080       -6394.949          -0.013          13.000                                                                  
G21  24805871.371     -243529.397        -756.148          17.000                                                                  
G25  21498578.408     -638481.628           0.005          16.000    21498576.438     -331135.011       -1433.075          17.000  
G31  22049761.525     -941548.092       -2834.347          33.000                                                                  
G32  21067538.203     -368430.295       -1082.573          30.000    21067537.201     -141261.647        -807.457          19.000  
R 1  23570063.925                                          11.000  
R 8  20346795.621                                          23.000  
R 9  20408780.987                                          16.000  
E 9  23985033.155     -263649.869        -925.162          23.000    23985039.264      -67697.155        -692.710          18.000  
E11  27029654.898      510324.682        2818.584          18.000    27029658.791      179849.941        2101.352          13.000  
E24  27020834.414     -769496.433       -3083.431          18.000    27020839.284      -70775.518       -2300.016          14.000  
E36  26112181.707      384165.588        1601.635          28.000    26112193.618      234184.335        1201.370          13.000  
J 2  38061674.826       94762.138         257.341          18.000                                                                  
C 2  37449218.456        6114.070          52.664          27.000                                                                                                                                  
C 3  36974710.840       23348.868          70.328          23.000                                                                                                                                  
C 6  36112759.187       35927.938         129.205          26.000                                                                                                                                  
C 8  37664156.710      511534.567        1815.016          25.000                                                                                                                                  
C 9  36650090.295       32476.628          89.824          24.000                                                                                                                                  
C13  37153005.525      479421.612        1650.360          28.000                                                                                                                                  
C16  36209299.051       52158.538         194.894          21.000                                                                                                                                  
C21  21573832.066       25034.006          54.101          24.000                                                                    21573820.808        9965.985          40.441          20.000  
C24  26003372.524     -333331.183       -3280.732          17.000                                                                                                                                  
C26  22296829.693     -513615.360       -2027.128          31.000                                                                    22296826.070     -143772.891       -1527.952          27.000  
> 2021 12  7  4 25 11.0000000  0 14                     
G10  20031281.106      162413.767         444.046          31.000    20031286.325       67756.445         330.726          18.000  
G12  22134176.553       -6547.393          -0.013          12.000                                                                  
G21  24805727.550     -247503.616        -756.496          18.000                                                                  
G25  21498212.188     -648595.547           0.005          16.000    21498210.069     -336763.398       -1435.762          17.000  
G31  22049221.537     -956424.965       -2834.240          26.000                                                                  
G32  21067332.237     -374117.430       -1082.374          26.000    21067331.383     -144428.672        -808.005          24.000  
R 8  20346414.997                                          29.000  
R 9  20409240.417                                          14.000  
E 9  23984855.023     -268541.083        -931.314          19.000    23984860.844      -70416.464        -691.737          19.000  
E11                                                                  25548495.193      188101.308        2103.449          14.000  
E36  26112486.440      392589.130        1602.324          21.000    26112499.433      238891.034        1198.182          14.000  
J 2  38061724.978       96117.179         256.798          18.000                                                                  
C21  21573840.704       25313.064          53.117          22.000                                                                    21573833.145       10123.118          39.583          17.000  
C26  22296441.278     -524167.150       -2026.719          30.000                                                                    22296437.043     -149766.286       -1527.347          24.000  
> 2021 12  7  4 25 12.0000000  0 17                     
G10  20031367.328      164757.123         444.950          30.000    20031370.095       69060.832         335.599          20.000  
G12  22134170.978       -6701.220          -0.013          11.000                                                                  
G21  24805585.671     -251480.872        -756.285          18.000                                                                  
G25  21497846.152     -658704.730           0.005          17.000    21497840.823     -342402.570       -1436.635          16.000  
G31  22048682.688     -971321.813       -2835.064          25.000                                                                  
G32  21067127.806     -379797.066       -1079.950          30.000    21067126.752     -147599.880        -808.903          22.000  
R 8  20346037.165                                          27.000  
R 9  20409696.523                                          15.000  
E 9  23984678.165     -273423.701        -927.026          23.000    23984683.951      -73126.802        -690.016          18.000  
E11  27030722.299       28240.386        2813.190          18.000    27030728.923      196351.813        2101.509          15.000  
E24                                                                  27399259.101      -88821.650       -2300.244          14.000  
E36  26112791.339      401006.720        1601.719          25.000    26112804.716      243589.276        1197.536          14.000  
J 2  38061764.250       97477.217         259.517          18.000                                                                  
C 2  37449264.448         185.742          37.993          26.000                                                                                                                                  
C13  37153639.208        4795.857        1651.710          29.000                                                                                                                                  
C21  21573846.916       25583.002          51.167          23.000                                                                    21573844.479       10279.341          40.304          16.000  
C26  22296052.077     -534723.042       -2026.955          29.000                                                                    22296047.781     -155761.934       -1528.151          22.000  
> 2021 12  7  4 25 13.0000000  0 20                     
G10  20031452.058      167094.416         442.205          30.000    20031454.459       70363.687         332.286          24.000  
G12  22134165.494       -6853.035          -0.013          11.000                                                                  
G21  24805441.310     -255469.391        -759.295          15.000                                                                  
G25  21497479.401     -668804.753       -1921.945          25.000    21497471.402     -348033.961       -1433.029          13.000  
G31  22048143.520     -986221.238       -2834.877          20.000                                                                  
G32  21066922.661     -385485.085       -1084.054          32.000    21066920.882     -150771.583        -807.585          19.000  
R 8  20345660.109                                          25.000  
R 9  20410152.629                                          16.000  
E 9  23984501.653     -278292.213        -926.343          25.000    23984508.931      -75836.999        -691.362          19.000  
E11  27031254.679       43021.619        2810.797          18.000    27031264.714      204599.572        2101.911          14.000  
E24                                                                  27398673.114      -97848.251       -2300.990          16.000  
E36  26113096.464      409422.429        1601.363          24.000    26113110.016      248287.818        1196.863          14.000  
J 2  38061823.947       98844.688         259.877          19.000                                                                  
C 2  37449272.939         347.461          23.998          24.000                                                                                                                                  
C 3  36974756.761         733.010          80.750          27.000                                                                                                                                  
C 6  36112832.043         844.318         126.877          26.000                                                                                                                                  
C 8  37665205.716       11663.940        1811.902          25.000                                                                                                                                  
C13  37153955.824       13389.416        1649.781          30.000                                                                                                                                  
C21  21573856.261       25851.224          51.180          22.000                                                                    21573856.590       10438.350          41.297          13.000  
C26  22295662.536     -545274.074       -2026.983          27.000                                                                    22295658.572     -161758.261       -1528.890          22.000  
> 2021 12  7  4 25 14.0000000  0 15                     
G10  20031535.845      169421.052         444.523          28.000    20031540.297       71667.119         333.259          19.000  
G12  22134160.102       -7003.152          -0.013          15.000                                                                  
G21  24805296.826     -259460.142        -758.333          16.000                                                                  
G25  21497111.629     -678908.003       -1921.789          20.000    21497106.910     -353658.389       -1434.081          17.000  
G31  22047605.547    -1001122.510       -2833.827          31.000                                                                  
G32  21066717.182     -391170.950       -1081.657          29.000    21066714.148     -153941.705        -808.687          23.000  
R 8  20345282.080                                          26.000  
R 9  20410617.381                                          16.000  
E 9  23984324.795     -283160.256        -926.296          24.000    23984329.744      -78547.324        -691.841          19.000  
E11  27031792.163       57800.024        2810.476          16.000    27031800.410      212846.069        2100.168          14.000  
E24                                                                  27398086.428     -106880.244       -2302.749          18.000  
E36  26113401.267      417834.814        1600.904          21.000    26113411.704      252984.632        1198.679          18.000  
J 2  38061879.544      100208.479         259.590          17.000                                                                  
C21  21573868.825       26113.892          50.395          25.000                                                                    21573866.658       10595.166          40.398          17.000  
C26  22295272.209     -555839.951       -2030.333          30.000                                                                    22295269.135     -167757.003       -1529.475          25.000  
> 2021 12  7  4 25 15.0000000  0 20                     
G10  20031619.851      171766.200         445.613          28.000    20031625.462       72975.637         332.303          17.000  
G12  22134154.497       -7157.783          -0.013          16.000                                                                  
G21  24805154.729     -263447.299        -756.903          19.000                                                                  
G23  21537333.645       86824.483        2676.313          17.000                                                                  
G25  21496741.458     -689014.999       -1923.487          34.000    21496742.314     -359291.593       -1437.733          22.000  
G31  22047065.974    -1016011.545       -2833.602          30.000                                                                  
G32  21066511.138     -396859.637       -1083.265          24.000    21066507.649     -157115.716        -808.569          20.000  
R 8  20344904.824                                          20.000  
R 9  20411073.687                                          21.000  
E 9  23984148.504     -288033.409        -930.024          20.000    23984152.441      -81264.525        -692.124          17.000  
E11  27032327.082       72570.829        2812.915          18.000    27032335.050      221083.376        2097.330          14.000  
E24                                                                  27397497.684     -115920.392       -2303.895          17.000  
E36  26113705.905      426251.609        1602.368          21.000    26113714.466      257682.783        1196.081          22.000  
J 2  38061933.709      101557.185         255.527          31.000                                                                  
C 3  36974780.680         317.208          74.869          28.000                                                                                                                                  
C 8  37665897.392        5247.053        1815.649          28.000                                                                                                                                  
C 9  36650170.929         363.092          89.675          22.000                                                                                                                                  
C13  37154594.178        5991.933        1650.340          29.000                                                                                                                                  
C21  21573879.120       26374.236          51.187          27.000                                                                    21573873.752       10748.455          38.979          16.000  
C26  22294882.731     -566400.729       -2027.369          30.000                                                                    22294879.823     -173755.534       -1528.223          26.000  
> 2021 12  7  4 25 16.0000000  0 16                     
G10  20031705.690      174108.657         447.453          29.000    20031704.819       74271.813         328.654          18.000  
G12  22134148.302       -7329.836          -0.013          15.000                                                                  
G21  24805010.777     -267424.223        -756.888          18.000                                                                  
G23  21537843.077      100890.972        2678.072          14.000                                                                  
G25  21496374.951     -699116.710       -1919.600          30.000    21496374.708     -364926.716       -1435.556          21.000  
G31  22046528.132    -1030906.651       -2834.412          29.000                                                                  
G32  21066304.038     -402557.202       -1082.887          28.000    21066302.085     -160288.145        -808.146          22.000  
R 8  20344527.489                                          20.000  
R 9  20411535.133                                          21.000  
E 9  23983971.542     -292917.745        -929.450          20.000    23983976.464      -83977.791        -690.151          17.000  
E11  27032863.982       87361.155        2816.223          15.000    27032869.942      229316.978        2098.653          13.000  
E24                                                                  27396912.517     -124960.732       -2302.841          17.000  
E36  26114011.101      434657.959        1598.511          20.000    26114019.566      262376.645        1194.980          22.000  
J 2  38061975.886      102916.540         261.413          27.000                                                                  
C21  21573890.149       26649.509          50.722          26.000                                                                    21573883.856       10900.785          39.151          17.000  
C26  22294494.228     -576962.862       -2027.383          34.000                                                                    22294490.203     -179750.523       -1524.365          24.000  
> 2021 12  7  4 25 17.0000000  0 18                     
G10  20031791.851      176457.723         445.725          33.000    20031791.224       75572.695         333.163          19.000  
G12  22134139.835       -7510.350         -35.625          14.000                                                                  
G21  24804866.612     -271406.510        -758.340          17.000                                                                  
G23  21538371.878      114982.788        2685.155          17.000                                                                  
G25  21496009.089     -709220.324       -1919.951          19.000    21496010.836     -370539.780       -1428.519          17.000  
G31  22045988.654    -1045806.227       -2834.882          31.000                                                                  
G32  21066097.278     -408249.752       -1084.666          27.000    21066095.421     -163467.405        -810.214          23.000  
R 8  20344145.975                                          23.000  
R 9  20412009.186                                          17.000  
E 9  23983795.539     -297800.150        -928.627          23.000    23983805.976      -86694.463        -694.279          23.000  
E11  27033399.325      102147.064        2811.402          13.000    27033405.277      237554.760        2099.740          14.000  
E24                                                                  27396323.861     -133999.025       -2302.908          17.000  
E36  26114315.948      443064.999        1600.717          26.000    26114324.831      267069.053        1196.475          19.000  
J 2  38062026.352      104286.599         259.308          17.000                                                                  
C 8  37666592.078        6946.378        1814.650          28.000                                                                                                                                  
C13  37155223.602        4968.633        1651.366          28.000                                                                                                                                  
C21  21573900.885       26911.911          50.044          23.000                                                                    21573892.951       11054.432          40.741          17.000  
C26  22294104.268     -587521.534       -2029.600          30.000                                                                    22294101.150     -185742.116       -1528.810          25.000  
> 2021 12  7  4 25 18.0000000  0 21                     
G10  20031877.086      178795.230         446.334          34.000    20031876.808       76878.849         332.800          19.000  
G12  22134133.304       -7690.991         -32.502          13.000                                                                  
G21  24804718.472     -275388.467        -758.253          17.000                                                                  
G23  21538890.698      129088.604        2682.885          19.000                                                                  
G25  21495643.542     -719323.196       -1924.026          17.000    21495645.969     -376161.355       -1434.550          17.000  
G31  22045448.186    -1060708.789       -2834.873          32.000                                                                  
G32  21065890.998     -413945.733       -1083.389          25.000    21065889.455     -166645.682        -810.070          23.000  
R 8  20343765.089                                          25.000  
R 9  20412465.703                                          16.000  
E 9  23983619.911     -302681.835        -929.067          24.000    23983626.884      -89425.599        -698.586          21.000  
E11  27033933.843      116905.778        2807.694          17.000    27033940.676      245796.106        2100.222          14.000  
E24  27016128.626      -27283.373       -3085.007          20.000    27016144.236     -143041.329       -2305.426          20.000  
E36  26114620.637      451475.590        1600.612          18.000    26114630.367      271770.501        1200.435          15.000  
J 2  38062073.642      105634.047         254.968          19.000                                                                  
C 2  37449315.996         504.529          50.264          27.000                                                                                                                                  
C 3  36974821.540         676.461          74.102          30.000                                                                                                                                  
C 8  37666940.193       16386.825        1812.182          27.000                                                                                                                                  
C 9  36650219.845         598.534          85.925          26.000                                                                                                                                  
C13  37155540.441       13564.257        1651.004          21.000                                                                                                                                  
C21  21573911.337       27180.071          51.085          25.000                                                                    21573905.166       11213.439          40.614          17.000  
C26  22293715.582     -598081.291       -2026.633          32.000                                                                    22293711.661     -191738.608       -1527.204          22.000  
> 2021 12  7  4 25 19.0000000  0 16                     
G10  20031960.953      181137.893         444.416          36.000    20031959.567       78182.729         332.494          19.000  
G12  22134127.014       -7864.623          -0.013          11.000                                                                  
G21  24804574.298     -279371.628        -757.364          16.000                                                                  
G23  21539405.739      143197.083        2684.608          18.000                                                                  
G25  21495277.767     -729424.965       -1922.438          16.000    21495275.369     -381796.649       -1437.015          18.000  
G31  22044908.128    -1075603.629       -2835.056          32.000                                                                  
G32  21065684.910     -419649.699       -1086.435          26.000    21065683.777     -169824.500        -811.107          22.000  
R 8  20343388.025                                          23.000  
R 9  20412927.863                                          15.000  
E 9  23983443.742     -307564.107        -929.108          25.000    23983449.599      -92146.708        -692.713          22.000  
E11  27034465.542      131656.163        2805.428          15.000    27034475.805      254033.807        2097.678          15.000  
E24  27015541.700      -43503.904       -3087.350          21.000    27015558.776     -152085.674       -2303.069          20.000  
E36  26114925.554      459892.123        1601.083          18.000    26114936.479      276481.134        1200.651          12.000  
J 2  38062122.171      106980.167         254.597          21.000                                                                  
C21  21573921.659       27445.422          52.819          26.000                                                                    21573915.732       11371.566          41.543          16.000  
C26  22293326.642     -608644.289       -2030.792          32.000                                                                    22293322.111     -197736.581       -1528.585          21.000  
> 2021 12  7  4 25 20.0000000  0 18                     
G10  20032045.857      183481.751         446.116          35.000    20032046.172       79488.580         333.151          18.000  
G12  22134120.972       -8031.977          -0.013          15.000                                                                  
G21  24804418.162     -283351.943        -756.992          14.000                                                                  
G23  21539910.015      157297.860        2682.744          18.000                                                                  
G25  21494908.399     -739528.853       -1922.859          20.000    21494907.885     -387436.106       -1436.539          17.000  
G31  22044368.633    -1090504.525       -2835.388          31.000                                                                  
G32  21065477.871     -425356.765       -1086.110          26.000    21065477.654     -173004.533        -811.725          21.000  
R 8  20343009.504                                          23.000  
R 9  20413385.444                                          17.000  
E 9  23983267.216     -312449.326        -929.587          25.000    23983271.903      -94870.567        -693.447          20.000  
E11  27034999.711      146405.977        2810.124          14.000    27035013.795      262262.795        2096.740          14.000  
E24  27014955.451      -59726.363       -3086.991          19.000    27014969.282     -161131.689       -2305.527          20.000  
E36  26115230.007      468299.516        1598.332          17.000                                                                  
J 2  38062169.174      108320.541         254.387          23.000                                                                  
C 3  36974853.792         389.566          81.798          30.000                                                                                                                                  
C 8  37667639.548        5238.476        1808.151          29.000                                                                                                                                  
C21  21573932.234       27708.718          50.039          25.000                                                                    21573925.958       11525.868          38.525          15.000  
C26  22292937.642     -619209.726       -2029.788          32.000                                                                    22292932.352     -203734.567       -1528.732          21.000  
> 2021 12  7  4 25 21.0000000  0 21                     
G10  20032130.490      185822.261         445.953          34.000    20032130.535       80794.874         334.224          19.000  
G12  22134115.301       -8188.575          -0.013          15.000                                                                  
G21  24804274.359     -287323.851        -754.268          12.000                                                                  
G23  21540409.299      171389.471        2680.202          20.000                                                                  
G25  21494523.752     -749626.760       -1919.897          23.000    21494546.142     -393073.280       -1435.853          19.000  
G31  22043826.839    -1105408.469       -2836.604          31.000                                                                  
G32  21065270.526     -431067.441       -1090.873          24.000    21065271.714     -176186.747        -812.348          21.000  
R 8  20342632.038                                          28.000  
R 9  20413842.710                                          18.000  
E 9  23983089.390     -317337.246        -930.218          24.000    23983094.932      -97596.109        -694.116          20.000  
E11  27035522.005      161183.095        2810.577          10.000    27035548.312      270490.584        2096.825          14.000  
E24  27014368.216      -75945.643       -3087.847          16.000    27014381.183     -170178.890       -2305.592          22.000  
E36  26115544.880      476680.812        1591.735          15.000                                                                  
J 2  38062217.519      109659.046         254.754          23.000                                                                  
C 2  37449345.410         360.273          32.446          27.000                                                                                                                                  
C 3  36974864.661         763.848          70.669          30.000                                                                                                                                  
C 6  36113025.078         414.911         123.509          25.000                                                                                                                                  
C 8  37667987.140       14655.474        1808.534          27.000                                                                                                                                  
C 9  36650278.524         578.832          85.357          26.000                                                                                                                                  
C21  21573942.564       27973.404          52.901          24.000                                                                    21573935.634       11671.572          36.391          17.000  
C26  22292548.912     -629767.618       -2026.055          30.000                                                                    22292543.055     -209732.864       -1529.150          22.000  
> 2021 12  7  4 25 22.0000000  0 16                     
G10  20032215.273      188165.504         446.403          35.000    20032215.458       82100.447         333.368          24.000  
G12  22134111.911       -8358.799          -0.013          15.000                                                                  
G21  24804130.407     -291300.868        -759.767          16.000                                                                  
G23  21540927.350      185478.015        2682.642          17.000                                                                  
G25  21494164.042     -759724.481       -1921.569          25.000    21494182.872     -398709.081       -1437.526          21.000  
G31  22043284.504    -1120305.523       -2835.075          27.000                                                                  
G32  21065061.453     -436798.764       -1088.880          26.000    21065065.940     -179367.055        -808.329          22.000  
R 8  20360966.863                                          27.000  
R 9  20414294.985                                          20.000  
E 9  23982911.301     -322227.049        -930.737          25.000    23982917.140     -100324.798        -694.400          20.000  
E11  27036056.828      175952.178        2809.886          15.000    27036079.043      278716.713        2096.339          14.000  
E24                                                                  27393386.326     -179230.030       -2307.492          18.000  
E36  26115848.156      485055.012        1591.971          15.000                                                                  
J 2  38062267.034      110999.164         255.185          24.000                                                                  
C21  21573952.328       28234.474          50.800          24.000                                                                    21573944.342       11810.724          36.430          17.000  
C26  22292159.816     -640329.255       -2030.017          33.000                                                                    22292153.148     -215731.540       -1528.729          22.000  
> 2021 12  7  4 25 23.0000000  0 17                     
G10  20032299.994      190508.940         446.436          35.000    20032300.283       83406.852         333.214          22.000  
G12  22134105.132       -8546.337          -0.013          12.000                                                                  
G21  24803989.156     -295289.089           0.014          17.000                                                                  
G23  21541437.838      199573.710        2682.824          17.000                                                                  
G25  21493800.755     -769820.338       -1921.868          25.000    21493817.430     -404343.853       -1435.763          20.000  
G31  22042742.941    -1135216.142       -2838.582          27.000                                                                  
G32  21064852.486     -442517.306       -1087.836          25.000    21064859.162     -182551.124        -811.108          21.000  
R 8  20360589.973                                          26.000  
R 9  20414737.218                                          20.000  
E 9  23982733.571     -327118.508        -931.108          25.000    23982739.985     -103052.921        -692.987          19.000  
E11  27036591.369      190716.263        2808.425          14.000    27036613.392      286943.651        2096.165          14.000  
E24  27013196.059      -24854.151       -3088.191          18.000    27013205.798     -188286.258       -2308.096          15.000  
E36  26116142.498      493424.808        1593.549          13.000                                                                  
J 2  38062314.883      112335.249         253.375          23.000                                                                  
C 3  36974893.099         453.919          90.964          30.000                                                                                                                                  
C21  21573962.327       28496.813          50.401          25.000                                                                    21573953.372       11949.498          35.715          18.000  
C26  22291770.388     -650886.585       -2026.643          34.000                                                                    22291763.414     -221734.366       -1528.482          21.000  
> 2021 12  7  4 25 24.0000000  0 21                     
G10  20032384.942      192850.899         445.582          34.000    20032384.865       84713.544         332.567          20.000  
G12  22134098.327       -8735.600          -0.013          12.000                                                                  
G21  24803844.969     -299272.503           0.014          13.000                                                                  
G23  21541951.580      213676.523        2684.613          17.000                                                                  
G25  21493434.719     -779921.602       -1922.394          27.000    21493450.687     -409980.991       -1433.617          19.000  
G31  22042203.406    -1150118.592       -2836.078          31.000                                                                  
G32  21064645.360     -448235.385       -1088.517          27.000    21064652.760     -185736.196        -811.969          19.000  
R 8  20360211.338                                          26.000  
R 9  20415203.951                                          21.000  
E 9  23982555.683     -332013.433        -931.799          24.000    23982563.668     -105780.360        -695.275          20.000  
E11  27037125.895      205477.172        2809.115          12.000    27037147.805      295169.579        2096.615          14.000  
E24  27012608.318      -41077.436       -3087.356          17.000    27012617.664     -197346.730       -2308.651          14.000  
E36  26116446.044      501806.759        1595.885          15.000                                                                  
J 2  38062362.958      113669.821         254.274          25.000                                                                  
C 3  36974903.087         890.103          71.295          29.000                                                                                                                                  
C 6  36113098.626         822.112         122.713          24.000                                                                                                                                  
C 8  37669024.487       14657.167        1808.901          26.000                                                                                                                                  
C 9  36650316.674         576.287          83.669          26.000                                                                                                                                  
C13  37157432.209       10623.071        1645.828          24.000                                                                                                                                  
C21  21573972.910       28755.868          49.576          25.000                                                                    21573962.725       12090.861          37.060          17.000  
C26  22291380.018     -661445.390       -2029.443          35.000                                                                    22291373.655     -227730.542       -1523.720          20.000  
> 2021 12  7  4 25 25.0000000  0 16                     
G10  20032469.498      195192.648         446.383          35.000    20032470.677       86019.188         333.346          23.000  
G12  22134091.644       -8919.602          -0.013          16.000                                                                  
G21  24803693.728     -303269.745        -761.077          13.000                                                                  
G23  21542462.206      227777.770        2682.185          17.000                                                                  
G25  21493070.760     -790020.289       -1920.841          29.000    21493082.287     -415614.239       -1435.004          25.000  
G31  22041661.420    -1165022.040       -2834.700          32.000                                                                  
G32  21064438.643     -453952.201       -1087.782          29.000    21064446.515     -188914.975        -810.158          17.000  
R 8  20359829.353                                          23.000  
R 9  20415660.031                                          19.000  
E 9  23982378.939     -336910.094        -931.901          26.000    23982387.020     -108510.496        -694.537          19.000  
E11  27037658.668      220237.189        2808.264          15.000    27037683.920      303393.407        2095.532          13.000  
E24  27012022.998      -57308.955       -3090.692          20.000    27012030.023     -206399.276       -2306.180          11.000  
E36  26116749.896      510197.700        1597.577          15.000                                                                  
J 2  38062411.444      115001.761         254.889          29.000                                                                  
C21  21573983.180       29019.620          48.435          24.000                                                                    21573972.096       12231.615          34.061          15.000  
C26  22290990.121     -672011.312       -2028.484          35.000                                                                    22290983.758     -233730.721       -1528.605          19.000  
> 2021 12  7  4 25 26.0000000  0 16                     
G10  20032554.628      197537.079         446.208          34.000    20032556.052       87331.992         333.407          24.000  
G12  22134084.922       -9107.120          -0.013          13.000                                                                  
G21  24803549.043     -307266.860        -760.551          16.000                                                                  
G23  21542972.554      241870.696        2681.562          17.000                                                                  
G25  21492707.350     -800119.003       -1920.864          29.000    21492717.054     -421246.037       -1434.563          25.000  
G31  22041124.604    -1179922.153       -2834.472          32.000                                                                  
G32  21064230.330     -459667.234       -1088.314          26.000    21064239.301     -192100.562        -811.733          18.000  
R 8  20359452.411                                          27.000  
R 9  20416111.600                                          17.000  
E 9  23982202.857     -341807.648        -932.162          25.000    23982210.240     -111241.935        -696.620          21.000  
E11  27038192.967      234991.671        2807.400          16.000    27038218.123      311616.009        2094.611          12.000  
E24  27011434.394      -73552.723       -3090.468          21.000    27011442.265     -215453.985       -2307.930          17.000  
E36  26117054.099      518598.559        1599.583          15.000                                                                  
J 2  38062458.088      116334.677         253.302          28.000                                                                  
C21  21573992.673       29270.510          48.808          25.000                                                                    21573980.917       12362.232          34.799          16.000  
C26  22290600.222     -682579.033       -2028.927          34.000                                                                    22290594.592     -239727.666       -1525.979          21.000  
> 2021 12  7  4 25 27.0000000  0 19                     
G10  20032640.213      199882.912         447.488          35.000    20032641.340       88640.790         334.968          23.000  
G12  22134077.850       -9302.704          -0.013          13.000                                                                  
G21  24803404.259     -311266.498        -761.229          16.000                                                                  
G23  21543476.419      255969.399        2683.736          16.000                                                                  
G25  21492342.222     -810216.693       -1921.917          28.000    21492351.681     -426878.136       -1433.772          25.000  
G31  22040587.617    -1194825.062       -2836.024          33.000                                                                  
G32  21064023.981     -465375.023       -1085.859          25.000    21064035.552     -195286.542        -810.664          18.000  
R 8  20359073.523                                          26.000  
R 9  20416567.766                                          17.000  
E 9  23982026.383     -346707.626        -932.657          27.000    23982033.330     -113974.582        -696.134          20.000  
E11  27038727.118      249742.616        2806.533          17.000    27038752.283      319838.046        2093.848          11.000  
E24  27010844.995      -89795.747       -3091.485          20.000    27010854.524     -224508.572       -2306.960          16.000  
E36  26117362.148      527003.747        1599.895          15.000                                                                  
J 2  38062504.785      117656.637         251.384          27.000                                                                  
C 3  36974940.536         642.599          51.148          28.000                                                                                                                                  
C 6  36113187.642         405.749         121.241          22.000                                                                                                                                  
C 9  36650368.556         565.383          86.823          28.000                                                                                                                                  
C21  21574002.576       29530.389          50.369          22.000                                                                    21573990.044       12498.816          37.524          16.000  
C26  22290210.890     -693144.519       -2029.471          34.000                                                                    22290204.527     -245730.881       -1529.938          18.000  
> 2021 12  7  4 25 28.0000000  0 18                     
G10  20032725.301      202228.165         445.427          35.000    20032726.524       89949.010         333.598          23.000  
G12  22134070.748       -9499.883          -0.013          11.000                                                                  
G21  24803267.968     -315267.516           0.014          16.000                                                                  
G23  21543987.080      270070.646        2683.666          14.000                                                                  
G25  21491977.155     -820314.156       -1921.567          28.000    21491986.265     -432509.747       -1435.062          25.000  
G31  22040048.576    -1209730.366       -2835.804          33.000                                                                  
G32  21063814.673     -471084.632       -1086.184          24.000    21063828.574     -198466.943        -809.552          18.000  
R 9  20417020.461                                          17.000  
E 9  23981849.866     -351610.109        -932.882          27.000    23981855.870     -116708.506        -696.102          21.000  
E11  27039261.130      264489.450        2805.233          17.000    27039286.408      328059.136        2095.372          10.000  
E24  27010255.876     -106042.904       -3090.962          18.000    27010264.908     -233572.603       -2310.022          15.000  
E36  26117666.602      535410.959        1600.207          16.000                                                                  
J 2  38062551.691      118972.984         251.854          28.000                                                                  
C 3  36974952.634         979.523          85.466          29.000                                                                                                                                  
C 6  36113186.635        1035.589         120.999          24.000                                                                                                                                  
C 9  36650384.664        1004.220          81.124          28.000                                                                                                                                  
C21  21574012.679       29794.782          50.761          24.000                                                                    21574002.154       12652.281          41.256          16.000  
C26  22289821.323     -703709.956       -2028.562          33.000                                                                    22289814.942     -251733.336       -1529.997          19.000  
> 2021 12  7  4 25 29.0000000  0 18                     
G10  20032809.385      204576.139         446.994          33.000    20032811.760       91257.900         333.577          22.000  
G12  22134063.625       -9697.181          -0.013          12.000                                                                  
G21  24803123.131     -319266.906           0.014          15.000                                                                  
G23  21544491.443      284166.716          -0.008          14.000                                                                  
G25  21491612.558     -830415.961       -1924.047          30.000    21491620.953     -438141.371       -1434.704          24.000  
G31  22039509.460    -1224631.247       -2837.092          32.000                                                                  
G32  21063606.465     -476798.300       -1088.414          27.000    21063616.867     -201648.471        -810.661          18.000  
R 9  20417470.407                                          18.000  
E 9  23981672.964     -356514.549        -933.426          27.000    23981678.698     -119443.416        -697.195          22.000  
E11  27039808.159      279230.061        2804.083          18.000    27039820.472      336279.488        2094.343          12.000  
E24  27009667.498     -122289.112       -3089.537          18.000    27009673.965     -242634.929       -2308.026          16.000  
E36  26117971.213      543822.077        1600.857          18.000                                                                  
J 2  38062599.766      120293.704         251.563          28.000                                                                  
C 3  36974967.962        1360.004          74.861          29.000                                                                                                                                  
C 6  36113207.173        1659.205         119.685          24.000                                                                                                                                  
C 9  36650400.448        1424.482          82.121          27.000                                                                                                                                  
C21  21574022.879       30059.273          49.391          23.000                                                                    21574011.961       12807.927          40.359          17.000  
C26  22289431.023     -714277.003       -2029.185          33.000                                                                    22289424.843     -257734.785       -1528.515          19.000  
> 2021 12  7  4 25 30.0000000  0 19                     
G10  20032894.080      206921.574         445.864          33.000    20032897.030       92567.517         333.977          24.000  
G12  22134056.514       -9894.996          -0.013          12.000                                                                  
G21  24802977.958     -323276.852           0.014          17.000                                                                  
G23  21545001.921      298263.404          -0.008          15.000                                                                  
G25  21491247.386     -840518.623       -1922.049          28.000    21491255.580     -443771.776       -1435.483          25.000  
G31  22038969.742    -1239540.715       -2834.152          31.000                                                                  
G32  21063399.138     -482515.725       -1088.596          29.000    21063409.339     -204833.267        -813.645          17.000  
R 9  20417927.412                                          17.000  
E 9  23981496.080     -361420.943        -933.795          28.000    23981501.107     -122179.039        -697.247          22.000  
E11  27040341.540      293962.082        2802.731          15.000    27040354.472      344500.369        2095.798          12.000  
E24  27009079.607     -138526.928       -3090.722          18.000    27009087.095     -251692.896       -2307.691          16.000  
E36  26118275.841      552234.385        1600.845          19.000                                                                  
J 2  38062646.289      121613.134         249.444          25.000                                                                  
C 3  36974981.039        1731.520          57.298          29.000                                                                                                                                  
C 6  36113231.069        2280.552         119.090          22.000                                                                                                                                  
C 8  37671100.266       16630.254        1804.380          19.000                                                                                                                                  
C 9  36650415.709        1844.123          81.555          29.000                                                                                                                                  
C21  21574032.485       30320.466          51.125          19.000                                                                    21574022.911       12964.873          39.930          17.000  
C26  22289041.831     -724842.242       -2029.603          35.000                                                                    22289035.083     -263734.702       -1528.699          19.000  
> 2021 12  7  4 25 31.0000000  0 15                     
G10  20032978.662      209269.635         446.827          26.000    20032981.935       93871.608         331.932          17.000  
G12  22134049.591      -10087.812          -0.013          15.000                                                                  
G21  24802839.154     -327282.321        -761.296          18.000                                                                  
G23  21545512.548      312363.881          -0.008          14.000                                                                  
G25  21490882.440     -850616.472       -1922.723          36.000    21490890.120     -449403.388       -1434.440          24.000  
G31  22038432.285    -1254442.695       -2836.408          26.000                                                                  
G32  21063191.880     -488244.446       -1090.570          24.000    21063202.185     -208023.638        -811.524          20.000  
R 9  20418383.168                                          17.000  
E 9  23981318.166     -366327.075        -933.700          24.000    23981323.028     -124913.740        -697.744          20.000  
E11  27040877.907      308683.963        2800.827          18.000    27040888.736      352723.776        2095.357          12.000  
E24  27008491.125     -154768.734       -3092.237          16.000    27008499.433     -260746.714       -2306.009          16.000  
E36  26118583.645      560647.227        1599.672          21.000                                                                  
J 2  38062695.045      122925.344         249.169          33.000                                                                  
C21  21574041.263       30575.685          50.280          25.000                                                                    21574033.216       13119.543          39.371          17.000  
C26  22288652.638     -735413.933       -2030.838          30.000                                                                    22288645.577     -269735.932       -1529.021          15.000  
> 2021 12  7  4 25 32.0000000  0 15                     
G10  20033063.086      211617.167         447.165          28.000    20033066.743       95173.407         333.457          17.000  
G12  22134041.372      -10256.132          -0.013          17.000                                                                  
G21  24802697.170     -331277.456        -758.498          19.000                                                                  
G23  21546025.784      326465.027          -0.008          14.000                                                                  
G25  21490520.130     -860715.473       -1923.547          28.000    21490524.643     -455036.074       -1434.385          19.000  
G31  22037891.390    -1269347.354       -2835.529          22.000                                                                  
G32  21062986.777     -493968.034       -1087.556          24.000    21062990.294     -211227.630        -817.329          18.000  
R 9  20418839.954                                          14.000  
E 9  23981139.694     -371239.931        -935.863          19.000    23981145.210     -127656.132        -697.568          15.000  
E11  27041413.603      323414.406        2803.663          20.000    27041417.338      360941.733        2094.089          14.000  
E24  27007903.384     -171021.642       -3091.588          19.000    27007911.928     -269797.879       -2305.417          15.000  
E36  26118890.046      569051.912        1599.020          20.000                                                                  
J 2  38062742.570      124238.047         246.062          27.000                                                                  
C21  21574050.660       30849.341          50.115          23.000                                                                    21574042.883       13273.052          38.984          17.000  
C26  22288264.066     -745967.865       -2027.068          25.000                                                                    22288256.367     -275733.674       -1527.074          16.000  
> 2021 12  7  4 25 33.0000000  0 16                     
G10  20033149.395      213968.484         447.928          28.000    20033150.382       96481.170         332.236          21.000  
G12  22134035.548      -10417.198          -0.013          15.000                                                                  
G21  24802553.092     -335257.814        -758.573          17.000                                                                  
G23  21546536.559      340570.310          -0.008          16.000                                                                  
G25  21490155.909     -870815.238       -1921.983          30.000    21490159.244     -460667.678       -1435.110          20.000  
G31  22037351.777    -1284251.606       -2837.266          25.000                                                                  
G32  21062778.961     -499687.703       -1088.527          21.000    21062786.117     -214428.514        -813.924          18.000  
R 9  20419300.624                                          13.000  
E 9  23980964.468     -376155.462        -934.890          24.000    23980967.488     -130396.936        -698.534          15.000  
E11  27041945.799      338160.173        2809.644          16.000    27041951.080      369156.894        2093.147          14.000  
E24  27007315.321     -187262.009       -3088.641          15.000    27007322.913     -278849.118       -2304.920          16.000  
E36  26119193.409      577462.159        1599.624          16.000                                                                  
J 2  38062788.857      125543.627         250.905          32.000                                                                  
C 6  36113302.784         406.746         116.537          25.000                                                                                                                                  
C21  21574060.118       31106.631          48.459          27.000                                                                    21574054.025       13419.999          37.449          15.000  
C26  22287874.167     -756526.708       -2027.987          26.000                                                                    22287868.196     -281729.345       -1528.300          19.000  
> 2021 12  7  4 25 34.0000000  0 16                     
G10  20033235.835      216308.612         446.498          25.000    20033237.242       97793.365         336.172          19.000  
G12  22134029.632      -10581.687          -0.013          13.000                                                                  
G21  24802409.035     -339237.814        -756.311          16.000                                                                  
G23  21547047.203      354670.761          -0.008          13.000                                                                  
G25  21489788.704     -880909.456       -1921.428          28.000    21489793.470     -466292.752       -1432.102          18.000  
G31  22036812.290    -1299158.900       -2836.261          23.000                                                                  
G32  21062572.559     -505410.999       -1089.188          18.000    21062579.226     -217618.873        -811.536          16.000  
R 9  20419757.619                                          15.000  
E 9  23980790.812     -381065.689        -933.072          20.000    23980790.020     -133134.186        -696.682          14.000  
E11  27042479.383      352893.981        2800.223          17.000    27042484.838      377372.050        2094.328          13.000  
E24  27006727.981     -203482.408       -3087.187          16.000    27006735.591     -287897.605       -2306.639          14.000  
E36  26119497.724      585865.145        1598.771          18.000                                                                  
J 2  38062838.058      126856.401         249.606          31.000                                                                  
C 6  36113323.033        1017.909         117.176          22.000                                                                                                                                  
C21  21574068.860       31358.910          47.757          24.000                                                                    21574064.181       13572.025          39.857          15.000  
C26  22287483.997     -767091.931       -2030.903          25.000                                                                    22287480.583     -287731.427       -1528.633          22.000  
> 2021 12  7  4 25 35.0000000  0 17                     
G10  20033319.666      218658.447         448.088          28.000    20033322.852       99107.700         336.625          17.000  
G12  22134023.774      -10743.728          -0.013          10.000                                                                  
G21  24802271.781     -343207.746        -754.634          16.000                                                                  
G23  21547557.891      368774.977          -0.008          12.000                                                                  
G25  21489424.353     -891005.825       -1923.506          29.000    21489428.368     -471919.295       -1432.783          17.000  
G31  22036272.337    -1314069.725       -2837.515          18.000                                                                  
G32  21062365.310     -511134.871       -1088.872          24.000    21062374.264     -220804.953        -810.443          14.000  
R 9  20420214.047                                          16.000  
E 9  23980613.527     -385973.475        -935.014          23.000    23980612.324     -135874.702        -699.065          16.000  
E11  27043012.069      367604.150        2800.152          16.000    27043020.438      385589.369        2093.570          15.000  
E24  27006139.813     -219726.120       -3093.558          18.000    27006147.545     -296947.460       -2306.271          19.000  
E36  26119799.534      594259.343        1598.308          18.000                                                                  
J 2  38062888.280      128168.510         249.536          30.000                                                                  
C 6  36113343.177        1634.114         118.893          23.000                                                                                                                                  
C 8  37672846.070       10593.225        1803.526          22.000                                                                                                                                  
C21  21574077.969       31610.313          47.790          19.000                                                                    21574075.497       13715.181          36.179          16.000  
C26  22287093.749     -777657.269       -2027.841          23.000                                                                    22287090.894     -293735.671       -1528.905          17.000  
> 2021 12  7  4 25 36.0000000  0 19                     
G10  20033404.640      221010.374         447.163          29.000    20033408.245      100429.666         335.914          17.000  
G12  22134017.776      -10910.319          -0.013          12.000                                                                  
G21  24802128.099     -347177.735        -755.611          14.000                                                                  
G23  21548068.727      382880.750          -0.008          12.000                                                                  
G25  21489061.153     -901105.945       -1921.050          30.000    21489064.723     -477542.065       -1432.127          17.000  
G31  22035732.689    -1328973.612       -2835.811          23.000                                                                  
G32  21062173.959     -516861.392       -1089.991          25.000    21062168.045     -223985.013        -808.231          15.000  
R 9  20420664.735                                          17.000  
E 9  23980435.325     -390889.289        -935.394          20.000    23980436.007     -138619.669        -700.277          17.000  
E11  27043535.145      382317.641        2799.817          12.000    27043553.984      393803.416        2092.797          17.000  
E24  27005553.271     -235981.125       -3091.560          17.000    27005555.567     -306003.388       -2308.110          20.000  
E36  26120105.480      602656.222        1597.911          24.000                                                                  
J 2  38062935.291      129478.051         249.253          30.000                                                                  
C 6  36113366.751        2244.811         116.662          22.000                                                                                                                                  
C 8  37673181.769       19990.950        1804.977          24.000                                                                                                                                  
C 9  36650519.684        1516.242          80.713          20.000                                                                                                                                  
C13  37161213.103       19896.022        1640.124          23.000                                                                                                                                  
C21  21574087.419       31868.576          49.678          20.000                                                                    21574085.043       13857.769          36.615          12.000  
C26  22286704.350     -788216.940       -2027.947          24.000                                                                    22286701.459     -299736.701       -1529.708          17.000  
> 2021 12  7  4 25 37.0000000  0 15                     
G10  20033491.002      223362.001         447.198          30.000    20033495.959      101745.786         335.690          17.000  
G12  22134011.503      -11083.727          -0.013          12.000                                                                  
G21  24801984.563     -351142.383           0.014          14.000                                                                  
G23  21548579.328      396981.202          -0.008          14.000                                                                  
G25  21488695.037     -911201.401       -1920.252          31.000    21488699.218     -483168.126       -1435.138          21.000  
G31  22035193.247    -1343875.269       -2835.891          26.000                                                                  
G32  21061983.611     -522581.667       -1088.872          20.000    21061962.114     -227169.242        -811.373          19.000  
R 9  20421120.841                                          17.000  
E 9  23980257.542     -395811.577        -937.495          19.000    23980258.905     -141363.777        -699.251          18.000  
E11  27044067.743      397024.663        2797.619          13.000    27044087.306      402011.837        2092.154          17.000  
E24  27004966.080     -252213.751       -3089.058          18.000    27004968.795     -315069.921       -2309.408          18.000  
E36  26120408.809      611051.879        1599.212          19.000    26120408.715        3398.977        1196.655          17.000  
J 2  38062982.162      130782.214         248.410          34.000                                                                  
C21  21574096.981       32126.384          48.793          27.000                                                                    21574094.483       13998.899          35.266          17.000  
C26  22286314.922     -798781.186       -2030.037          28.000                                                                    22286311.412     -305747.046       -1529.188          22.000  
> 2021 12  7  4 25 38.0000000  0 16                     
G10  20033575.679      225711.261         448.492          35.000    20033580.837      103063.053         336.103          21.000  
G12  22134005.981      -11237.129          -0.013          13.000                                                                  
G21  24801840.751     -355115.413           0.014          16.000                                                                  
G23  21549089.623      411072.372          -0.008          14.000                                                                  
G25  21488327.518     -921291.255       -1920.266          35.000    21488331.498     -488797.239       -1432.954          23.000  
G31  22034655.361    -1358786.466       -2838.520          34.000                                                                  
G32  21061781.710     -528308.935       -1090.138          23.000    21061748.355     -230354.718        -812.752          19.000  
R 8  20336269.857                                          25.000  
R 9  20421580.315                                          16.000  
E 9  23980080.169     -400736.124        -936.920          21.000    23980079.037     -144110.812        -699.975          18.000  
E11  27044600.193      411728.342        2797.871          11.000    27044611.563      410220.839        2092.301          14.000  
E24  27004378.566     -268467.295       -3094.880          18.000    27004380.408     -324135.171       -2309.130          17.000  
E36  26120712.975      619454.947        1598.226          18.000    26120714.216        8086.104        1192.705          25.000  
J 2  38063029.565      132084.642         247.998          35.000                                                                  
C21  21574105.994       32381.013          48.249          29.000                                                                    21574102.327       14137.546          38.251          17.000  
C26  22285924.456     -809353.145       -2028.603          33.000                                                                    22285918.380     -311743.085       -1526.080          21.000  
> 2021 12  7  4 25 39.0000000  0 18                     
G10  20033663.000      228067.465         448.717          36.000    20033662.696      104375.214         334.584          27.000  
G12  22134000.955      -11377.643          -0.013          14.000                                                                  
G21  24801696.380     -359103.071           0.014          19.000                                                                  
G23  21549599.648      425154.970          -0.008          15.000                                                                  
G25  21487961.395     -931387.877       -1920.649          33.000    21487965.855     -494426.012       -1433.813          29.000  
G31  22034115.399    -1373689.847       -2838.297          25.000                                                                  
G32  21061555.005     -534045.749       -1092.419          29.000    21061541.552     -233555.730        -813.107          20.000  
R 8  20335888.831                                          23.000  
R 9  20422037.310                                          17.000  
E 9  23979901.025     -405661.533        -938.090          23.000    23979898.785     -146853.418        -696.901          19.000  
E11  27045132.843      426436.683        2798.751          13.000    27045144.842      418428.478        2091.870          14.000  
E24  27003784.883     -284743.303       -3099.339          20.000    27003793.863     -333195.332       -2309.461          13.000  
E36  26121017.159      627858.517        1599.458          21.000    26121017.884       12762.191        1192.472          18.000  
J 2  38063075.660      133384.234         247.176          36.000                                                                  
C 6  36113439.895         405.994         114.819          24.000                                                                                                                                  
C 9  36650564.935         273.654          77.608          29.000                                                                                                                                  
C21  21574114.187       32630.907          47.509          29.000                                                                    21574105.573       14280.280          36.735          20.000  
C26  22285533.937     -819919.448       -2028.731          31.000                                                                    22285527.844     -317743.125       -1527.534          17.000  
> 2021 12  7  4 25 40.0000000  0 19                     
G10  20033747.618      230422.884         447.949          34.000    20033747.733      105684.266         336.844          24.000  
G12  22133996.126      -11512.406          -0.013          14.000                                                                  
G21  24801557.947     -363097.457        -759.537          17.000                                                                  
G23  21550109.359      439229.559          -0.008          14.000                                                                  
G25  21487594.993     -941479.176       -1918.022          32.000    21487600.832     -500053.347       -1433.588          25.000  
G31  22033574.604    -1388608.027       -2839.463          30.000                                                                  
G32  21061341.710     -539785.640       -1091.460          30.000    21061333.902     -236758.539        -817.380          19.000  
R 8  20335497.938                                          23.000  
R 9  20422505.954                                          21.000  
E 9  23979722.047     -410588.859        -937.167          22.000    23979722.188     -149591.056        -694.640          20.000  
E11  27045665.406      441143.026        2798.511          16.000    27045678.234      426637.763        2091.334          13.000  
E24  27003195.145     -301005.150       -3093.556          20.000    27003205.721     -342257.026       -2308.124          15.000  
E36  26121320.278      636255.812        1597.672          19.000    26121321.274       17437.125        1191.968          17.000  
J 2  38063121.737      134684.902         248.189          32.000                                                                  
C 6  36113464.847        1002.818         114.541          23.000                                                                                                                                  
C 9  36650578.095         673.225          75.249          25.000                                                                                                                                  
C13  37162495.134        8123.864        1643.088          20.000                                                                                                                                  
C21  21574122.764       32873.701          47.587          26.000                                                                    21574117.116       14426.412          34.208          20.000  
C26  22285144.431     -830480.627       -2027.439          32.000                                                                    22285138.949     -323736.442       -1526.216          17.000  
> 2021 12  7  4 25 41.0000000  0 16                     
G10  20033832.199      232783.016         449.235          34.000    20033833.448      107000.732         336.352          22.000  
G12  22133991.467      -11642.537          -0.013          13.000                                                                  
G21  24801413.498     -367087.937        -761.358          16.000                                                                  
G23  21550619.052      453303.459          -0.008          14.000                                                                  
G25  21487229.376     -951566.564       -1920.628          30.000    21487235.738     -505680.548       -1432.759          27.000  
G31  22033034.607    -1403514.568       -2835.766          32.000                                                                  
G32  21061132.227     -545512.862       -1090.839          26.000    21061125.894     -239966.317        -817.038          17.000  
R 8  20335118.622                                          19.000  
R 9  20422963.334                                          23.000  
E 9  23979542.868     -415516.331        -937.874          21.000    23979544.118     -152322.711        -694.715          19.000  
E11  27046201.974      455852.973        2799.864          19.000    27046211.268      434841.704        2090.187          11.000  
E24  27002605.409     -317264.280       -3095.358          22.000    27002615.837     -351317.304       -2308.801          13.000  
E36  26121623.301      644644.972        1597.793          22.000    26121625.353       22114.963        1193.471          15.000  
J 2  38063167.867      135984.067         246.852          30.000                                                                  
C21  21574131.419       33110.416          45.523          23.000                                                                    21574124.890       14570.677          36.340          19.000  
C26  22284755.003     -841042.138       -2028.071          33.000                                                                    22284750.280     -329732.221       -1528.192          14.000  
> 2021 12  7  4 25 42.0000000  0 17                     
G10  20033916.990      235139.675         448.561          34.000    20033919.007      108317.613         335.867          24.000  
G12  22133986.542      -11779.906          -0.013          14.000                                                                  
G21  24801272.060     -371084.936        -758.817          17.000                                                                  
G23  21551137.235      467384.406          -0.008          12.000                                                                  
G25  21486863.462     -961663.087       -1921.226          30.000    21486870.217     -511306.568       -1433.746          28.000  
G31  22032493.354    -1418421.451       -2836.965          34.000                                                                  
G32  21060923.435     -551244.137       -1091.302          30.000    21060917.206     -243165.199        -815.120          20.000  
R 8  20334737.579                                          20.000  
R 9  20423405.680                                          23.000  
E 9  23979361.953     -420443.293        -937.476          25.000    23979361.196     -155067.707        -700.100          22.000  
E11  27046734.657      470565.514        2799.585          19.000    27046743.733      443042.528        2087.675          12.000  
E24  27002015.077     -333533.271       -3094.111          21.000    27002027.442     -360379.266       -2309.830          13.000  
E36  26121926.873      653035.940        1596.171          19.000    26121929.693       26800.338        1195.424          13.000  
J 2  38063214.607      137279.134         243.948          31.000                                                                  
C 3  36975140.344         338.397          58.077          26.000                                                                                                                                  
C21  21574139.668       33349.545          46.337          24.000                                                                    21574135.547       14721.366          37.141          20.000  
C26  22284365.200     -851605.525       -2030.296          33.000                                                                    22284360.730     -335731.961       -1531.524          14.000  
> 2021 12  7  4 25 43.0000000  0 19                     
G10  20034003.605      237505.163         451.314          35.000    20034004.697      109636.528         336.092          24.000  
G12  22133981.569      -11918.710          -0.013          14.000                                                                  
G21  24801127.938     -375066.972        -757.405          17.000                                                                  
G23  21551647.224      481466.647          -0.008          14.000                                                                  
G25  21486498.482     -971744.079       -1917.357          30.000    21486504.879     -516931.310       -1433.950          27.000  
G31  22031952.175    -1433324.803       -2835.942          32.000                                                                  
G32  21060714.956     -556972.667       -1087.807          28.000    21060709.321     -246363.979        -816.519          21.000  
R 8  20334355.263                                          21.000  
R 9  20423868.303                                          22.000  
E 9  23979181.448     -425369.885        -937.275          25.000    23979183.744     -157815.803        -701.055          21.000  
E11  27047267.421      485277.758        2800.226          18.000    27047276.060      451239.004        2088.742          13.000  
E24  27001425.906     -349795.806       -3094.323          19.000    27001438.515     -369448.829       -2312.501          13.000  
E36  26122230.761      661428.223        1595.845          16.000    26122234.157       31488.209        1194.923          13.000  
J 2  38063262.805      138585.011         247.342          31.000                                                                  
C 3  36975146.136         610.991          47.860          27.000                                                                                                                                  
C 9  36650618.128         522.073          77.339          24.000                                                                                                                                  
C13  37163433.640        5122.874        1642.427          27.000                                                                                                                                  
C21  21574148.489       33597.820          49.544          24.000                                                                    21574144.560       14865.573          37.404          20.000  
C26  22283975.153     -862164.810       -2028.594          32.000                                                                    22283970.796     -341737.425       -1532.689          14.000  
> 2021 12  7  4 25 44.0000000  0 16                     
G10  20034088.570      239872.308         449.340          34.000    20034090.317      110956.368         334.995          23.000  
G12  22133976.940      -12047.960          -0.013          15.000                                                                  
G21  24800983.917     -379046.271        -757.132          19.000                                                                  
G23  21552157.642      495562.368          -0.008          17.000                                                                  
G25  21486131.792     -981831.095       -1918.406          32.000    21486139.646     -522553.157       -1433.123          27.000  
G31  22031413.583    -1448227.906       -2835.023          28.000                                                                  
G32  21060508.179     -562704.826       -1091.164          29.000    21060502.081     -249555.371        -814.063          19.000  
R 8  20333972.396                                          27.000  
R 9  20424328.362                                          18.000  
E 9  23979001.650     -430296.699        -937.559          25.000    23979005.560     -160562.337        -700.196          21.000  
E11  27047800.324      499993.373        2800.214          18.000    27047806.407      459435.176        2086.409          11.000  
E24  27000836.900     -366060.746       -3095.647          19.000    27000848.811     -378530.690       -2313.656          13.000  
E36  26122533.627      669804.123        1593.030          18.000    26122538.331       36171.680        1191.252          14.000  
J 2  38063308.891      139883.924         247.670          32.000                                                                  
C21  21574157.930       33855.081          48.098          27.000                                                                    21574152.806       15012.411          37.343          20.000  
C26  22283585.306     -872723.685       -2028.133          31.000                                                                    22283579.807     -347759.140       -1535.638          13.000  
> 2021 12  7  4 25 45.0000000  0 16                     
G10  20034174.425      242241.895         452.678          33.000    20034176.329      112285.278         340.720          20.000  
G12  22133955.477      -12182.842         -26.577          16.000                                                                  
G21  24800836.798     -383026.196        -757.331          20.000                                                                  
G23  21552666.916      509653.247        2682.458          17.000                                                                  
G25  21485767.083     -991914.861       -1919.913          28.000    21485774.501     -528173.890       -1432.049          26.000  
G31  22030875.580    -1463126.462       -2834.919          31.000                                                                  
G32  21060298.583     -568439.689       -1092.458          24.000    21060294.344     -252755.344        -817.394          17.000  
R 8  20333592.793                                          24.000  
R 9  20424785.210                                          22.000  
E 9  23978822.506     -435221.065        -936.714          20.000    23978827.385     -163305.590        -698.421          19.000  
E11  27048349.701      514711.419        2799.973          17.000    27048338.046      467621.458        2083.864          11.000  
E24  27000247.885     -382330.302       -3095.013          19.000                                                                  
E36  26122837.348      678189.165        1596.042          20.000    26122842.541       40855.160        1192.747          17.000  
J 2  38063355.823      141184.829         249.992          29.000                                                                  
C21  21574168.505       34118.846          52.169          28.000                                                                    21574161.688       15158.323          37.372          17.000  
C26  22283195.564     -883280.027       -2027.157          23.000                                                                    22283191.923     -353776.762       -1532.755          17.000  
> 2021 12  7  4 25 46.0000000  0 20                     
G10  20034259.505      244615.291         451.173          30.000    20034261.836      113603.659         334.346          19.000  
G12  22133950.229      -12328.163         -28.139          15.000                                                                  
G21  24800693.270     -387010.418        -757.887          17.000                                                                  
G23  21553171.209      523750.666        2683.631          17.000                                                                  
G25  21485402.529    -1001990.888       -1916.080          32.000    21485409.485     -533794.611       -1429.806          22.000  
G31  22030337.372    -1478026.038       -2834.526          19.000                                                                  
G32  21060091.291     -574176.783       -1091.652          28.000    21060083.797     -255963.043        -816.674          15.000  
R 8  20333211.741                                          24.000  
R 9  20425245.311                                          25.000  
E 9  23978643.929     -440154.261        -938.282          18.000    23978649.541     -166047.826        -700.458          20.000  
E11  27048882.116      529414.035        2794.814          14.000    27048869.187      475799.586        2083.768          11.000  
E24  26999658.923     -398592.949       -3093.264          19.000                                                                  
E36  26123142.561      686582.085        1599.158          23.000    26123147.423       45540.508        1193.530          20.000  
J 2  38063402.337      142489.554         247.907          28.000                                                                  
C 2  37449564.843         223.779           8.965          25.000                                                                                                                                  
C 3  36975188.043         626.335          68.883          25.000                                                                                                                                  
C 8  37676650.568        5602.449        1802.733          26.000                                                                                                                                  
C13  37164375.951        5122.047        1644.192          26.000                                                                                                                                  
C21  21574177.422       34388.143          52.018          28.000                                                                    21574171.355       15306.111          39.042          15.000  
C26  22282806.522     -893833.527       -2027.412          30.000                                                                    22282802.175     -359779.557       -1531.150          17.000  
> 2021 12  7  4 25 47.0000000  0 16                     
G10  20034346.407      246996.708         452.975          28.000    20034347.586      114924.136         339.787          17.000  
G12  22133956.568      -12467.652         -24.537          16.000                                                                  
G21  24800549.209     -390989.386        -757.588          17.000                                                                  
G23  21553681.976      537855.153        2683.593          17.000                                                                  
G25  21485038.116    -1012062.525       -1917.099          32.000    21485044.618     -539412.141       -1431.129          20.000  
G31  22029797.043    -1492915.798       -2835.364          28.000                                                                  
G32  21059883.483     -579908.090       -1090.833          32.000    21059875.536     -259171.085        -816.739          14.000  
R 8  20332832.146                                          29.000  
R 9  20425703.598                                          22.000  
E 9  23978464.916     -445090.512        -938.707          20.000    23978472.107     -168797.983        -700.835          17.000  
E11  27049399.968      544106.316        2796.299          11.000    27049400.528      483980.536        2085.567          11.000  
E24  26999069.851     -414861.631       -3098.636          13.000                                                                  
E36  26123446.657      694993.076        1600.960          27.000    26123450.838       50231.107        1194.635          24.000  
J 2  38063449.339      143791.234         247.979          28.000                                                                  
C21  21574178.024       34652.411          51.157          28.000                                                                    21574181.616       15463.085          39.365          15.000  
C26  22282417.592     -904388.483       -2026.574          30.000                                                                    22282412.441     -365782.561       -1529.141          18.000  
> 2021 12  7  4 25 48.0000000  0 18                     
G10  20034433.789      249383.123         454.403          35.000    20034434.584      116262.705         340.823          21.000  
G12  22133963.400      -12588.396         -22.175          18.000                                                                  
G21  24800408.080     -394970.854        -757.575          18.000                                                                  
G23  21554192.768      551961.141        2685.041          18.000                                                                  
G25  21484672.831    -1022132.596       -1918.696          32.000    21484679.420     -545025.977       -1430.936          24.000  
G31  22029257.740    -1507808.543       -2833.912          31.000                                                                  
G32  21059675.030     -585629.291       -1088.389          28.000    21059667.729     -262372.357        -816.328          16.000  
R 8  20332451.854                                          26.000  
R 9  20426162.060                                          21.000  
E 9  23978287.029     -450016.880        -937.405          26.000    23978293.914     -171540.115        -698.157          18.000  
E11  27049931.749      558798.304        2795.880           9.000    27049931.995      492167.380        2085.941          10.000  
E24  26998480.208     -431146.434       -3100.748          18.000                                                                  
E36  26123751.182      703404.430        1601.441          22.000    26123755.258       54922.199        1196.568          22.000  
J 2  38063497.833      145091.441         246.253          30.000                                                                  
C 3  36975212.633         332.927          62.828          30.000                                                                                                                                  
C13  37165011.744        6829.431        1641.094          30.000                                                                                                                                  
C21  21574192.394       34922.325          52.247          32.000                                                                    21574190.620       15619.466          39.026          19.000  
C26  22282027.885     -914935.751       -2024.973          30.000                                                                    22282022.874     -371782.632       -1529.855          18.000  
> 2021 12  7  4 25 49.0000000  0 22                     
G10  20034519.706      251762.748         453.421          31.000    20034518.966      117590.915         335.953          21.000  
G12  22133961.058      -12700.079         -21.329          17.000                                                                  
G21  24800264.050     -398951.433        -758.058          17.000                                                                  
G23  21554702.251      566081.372        2688.240          16.000                                                                  
G25  21484307.616    -1032203.249       -1916.256          32.000    21484313.088     -550641.154       -1431.994          23.000  
G31  22028717.385    -1522700.782       -2833.876          29.000                                                                  
G32  21059466.901     -591350.521       -1090.581          32.000    21059454.129     -265579.648        -817.453          15.000  
R 8  20332067.460                                          30.000  
R 9  20426619.674                                          19.000  
E 9  23978108.370     -454941.445        -937.677          20.000    23978115.553     -174282.116        -700.036          17.000  
E11  27050463.798      573490.979        2796.050          11.000    27050464.279      500362.565        2088.442          10.000  
E24  26997891.891     -447435.263       -3098.999          19.000                                                                  
E36  26124055.680      711817.754        1600.746          21.000    26124060.759       59613.000        1194.614          22.000  
J 2  38063398.469      146392.857         247.177          25.000                                                                  
C 2  37449579.801         483.180          40.133          30.000                                                                                                                                  
C 3  36975218.066         681.245          71.681          28.000                                                                                                                                  
C 6  36113669.092         385.588         112.302          22.000                                                                                                                                  
C 8  37677692.227       14618.007        1806.289          29.000                                                                                                                                  
C 9  36650691.321         275.520          77.865          24.000                                                                                                                                  
C13  37165326.354       15381.111        1642.418          32.000                                                                                                                                  
C21  21574202.288       35196.792          53.087          28.000                                                                    21574200.183       15774.776          38.556          16.000  
C26  22281640.002     -925475.826       -2020.729          29.000                                                                    22281634.886     -377778.078       -1527.862          19.000  
> 2021 12  7  4 25 50.0000000  0 17                     
G10  20034604.793      254148.059         456.808          32.000    20034605.728      118925.997         338.315          19.000  
G12  22133957.306      -12805.137         -19.608          17.000                                                                  
G21  24800129.521     -402924.810        -754.825          17.000                                                                  
G23  21555213.760      580207.133        2687.587          17.000                                                                  
G25  21483941.275    -1042271.099       -1912.729          29.000    21483948.675     -556253.695       -1430.082          27.000  
G31  22028177.450    -1537589.915       -2833.929          29.000                                                                  
G32  21059257.576     -597079.109       -1091.072          29.000    21059245.999     -268785.949        -817.190          17.000  
R 8  20331685.039                                          29.000  
R 9  20427077.902                                          22.000  
R10  19260410.615                                          25.000  
E 9  23977929.689     -459866.902        -936.982          26.000    23977935.021     -177023.927        -698.180          19.000  
E11  27050995.907      588184.936        2796.529          15.000    27050996.772      508561.355        2088.484          11.000  
E24  26997300.442     -463711.481       -3095.270          18.000                                                                  
E36  26124359.968      720231.895        1601.585          22.000    26124365.745       64305.022        1194.208          20.000  
J 2  38063443.964      147696.295         248.735          27.000    38063447.115       70912.964         185.993          25.000  
C21  21574211.720       35471.281          54.835          29.000                                                                    21574210.226       15928.101          38.596          13.000  
C26  22281251.429     -936004.285       -2022.932          26.000                                                                    22281246.051     -383767.679       -1526.608          19.000  
