     3.04           OBSERVATION DATA    M: Mixed            RINEX VERSION / TYPE
Higeo_Hi1105        Huawei CBG          20220123 111837 UTC PGM / RUN BY / DATE 
************************************************************COMMENT             
* If you have any problem,                                 *COMMENT             
*     please contact with LBS Technology Group, thanks.    *COMMENT             
*                                                          *COMMENT             
* Version Higeo2RinexV1.1 2020.07.21                       *COMMENT             
* Fuction:  Convert Higeo Log to Rinex file                *COMMENT             
*                                                          *COMMENT             
* Note that the verision support B1C B2A signal            *COMMENT             
*     BDS: C1D L1D D1D S1D indicate BDS B1C                *COMMENT             
*     BDS: C5D L5D D5D S5D indicate BDS B2A                *COMMENT             
*     Reference: RINEX V3.04                               *COMMENT             
*                                                          *COMMENT             
* Copyright(C) Huawei Technologies Co., Ltd. 2019 - 2020   *COMMENT             
*     All rights reserved.                                 *COMMENT             
************************************************************COMMENT             
                                                            MARKER NAME         
                                                            MARKER NUMBER       
                                                            MARKER TYPE         
                                                            OBSERVER / AGENCY   
                                                            REC # / TYPE / VERS 
                                                            ANT # / TYPE        
        0.0000        0.0000        0.0000                  APPROX POSITION XYZ 
        0.0000        0.0000        0.0000                  ANTENNA: DELTA H/E/N
G    8 C1C L1C D1C S1C C5I L5I D5I S5I                      SYS / # / OBS TYPES 
R    4 C1C L1C D1C S1C                                      SYS / # / OBS TYPES 
E    8 C1C L1C D1C S1C C5I L5I D5I S5I                      SYS / # / OBS TYPES 
J    8 C1C L1C D1C S1C C5I L5I D5I S5I                      SYS / # / OBS TYPES 
C   12 C2I L2I D2I S2I C1D L1D D1D S1D C5D L5D D5D S5D      SYS / # / OBS TYPES 
  2022     1    20     8    44   57.0000000     GPS         TIME OF FIRST OBS   
  2022     1    20     9     8    4.0000000     GPS         TIME OF LAST OBS    
G                                                           SYS / PHASE SHIFT   
R                                                           SYS / PHASE SHIFT   
E                                                           SYS / PHASE SHIFT   
J                                                           SYS / PHASE SHIFT   
C                                                           SYS / PHASE SHIFT   
  0                                                         GLONASS SLOT / FRQ #
 C1C    0.000 C1P    0.000 C2C    0.000 C2P    0.000        GLONASS COD/PHS/BIS 
                                                            END OF HEADER       
> 2022  1 20  8 44 57.0000000  0  3                     
G 7                    -17920.575       -2270.412          34.000                                                                  
G 8                      7920.139         811.502          35.000                                                                  
C26                     -3704.941        -557.451          32.000                                                                                                                                  
> 2022  1 20  8 44 58.0000000  0  3                     
G 7                    -29864.622       -2274.018          25.000                                                                  
G 8                     12174.718         809.182          32.000                                                                  
C26                     -6620.520        -561.810          32.000                                                                                                                                  
> 2022  1 20  8 44 59.0000000  0  4                     
G 7                    -41811.098       -2274.783          25.000                                                                  
G 8                     16420.543         806.643          29.000                                                                  
G21                     -8065.239       -2085.577          28.000                                                                  
C26                     -9540.251        -559.567          35.000                                                                                                                                  
> 2022  1 20  8 45  0.0000000  0  6                     
G 4                     44778.703        3572.049          24.000                                                                  
G 7                    -53770.368       -2275.643          20.000                                                                  
G 8                     20663.610         805.612          19.000                        5126.351         602.704          30.000  
G 9                      5491.160        2187.808          18.000                                                                  
G21                    -19032.306       -2086.100          23.000                                                                  
C26                    -12461.151        -562.562          33.000                                                                                                                                  
> 2022  1 20  8 45  1.0000000  0  6                     
G 4                     63543.799        3569.744          26.000                                                                  
G 7                    -65726.250       -2275.132          19.000                                                                  
G 8                     24908.739         806.582          27.000                        7489.588         601.193          26.000  
G 9                     16977.952        2184.840          24.000                                                                  
G21                    -29987.144       -2084.671          23.000                                                                  
C26                    -15388.563        -562.492          33.000                                                                                                                                  
> 2022  1 20  8 45  2.0000000  0  6                     
G 4                     82304.801        3568.626          32.000                                                                  
G 7                    -77690.014       -2276.012          25.000                                                                  
G 8                     29147.264         805.801          39.000                        9846.993         601.466          17.000  
G 9                     28459.600        2184.533          17.000                                                                  
E24                      -145.225        -307.361          29.000                                                                  
C26                    -18318.449        -563.541          33.000                                                                                                                                  
> 2022  1 20  8 45  3.0000000  0  5                     
G 7                    -89654.064       -2276.634          20.000                                                                  
G 8                     33382.035         804.790          39.000                       12206.629         601.381          29.000  
G 9                     39944.445        2184.822          15.000                                                                  
E24                     -1748.231        -304.519          30.000                                                                  
C26                    -21250.551        -564.482          36.000                                                                                                                                  
> 2022  1 20  8 45  4.0000000  0  8                     
G 7                   -101622.080       -2277.571          23.000                                                                  
G 8                     37616.467         804.217          40.000                       14564.520         601.202          23.000  
G 9                     51426.527        2183.608          26.000                                                                  
R 9                                                        25.000  
E24                     -3355.286        -305.631          37.000                                                                  
J 2                      6591.365         131.200          33.000                                                                  
J 3                     56607.731        1385.322          25.000                                                                  
C26                    -24189.040        -562.533          33.000                                                                                                                                  
> 2022  1 20  8 45  5.0000000  0 10                     
G 7                   -115755.723       -2275.432          19.000                                                                  
G 8                     42608.265         805.033          35.000                       17350.540         601.928          25.000  
G 9                     64968.931        2183.289          28.000                                                                  
R 9                                                        25.000  
E12                     -8692.286       -1141.576          22.000                                                                  
E24                     -5260.199        -307.172          33.000                                                                  
J 2                      7403.560         130.146          32.000                                                                  
J 3                     65213.575        1387.790          24.000                                                                  
C26                    -27664.265        -565.980          29.000                                                                                                                                  
C35                      3507.826         742.764          24.000                                                                                                                                  
> 2022  1 20  8 45  6.0000000  0 11                     
G 7                   -127717.514       -2277.890          18.000                                                                  
G 8                     46841.073         804.587          23.000                       19707.188         600.653          25.000  
G 9                     76432.834        2182.104          31.000                                                                  
R 9                                                        23.000  
E12                    -14702.601       -1144.233          21.000                                                                  
E24                     -6877.240        -308.142          33.000                                                                  
J 2                      8081.336         128.509          30.000                                                                  
J 3                     72503.539        1387.980          17.000                                                                  
C 5                      5944.481         837.730          27.000                                                                                                                                  
C26                    -30609.185        -564.826          31.000                                                                                                                                  
C35                      7375.085         743.423          30.000                                                                                                                                  
> 2022  1 20  8 45  7.0000000  0 10                     
G 7                   -139697.624       -2280.480          18.000                                                                  
G 8                     51067.095         806.162          23.000                       22063.529         600.979          27.000  
G 9                     87885.020        2179.285          31.000                                                                  
R 9                                                        25.000  
E12                     -4585.199       -1143.306          23.000                                                                  
E24                     -8499.915        -309.142          31.000                                                                  
J 2                      8756.436         129.444          34.000                                                                  
C 5                     10284.103         832.008          27.000                                                                                                                                  
C26                    -33560.595        -566.442          28.000                                                                                                                                  
C35                     11243.308         742.322          24.000                                                                                                                                  
> 2022  1 20  8 45  8.0000000  0 10                     
G 4                     27867.958        3568.532          27.000                                                                  
G 7                   -151701.766       -2285.316          17.000                                                                  
G 8                     55297.967         803.217          30.000                       24418.706         599.070          25.000  
G 9                     99336.142        2179.252          29.000                                                                  
R 9                                                        24.000  
E12                    -10584.531       -1140.790          18.000                                                                  
E24                    -10124.741        -309.604          28.000                                                                  
C 5                     14555.558         817.150          25.000                                                                                                                                  
C26                    -36509.327        -565.816          24.000                                                                                                                                  
C35                     15103.135         740.958          28.000                                                                                        4651.762         559.065          20.000  
> 2022  1 20  8 45 10.0000000  0 15                     
G 1                    -58812.235       -3069.381          17.000                                                                  
G 7                   -173542.031       -2279.836          18.000                                                                  
G 8                     62972.436         802.040          25.000                       28714.078         599.937          27.000  
G 9                    120188.376        2178.427          29.000                                                                  
G21                    -25470.346       -2093.431          26.000                                                                  
R 9                                                        24.000  
E12                    -21511.284       -1141.731          21.000                                                                  
E24                    -13096.522        -311.134          31.000                                                                  
J 2                     10644.511         126.353          32.000                                                                  
J 3                    100267.747        1377.323          19.000                                                                  
C 5                     22394.656         827.617          25.000                                                                                                                                  
C 9                     13223.305        1772.723          23.000                                                                                                                                  
C24                    -14903.416       -1923.646          23.000                                                                                                                                  
C26                    -41892.561        -568.234          24.000                                                                                       -2637.853        -425.059          20.000  
C35                     22117.565         739.654          30.000                                                                                        8649.903         558.285          23.000  
> 2022  1 20  8 45 12.0000000  0  1                     
G 8                                                                                      3856.112         599.422          21.000  
> 2022  1 20  8 45 13.0000000  0  3                     
G 4                     25125.835        3563.066          30.000                                                                  
G 8                      3252.594         801.988          34.000                        6209.684         602.130          20.000  
G 9                     13053.753        2181.384          26.000                                                                  
> 2022  1 20  8 45 14.0000000  0  3                     
G 4                     43841.342        3562.058          27.000                                                                  
G 8                      7472.526         802.043          32.000                                                                  
G 9                     24508.774        2178.570          25.000                                                                  
> 2022  1 20  8 45 15.0000000  0  7                     
G 4                     62557.273        3561.752          25.000                                                                  
G 7                    -15575.317       -2284.589          27.000                                                                  
G 8                     11688.729         803.585          33.000                                                                  
G 9                     35952.157           0.001          21.000                                                                  
G21                    -14905.669       -2093.119          24.000                                                                  
J 2                      3517.788         123.000          27.000                                                                  
C35                      5996.602         604.258          22.000                                                                                                                                  
> 2022  1 20  8 45 16.0000000  0  7                     
G 4                     81272.615        3561.877          25.000                                                                  
G 7                    -27586.747       -2286.198          25.000                                                                  
G 8                     15909.469         801.227          33.000                       13285.126         601.825          19.000  
G 9                     47401.718           0.001          16.000                                                                  
G21                    -25898.726       -2091.234          24.000                                                                  
J 2                      4160.704         121.200          26.000                                                                  
C35                      9132.902         602.235          20.000                                                                                                                                  
> 2022  1 20  8 45 17.0000000  0  8                     
G 4                     99988.409        3562.319          27.000                                                                  
G 7                    -39602.451       -2285.602          23.000                                                                  
G 8                     20119.764         802.616          34.000                       15640.997         601.196          19.000  
G 9                     58857.165           0.001          18.000                                                                  
G21                    -36894.003       -2093.649          24.000                                                                  
J 2                      4803.257         122.356          25.000                                                                  
C26                     -9420.307        -515.409          19.000                                                                                                                                  
C35                     12262.623         598.644          18.000                                                                                                                                  
> 2022  1 20  8 45 18.0000000  0 10                     
G 1                    -68738.524       -3071.255          17.000                                                                  
G 4                    118704.817        3560.750          28.000                                                                  
G 7                    -51612.165       -2286.646          26.000                                                                  
G 8                     24334.980         802.722          33.000                       17990.609         598.606          19.000  
G 9                     70306.067        2177.698          19.000                                                                  
G21                    -47903.331       -2095.353          22.000                                                                  
R 9                                                        26.000  
J 2                      5442.920         122.361          24.000                                                                  
C26                    -12109.484        -514.052          18.000                                                                                                                                  
C35                     15386.460         600.243          16.000                                                                                                                                  
> 2022  1 20  8 45 19.0000000  0 11                     
G 1                    -84875.240       -3071.278          17.000                                                                  
G 4                    137414.369        3558.968          24.000                                                                  
G 7                    -63627.138           0.011          25.000                                                                  
G 8                     28543.714         801.578          34.000                       20338.785         600.032          19.000  
G 9                     81753.757        2179.544          20.000                                                                  
G21                    -58920.400       -2096.510          20.000                                                                  
R 9                                                        24.000  
J 2                      6083.843         121.305          24.000                                                                  
J 3                     28397.268        1376.615          19.000                                                                  
C26                    -14801.889        -518.614          20.000                                                                                                                                  
C35                     18512.306         599.921          12.000                                                                                                                                  
> 2022  1 20  8 45 20.0000000  0 12                     
G 1                   -101002.130       -3072.521          15.000                                                                  
G 4                    156125.538        3559.746          24.000                                                                  
G 7                    -75648.333       -2286.695          25.000                                                                  
G 8                     32761.037         801.254          34.000                       22681.825         597.168          17.000  
G 9                     93207.590        2179.019          19.000                                                                  
G21                    -69926.333       -2093.639          20.000                                                                  
R 9                                                        25.000  
J 2                      6721.948         120.664          25.000                                                                  
J 3                     35637.298        1376.536          24.000                                                                  
C10                      8151.972         788.979          19.000                                                                                                                                  
C26                    -17522.490                          17.000                                                                                                                                  
C35                     21634.225                          14.000                                                                                                                                  
> 2022  1 20  8 45 22.0000000  0  1                     
G 8                      7760.005         804.775          30.000                                                                  
> 2022  1 20  8 45 23.0000000  0  3                     
G 4                     19395.683        3555.193          24.000                                                                  
G 8                     11985.203         805.224          30.000                                                                  
R 9                                                        20.000  
> 2022  1 20  8 45 24.0000000  0  5                     
G 4                     38085.570        3556.401          24.000                                                                  
G 7                     -6894.436       -2285.926          24.000                                                                  
G 8                     16208.614         803.537          32.000                                                                  
G21                     -6510.098       -2094.090          23.000                                                                  
R 9                                                        22.000  
> 2022  1 20  8 45 25.0000000  0  7                     
G 4                     56779.315        3556.575          22.000                                                                  
G 7                    -18905.529       -2285.646          26.000                                                                  
G 8                     20423.534         802.767          29.000                                                                  
G 9                     11125.205        2179.777          24.000                                                                  
G21                    -17521.090       -2095.032          28.000                                                                  
R 9                                                        27.000  
C26                     -4028.832        -430.962          20.000                                                                                                                                  
> 2022  1 20  8 45 26.0000000  0  6                     
G 4                     75480.613        3560.307          20.000                                                                  
G 7                    -30917.081       -2285.722          19.000                                                                  
G 8                     24642.836         802.785          31.000                                                                  
G 9                     22581.327        2180.119          25.000                                                                  
R 9                                                        23.000  
C26                     -6264.100        -430.347          17.000                                                                                                                                  
> 2022  1 20  8 45 27.0000000  0  6                     
G 4                     94182.996        3557.636          19.000                                                                  
G 7                    -42924.185       -2285.771          18.000                                                                  
G 8                     28863.437         802.256          30.000                                                                  
G 9                     34042.767        2181.667          22.000                                                                  
R 9                                                        20.000  
C26                     -8500.261        -430.072          15.000                                                                                                                                  
> 2022  1 20  8 45 28.0000000  0  7                     
G 4                    112884.987        3559.200          19.000                                                                  
G 7                    -54935.668           0.011          17.000                                                                  
G 8                     33081.990         802.306          29.000                                                                  
G 9                     45510.282        2183.353          20.000                                                                  
G21                    -10938.857       -2095.485          24.000                                                                  
R 9                                                        19.000  
C26                    -10738.674                          15.000                                                                                                                                  
> 2022  1 20  8 45 29.0000000  0  7                     
G 4                    131587.497        3557.108          18.000                                                                  
G 7                    -66940.941           0.011          15.000                                                                  
G 8                     37290.485         801.512          29.000                                                                  
G 9                     56956.383        2174.574          18.000                                                                  
R 9                                                        20.000  
J 2                      2283.381         117.469          21.000                                                                  
C26                    -12980.711                          14.000                                                                                                                                  
> 2022  1 20  8 45 30.0000000  0  8                     
G 4                    150283.264        3556.208          16.000                                                                  
G 7                    -78962.831           0.011          15.000                                                                  
G 8                     41514.089         806.150          29.000                                                                  
G 9                     68393.889        2176.058          16.000                                                                  
G21                    -14895.513       -2098.629          21.000                                                                  
R 9                                                        20.000  
J 2                      2894.696         114.418          23.000                                                                  
C26                    -15228.441                          11.000                                                                                                                                  
> 2022  1 20  8 45 31.0000000  0  7                     
G 4                    168966.765        3555.454          18.000                                                                  
G 7                    -90990.553           0.011          13.000                                                                  
G 8                     45740.973         802.036          28.000                       11680.724         597.078          20.000  
G 9                     79825.875        2174.045          17.000                                                                  
R 9                                                        21.000  
J 2                      3498.336         114.144          24.000                                                                  
C26                    -17481.684                          12.000                                                                                                                                  
> 2022  1 20  8 45 32.0000000  0  7                     
G 4                    187654.592        3557.154          16.000                                                                  
G 7                   -103018.785           0.011          13.000                                                                  
G 8                     49963.640         803.839          28.000                       14032.421         598.487          20.000  
G 9                     91259.112        2175.691          18.000                                                                  
R 9                                                        20.000  
J 2                      4091.543         112.260          21.000                                                                  
C26                    -19730.679                          14.000                                                                                                                                  
> 2022  1 20  8 45 33.0000000  0  7                     
G 4                    206183.419        3558.297          14.000                                                                  
G 7                   -114944.236           0.011          13.000                                                                  
G 8                     54151.375         805.429          29.000                       16370.953         598.476          22.000  
G 9                    102589.643        2176.032          19.000                                                                  
R 9                                                        20.000  
J 2                      4687.101         114.174          23.000                                                                  
C26                    -21961.486                          11.000                                                                                                                                  
> 2022  1 20  8 45 34.0000000  0  7                     
G 4                    225877.136           0.002          16.000                                                                  
G 7                   -127604.291           0.011          12.000                                                                  
G 8                     58605.788         803.340          28.000                       18852.698         601.383          21.000  
G 9                    114635.741        2177.087          20.000                                                                  
R 9                                                        20.000  
J 2                      5318.191         113.073          20.000                                                                  
C26                    -24331.537                          12.000                                                                                                                                  
> 2022  1 20  8 45 35.0000000  0  7                     
G 4                    245119.261           0.002          17.000                                                                  
G 7                   -139959.311           0.011          13.000                                                                  
G 8                     62949.284         803.030          29.000                       21276.166         600.263          22.000  
G 9                    126420.303        2180.564          21.000                                                                  
R 9                                                        20.000  
J 2                      5940.351         115.728          21.000                                                                  
C26                    -26637.310                          12.000                                                                                                                                  
> 2022  1 20  8 45 36.0000000  0  7                     
G 4                    264147.408           0.002          17.000                                                                  
G 7                   -152178.869                          13.000                                                                  
G 8                     67247.232         805.279          30.000                       23674.621         599.374          20.000  
G 9                    138073.760        2177.248          20.000                                                                  
R 9                                                        20.000  
J 2                      6552.373         113.998          23.000                                                                  
C26                    -28901.141                          12.000                                                                                                                                  
> 2022  1 20  8 45 37.0000000  0  8                     
G 4                    283145.253        3555.305          17.000                                                                  
G 7                   -164392.183                          14.000                                                                  
G 8                     71542.514         803.994          30.000                       26067.001         598.891          22.000  
G 9                    149707.914        2177.810          20.000                                                                  
G21                    -11555.970       -2094.822          23.000                                                                  
R 9                                                        18.000  
J 2                      7158.094         111.814          23.000                                                                  
C26                    -31168.584                          12.000                                                                                                                                  
> 2022  1 20  8 45 38.0000000  0  8                     
G 4                    302128.401        3555.837          17.000                                                                  
G 7                   -176599.013                          15.000                                                                  
G 8                     75847.130         806.484          30.000                       28461.766         599.300          23.000  
G 9                    161338.436        2179.866          22.000                                                                  
G21                    -22734.018       -2092.602          23.000                                                                  
R 9                                                        19.000  
J 2                      7759.653         114.088          23.000                                                                  
C26                    -33440.345                          12.000                                                                                                                                  
> 2022  1 20  8 45 39.0000000  0  5                     
G 4                    320813.246        3555.403          18.000                                                                  
G 7                   -188621.634                          15.000                                                                  
G 8                     80086.323         805.891          28.000                       30818.983         601.602          20.000  
G 9                    172799.075        2180.319          20.000                                                                  
J 2                      8352.589         110.414          20.000                                                                  
> 2022  1 20  8 45 40.0000000  0  5                     
G 4                    339491.973        3555.924          19.000                                                                  
G 7                   -200651.483                          16.000                                                                  
G 8                     84314.564         803.209          30.000                       33176.152         597.575          20.000  
G 9                    184256.442        2180.587          22.000                                                                  
J 2                      8931.127         111.205          20.000                                                                  
> 2022  1 20  8 45 41.0000000  0  5                     
G 4                    358182.250        3556.289          19.000                                                                  
G 7                   -212689.115       -2291.310          15.000                                                                  
G 8                     88533.721         805.355          30.000                       35535.080         599.456          23.000  
G 9                    195713.973        2179.318          20.000                                                                  
J 2                      9513.804         109.487          22.000                                                                  
> 2022  1 20  8 45 42.0000000  0  5                     
G 4                    376865.241        3556.394          19.000                                                                  
G 7                   -224732.653       -2292.132          15.000                                                                  
G 8                     92766.170         805.243          29.000                       37893.569         600.436          22.000  
G 9                    207170.238        2180.271          22.000                                                                  
J 2                     10088.587         110.059          22.000                                                                  
> 2022  1 20  8 45 43.0000000  0  5                     
G 4                    395544.169        3551.496          18.000                                                                  
G 7                   -236771.914                          13.000                                                                  
G 8                     97001.349         807.012          30.000                       40251.686         598.874          21.000  
G 9                    218629.815        2179.428          22.000                                                                  
J 2                     10664.024         109.901          19.000                                                                  
> 2022  1 20  8 45 44.0000000  0  5                     
G 4                    414214.521        3553.638          17.000                                                                  
G 7                   -248809.039                          13.000                                                                  
G 8                    101230.726         804.593          32.000                       42608.504         601.182          23.000  
G 9                    230085.322        2180.185          21.000                                                                  
J 2                     11246.704         110.192          23.000                                                                  
> 2022  1 20  8 45 46.0000000  0  2                     
G 8                      3738.949         803.863          31.000                                                                  
G21                     -8757.496       -2084.768          28.000                                                                  
> 2022  1 20  8 45 47.0000000  0  3                     
G 8                      8220.440         806.882          29.000                                                                  
G21                    -20356.202       -2088.648          21.000                                                                  
R 9                                                        25.000  
> 2022  1 20  8 45 48.0000000  0  2                     
G 8                     12465.689         808.365          28.000                                                                  
R 9                                                        26.000  
> 2022  1 20  8 45 49.0000000  0  7                     
G 4                     16197.463        3559.037          20.000                                                                  
G 8                     16708.759         807.287          26.000                        4285.915         602.500          20.000  
G 9                     12364.626        2182.735          21.000                                                                  
G21                     -5691.979       -2095.042          28.000                                                                  
R 9                                                        28.000  
J 2                      2259.136         107.322          33.000                                                                  
C26                     -7161.651        -531.561          20.000                                                                                                                                  
> 2022  1 20  8 45 50.0000000  0  8                     
G 4                     34893.724        3556.508          22.000                                                                  
G 8                     20951.945         808.622          31.000                        6650.978         603.040          23.000  
G 9                     23833.962        2182.240          25.000                                                                  
G21                    -16710.636       -2098.293          29.000                                                                  
R 9                                                        27.000  
J 2                      2822.249         106.240          33.000                                                                  
J 3                     27742.191        1367.071          29.000                                                                  
C26                     -9947.153        -533.508          20.000                                                                                                                                  
> 2022  1 20  8 45 51.0000000  0  8                     
G 4                     53580.951        3557.096          20.000                                                                  
G 8                     25191.331         807.131          32.000                        9018.401         602.899          20.000  
G 9                     35305.517        2183.204          23.000                                                                  
G21                    -27721.467       -2092.608          25.000                                                                  
R 9                                                        27.000  
J 2                      3389.007         108.815          31.000                                                                  
J 3                     34931.059        1365.935          27.000                                                                  
C26                    -12716.489        -530.898          20.000                                                                                                                                  
> 2022  1 20  8 45 52.0000000  0  8                     
G 4                     72281.009        3557.821          22.000                                                                  
G 8                     29442.626         807.597          33.000                       11386.180         604.825          21.000  
G 9                     46775.410           0.001          21.000                                                                  
G21                    -38712.055       -2095.031          27.000                                                                  
R 9                                                        26.000  
J 2                      3957.163         107.704          30.000                                                                  
J 3                     42116.041        1368.585          25.000                                                                  
C26                    -15489.723        -531.940          20.000                                                                                                                                  
> 2022  1 20  8 45 53.0000000  0  8                     
G 4                     90969.988           0.002          21.000                                                                  
G 8                     33686.185         806.643          33.000                       13758.226         603.333          20.000  
G 9                     58242.885        2182.277          22.000                                                                  
G21                    -49717.545       -2094.159          24.000                                                                  
R 9                                                        25.000  
J 2                      4517.025         105.773          32.000                                                                  
J 3                     49305.338        1366.416          24.000                                                                  
C26                    -18260.757        -531.636          20.000                                                                                                                                  
> 2022  1 20  8 45 54.0000000  0  9                     
G 4                    109660.438           0.002          21.000                                                                  
G 7                    -18255.224       -2288.707          22.000                                                                  
G 8                     37939.734         809.792          33.000                       16129.800         604.859          17.000  
G 9                     69709.335        2183.206          19.000                                                                  
G21                    -60733.974       -2099.849          24.000                                                                  
R 9                                                        24.000  
J 2                      5079.510         105.273          32.000                                                                  
J 3                     56488.874        1367.650          23.000                                                                  
C26                    -21036.164        -533.056          19.000                                                                                                                                  
> 2022  1 20  8 45 55.0000000  0  9                     
G 4                    128350.311        3554.672          20.000                                                                  
G 7                    -30292.000       -2291.692          26.000                                                                  
G 8                     42190.800         809.950          31.000                       18501.550         603.322          18.000  
G 9                     81189.869        2185.750          17.000                                                                  
G21                    -71750.413       -2096.111          26.000                                                                  
R 9                                                        28.000  
J 2                      5641.790         108.547          31.000                                                                  
J 3                     63675.056        1366.207          25.000                                                                  
C26                    -23820.189        -535.681          17.000                                                                                                                                  
> 2022  1 20  8 45 56.0000000  0 11                     
G 4                    147027.936           0.002          17.000                                                                  
G 7                    -42332.846       -2292.569          26.000                                                                  
G 8                     46434.232         808.607          32.000                       20868.599         603.753          18.000  
G 9                     92670.406        2184.030          15.000                                                                  
G21                    -82756.271       -2093.362          25.000                                                                  
R 9                                                        26.000  
E12                    -10554.126       -1142.402          20.000                                                                  
J 2                      6202.384         105.939          32.000                                                                  
J 3                     70850.434        1364.490          22.000                                                                  
C 1                      5596.836         806.211          27.000                                                                                                                                  
C26                    -26597.902        -532.197          17.000                                                                                                                                  
> 2022  1 20  8 45 58.0000000  0  1                     
G 8                      7080.161         811.204          32.000                                                                  
> 2022  1 20  8 45 59.0000000  0  3                     
G 7                    -12181.422       -2291.268          26.000                                                                  
G 8                     11347.189         811.847          30.000                                                                  
R 9                                                        24.000  
> 2022  1 20  8 46  0.0000000  0  3                     
G 7                    -24219.825       -2291.945          25.000                                                                  
G 8                     15609.349         812.053          35.000                                                                  
R 9                                                        23.000  
> 2022  1 20  8 46  1.0000000  0  3                     
G 7                    -36260.905           0.011          22.000                                                                  
G 8                     19874.591         810.397          30.000                                                                  
R 9                                                        23.000  
> 2022  1 20  8 46  2.0000000  0  5                     
G 7                    -48299.677           0.011          16.000                                                                  
G 8                     24131.968         808.722          29.000                                                                  
G21                     -8691.040       -2093.917          30.000                                                                  
R 9                                                        20.000  
J 2                      3543.223         104.210          17.000                                                                  
> 2022  1 20  8 46  3.0000000  0  5                     
G 7                    -60328.568           0.011          16.000                                                                  
G 8                     28397.420         812.641          29.000                                                                  
G21                    -19694.431       -2090.122          29.000                                                                  
R 9                                                        20.000  
J 2                      4102.135         106.685          17.000                                                                  
> 2022  1 20  8 46  4.0000000  0  6                     
G 4                     74427.268        3555.380          17.000                                                                  
G 7                    -72368.914           0.011          16.000                                                                  
G 8                     32669.644         812.738          29.000                                                                  
G21                    -30693.798       -2093.480          26.000                                                                  
R 9                                                        23.000  
J 2                      4656.211         105.369          17.000                                                                  
> 2022  1 20  8 46  5.0000000  0  6                     
G 4                     93126.442        3558.406          17.000                                                                  
G 7                    -84414.789           0.011          16.000                                                                  
G 8                     36941.314         812.776          30.000                                                                  
G21                    -41690.669       -2091.692          30.000                                                                  
R 9                                                        20.000  
J 2                      5214.931         108.418          18.000                                                                  
> 2022  1 20  8 46  6.0000000  0  5                     
G 7                    -96460.973           0.011          16.000                                                                  
G 8                     41210.345         814.126          31.000                                                                  
G21                    -52683.301       -2088.679          29.000                                                                  
R 9                                                        20.000  
J 2                      5770.694         103.849          19.000                                                                  
> 2022  1 20  8 46  7.0000000  0  7                     
G 4                    130530.273        3557.413          19.000                                                                  
G 7                   -108500.214           0.011          14.000                                                                  
G 8                     45492.416         815.387          30.000                                                                  
G 9                     49525.389        2185.355          19.000                                                                  
G21                    -63657.870       -2088.135          25.000                                                                  
R 9                                                        23.000  
J 2                      6315.483         102.918          21.000                                                                  
> 2022  1 20  8 46  8.0000000  0  7                     
G 4                    149224.752        3556.529          17.000                                                                  
G 7                   -120542.138           0.011          16.000                                                                  
G 8                     49771.772         814.497          34.000                                                                  
G 9                     61015.921        2188.141          20.000                                                                  
G21                     -6021.360       -2091.943          29.000                                                                  
R 9                                                        27.000  
J 2                      6865.451         105.855          27.000                                                                  
> 2022  1 20  8 46  9.0000000  0  6                     
G 4                    167857.482        3554.950          16.000                                                                  
G 7                   -132545.963       -2291.226          17.000                                                                  
G 8                     54039.266         815.420          29.000                                                                  
G 9                     72483.612        2189.309          19.000                                                                  
G21                    -16963.725       -2084.769          24.000                                                                  
J 2                      7412.856         102.949          23.000                                                                  
> 2022  1 20  8 46 10.0000000  0  6                     
G 4                    186532.763        3553.955          17.000                                                                  
G 7                   -144588.864       -2292.906          16.000                                                                  
G 8                     58330.006         816.253          30.000                                                                  
G 9                     83984.163        2188.638          18.000                                                                  
G21                    -27932.764       -2090.423          32.000                                                                  
J 2                      7959.961         104.983          24.000                                                                  
> 2022  1 20  8 46 11.0000000  0  6                     
G 4                    205206.819        3554.830          20.000                                                                  
G 7                   -156628.913       -2289.385          24.000                                                                  
G 8                     62623.335         817.668          24.000                                                                  
G 9                     95480.816        2187.785          19.000                                                                  
G21                    -38909.046       -2088.784          26.000                                                                  
J 2                      8511.538         102.826          33.000                                                                  
> 2022  1 20  8 46 12.0000000  0  6                     
G 4                    223885.660        3554.904          22.000                                                                  
G 7                   -168659.380       -2288.210          24.000                                                                  
G 8                     66913.965         816.294          37.000                                                                  
G 9                    106973.095        2186.294          25.000                                                                  
G21                    -49881.096       -2086.164          24.000                                                                  
J 2                      9052.470         102.679          30.000                                                                  
> 2022  1 20  8 46 13.0000000  0  5                     
G 4                    242571.083        3556.544          22.000                                                                  
G 7                   -180686.057       -2288.924          23.000                                                                  
G 8                     71202.221         815.812          31.000                                                                  
G 9                    118481.834           0.001          25.000                                                                  
J 2                      9598.220         103.533          29.000                                                                  
> 2022  1 20  8 46 14.0000000  0  5                     
G 4                    261271.782        3560.333          17.000                                                                  
G 7                   -192713.440       -2289.604          19.000                                                                  
G 8                     75494.492         819.584          30.000                                                                  
G 9                    129994.363        2189.924          20.000                                                                  
J 2                     10140.023         103.412          26.000                                                                  
> 2022  1 20  8 46 16.0000000  0  2                     
G 8                      8307.133         816.723          24.000                                                                  
G21                    -14241.919       -2085.678          21.000                                                                  
> 2022  1 20  8 46 17.0000000  0  2                     
G 8                     12598.026         817.828          27.000                                                                  
G21                    -25201.161       -2085.117          23.000                                                                  
> 2022  1 20  8 46 18.0000000  0  2                     
G 8                     16908.121         821.414          26.000                                                                  
G21                    -36165.731       -2090.042          29.000                                                                  
> 2022  1 20  8 46 19.0000000  0  3                     
G 4                     13155.292        3559.468          16.000                                                                  
G 8                     21220.680         822.846          25.000                                                                  
G 9                     17227.864        2188.668          19.000                                                                  
> 2022  1 20  8 46 20.0000000  0  6                     
G 4                     31868.207        3559.175          22.000                                                                  
G 7                    -29557.507       -2288.952          22.000                                                                  
G 8                     25533.745         820.592          36.000                                                                  
G 9                     28749.118        2195.772          22.000                                                                  
G21                    -12648.991       -2086.527          27.000                                                                  
R 9                                                        24.000  
> 2022  1 20  8 46 21.0000000  0  7                     
G 4                     50573.381        3560.862          25.000                                                                  
G 7                    -41584.042       -2287.588          23.000                                                                  
G 8                     29848.116         820.467          31.000                                                                  
G 9                     40284.712        2195.187          24.000                                                                  
G21                    -23611.609       -2085.826          33.000                                                                  
R 9                                                        23.000  
C26                     -4183.670        -705.384          21.000                                                                                                                                  
> 2022  1 20  8 46 22.0000000  0  7                     
G 4                     69289.242        3561.798          20.000                                                                  
G 7                    -53605.901       -2289.036          22.000                                                                  
G 8                     34155.110         822.400          32.000                                                                  
G 9                     51822.064        2194.518          23.000                                                                  
G21                    -34573.566       -2084.375          29.000                                                                  
R 9                                                        22.000  
C26                     -7858.330        -702.581          20.000                                                                                                                                  
> 2022  1 20  8 46 23.0000000  0  7                     
G 4                     87989.163        3557.045          20.000                                                                  
G 7                    -65631.426       -2287.957          20.000                                                                  
G 8                     38477.234         822.959          28.000                                                                  
G 9                     63356.112        2195.310          24.000                                                                  
G21                    -45520.005       -2084.147          29.000                                                                  
R 9                                                        28.000  
C26                    -11525.416        -703.919          19.000                                                                                                                                  
> 2022  1 20  8 46 24.0000000  0  8                     
G 4                    106697.005        3562.199          21.000                                                                  
G 7                    -77652.555       -2287.554          24.000                                                                  
G 8                     42799.317         821.914          29.000                                                                  
G 9                     74907.429        2199.110          21.000                                                                  
G21                    -56478.427       -2084.638          33.000                                                                  
R 9                                                        26.000  
C 7                      6070.884         825.790          20.000                                                                                                                                  
C26                    -15187.662                          20.000                                                                                                                                  
> 2022  1 20  8 46 25.0000000  0  8                     
G 4                    125416.186        3561.550          21.000                                                                  
G 7                    -89675.229       -2286.569          25.000                                                                  
G 8                     47122.421         822.574          29.000                                                                  
G 9                     86461.324        2198.976          23.000                                                                  
G21                    -67432.907       -2083.847          31.000                                                                  
R 9                                                        26.000  
C 7                     10371.237         825.941          21.000                                                                                                                                  
C26                    -18836.275                          19.000                                                                                                                                  
> 2022  1 20  8 46 26.0000000  0  9                     
G 4                    144135.738        3562.995          19.000                                                                  
G 7                   -101698.031       -2287.748          27.000                                                                  
G 8                     51447.527         822.084          33.000                                                                  
G 9                     98010.634        2195.513          25.000                                                                  
G21                    -78386.358       -2085.316          35.000                                                                  
R 9                                                        25.000  
J 3                     26531.995        1366.517          23.000                                                                  
C 7                     14678.246         826.173          18.000                                                                                                                                  
C26                    -22487.689                          17.000                                                                                                                                  
> 2022  1 20  8 46 27.0000000  0 10                     
G 4                    162851.648        3559.423          20.000                                                                  
G 7                   -113717.216       -2287.475          24.000                                                                  
G 8                     55769.002         823.279          31.000                                                                  
G 9                    109549.733        2199.127          26.000                                                                  
G21                    -89334.792       -2084.155          35.000                                                                  
G26                     93002.052        3101.617          13.000                                                                  
R 9                                                        26.000  
J 3                     33710.712        1368.565          20.000                                                                  
C 7                     18980.029         826.533          15.000                                                                                                                                  
C26                    -26142.726                          13.000                                                                                                                                  
> 2022  1 20  8 46 28.0000000  0  9                     
G 4                    181559.155        3560.859          24.000                                                                  
G 7                   -125734.215       -2285.788          23.000                                                                  
G 8                     60104.515         824.647          34.000                                                                  
G 9                    121109.596        2200.501          22.000                                                                  
G21                   -100290.279       -2083.801          31.000                                                                  
G26                    109295.102        3101.278          14.000                                                                  
R 9                                                        25.000  
J 3                     40896.030        1366.571          25.000                                                                  
C 7                     23285.853         828.044          15.000                                                                                                                                  
> 2022  1 20  8 46 29.0000000  0  9                     
G 4                    200271.038        3560.776          23.000                                                                  
G 7                   -137742.562       -2284.038          20.000                                                                  
G 8                     64440.010         822.878          32.000                                                                  
G 9                    132670.729           0.001          19.000                                                                  
G21                   -111236.323       -2082.441          29.000                                                                  
G26                    125605.956        3101.696          14.000                                                                  
R 9                                                        26.000  
J 3                     48079.125        1367.307          28.000                                                                  
C 7                     27595.487         828.260          15.000                                                                                                                                  
> 2022  1 20  8 46 30.0000000  0  9                     
G 4                    218989.388           0.002          25.000                                                                  
G 7                   -149749.059           0.011          19.000                                                                  
G 8                     68764.294         826.274          31.000                                                                  
G 9                    144225.557           0.001          19.000                                                                  
G21                   -122181.269       -2083.697          32.000                                                                  
R 9                                                        26.000  
J 3                     55271.340        1370.575          25.000                                                                  
C 7                     31907.046         827.994          13.000                                                                                                                                  
C26                    -37098.352                          12.000                                                                                                                                  
> 2022  1 20  8 46 31.0000000  0  8                     
G 4                    237716.813        3565.411          24.000                                                                  
G 7                   -161768.261       -2286.859          20.000                                                                  
G 8                     73106.389         828.100          31.000                                                                  
G 9                    155788.300        2200.027          20.000                                                                  
G21                   -133123.944       -2080.759          32.000                                                                  
R 9                                                        25.000  
J 3                     62463.383        1366.937          25.000                                                                  
C 7                     36211.125                          15.000                                                                                                                                  
> 2022  1 20  8 46 32.0000000  0  7                     
G 4                    256439.930        3562.092          27.000                                                                  
G 7                   -173779.211       -2285.385          20.000                                                                  
G 8                     77453.875         826.141          32.000                                                                  
G 9                    167344.002           0.001          20.000                                                                  
R 9                                                        27.000  
J 3                     69645.106        1367.762          19.000                                                                  
C 7                     40517.799                          14.000                                                                                                                                  
> 2022  1 20  8 46 33.0000000  0  8                     
G 4                    275163.448        3563.303          23.000                                                                  
G 7                   -185789.537       -2285.771          23.000                                                                  
G 8                     81804.553         827.909          29.000                                                                  
G 9                    178896.865        2199.955          23.000                                                                  
G21                    -10447.485       -2081.838          32.000                                                                  
R 9                                                        22.000  
J 3                     76833.684        1367.503          29.000                                                                  
C 7                     44819.520                          12.000                                                                                                                                  
> 2022  1 20  8 46 34.0000000  0  9                     
G 4                    293889.488        3563.165          27.000                                                                  
G 7                   -197800.564       -2285.251          26.000                                                                  
G 8                     86147.256         825.072          34.000                                                                  
G 9                    190457.424        2202.293          21.000                                                                  
G21                    -21392.729       -2081.814          32.000                                                                  
R 9                                                        23.000  
J 3                     84015.399        1365.233          30.000                                                                  
C 7                     49113.203                          15.000                                                                                                                                  
C10                      3298.146         730.376          31.000                                                                                                                                  
> 2022  1 20  8 46 35.0000000  0  7                     
G 4                    312619.330        3565.194          28.000                                                                  
G 7                   -209811.302       -2286.518          29.000                                                                  
G 8                     90487.160         826.202          29.000                                                                  
G 9                    202031.595        2203.160          25.000                                                                  
G21                    -32334.751       -2082.807          25.000                                                                  
J 3                     91199.233        1367.012          34.000                                                                  
C 7                     53402.094                          11.000                                                                                                                                  
> 2022  1 20  8 46 36.0000000  0  7                     
G 4                    331373.682        3566.066          28.000                                                                  
G 7                   -221821.919       -2282.261          21.000                                                                  
G 8                     94847.781         828.183          33.000                                                                  
G 9                    213611.941        2200.508          22.000                                                                  
G21                    -43283.760       -2081.791          28.000                                                                  
J 3                     98393.691        1369.496          24.000                                                                  
C 7                     57702.660                          13.000                                                                                                                                  
> 2022  1 20  8 46 37.0000000  0  6                     
G 4                    350108.062        3565.081          26.000                                                                  
G 7                   -233825.986       -2286.041          19.000                                                                  
G 8                     99208.240         828.314          31.000                                                                  
G 9                    225177.011        2202.167          20.000                                                                  
J 3                    105578.615        1367.498          27.000                                                                  
C 7                     62007.896                          14.000                                                                                                                                  
> 2022  1 20  8 46 38.0000000  0  6                     
G 4                    368846.065        3567.640          27.000                                                                  
G 7                   -245830.299       -2282.973          18.000                                                                  
G 8                    103565.889         828.141          32.000                                                                  
G 9                    236744.573        2201.134          22.000                                                                  
J 3                    112767.103        1366.506          27.000                                                                  
C 7                     66311.957                          14.000                                                                                                                                  
> 2022  1 20  8 46 39.0000000  0  7                     
G 1                   -121996.762       -3094.936          16.000                                                                  
G 4                    387585.701        3566.018          19.000                                                                  
G 7                   -257827.277       -2283.124          23.000                                                                  
G 8                    107925.306         829.988          33.000                                                                  
G 9                    248317.232        2203.424          17.000                                                                  
J 3                    119954.096        1367.127          20.000                                                                  
C 7                     70608.227                          12.000                                                                                                                                  
> 2022  1 20  8 46 40.0000000  0  7                     
G 1                   -138271.518       -3097.479          14.000                                                                  
G 4                    406324.198        3563.278          18.000                                                                  
G 7                   -269823.193       -2282.442          23.000                                                                  
G 8                    112287.538         829.692          29.000                                                                  
G 9                    259896.847        2202.974          14.000                                                                  
J 3                    127135.553        1367.530          19.000                                                                  
C 7                     74908.458                          10.000                                                                                                                                  
> 2022  1 20  8 46 42.0000000  0  1                     
G 8                      8421.482         831.897          30.000                                                                  
> 2022  1 20  8 46 43.0000000  0  1                     
G 8                     12779.269         830.680          25.000                                                                  
> 2022  1 20  8 46 44.0000000  0  4                     
G 4                     20566.462        3564.609          33.000                                                                  
G 8                     17147.094         831.586          28.000                                                                  
E 9                     15973.196        3237.796          25.000                                                                  
C35                      5975.293         770.703          27.000                                                                                                                                  
> 2022  1 20  8 46 45.0000000  0 10                     
G 4                     39302.565        3567.663          31.000                                                                  
G 7                    -17668.582       -2283.924          23.000                                                                  
G 8                     21528.651         832.047          27.000                                                                  
G 9                     17469.832        2203.170          25.000                                                                  
G21                    -14775.198       -2083.657          24.000                                                                  
E 9                     32991.421        3237.212          24.000                                                                  
E24                     -3626.091        -330.705          24.000                                                                  
C26                     -3203.069        -561.282          30.000                                                                                                                                  
C29                     21698.723        3357.923          26.000                                                                                                                                  
C35                      9986.213         769.393          28.000                                                                                                                                  
> 2022  1 20  8 46 46.0000000  0 10                     
G 4                     58057.460        3565.767          40.000                                                                  
G 7                    -29660.752       -2281.096          28.000                                                                  
G 8                     25904.183         833.925          22.000                                                                  
G 9                     29053.236           0.001          24.000                                                                  
R 9                                                        22.000  
E 9                     50018.138        3240.553          24.000                                                                  
E24                     -5362.885        -329.167          22.000                                                                  
C26                     -6127.292        -562.859          26.000                                                                                                                                  
C29                     39193.889        3361.579          33.000                                                                                                                                  
C35                     13990.260         768.534          21.000                                                                                                                                  
> 2022  1 20  8 46 47.0000000  0 10                     
G 1                    -49710.968       -3094.416          17.000                                                                  
G 4                     76812.403        3571.492          34.000                                                                  
G 7                    -41663.798           0.011          24.000                                                                  
G 8                     30285.753         833.659          25.000                                                                  
R 9                                                        20.000  
E 9                     67042.213        3239.406          23.000                        8309.372        2416.881          24.000  
E24                     -7096.028        -327.807          24.000                                                                  
C26                     -9067.435        -564.294          26.000                                                                                                                                  
C29                     56690.358        3362.558          33.000                                                                                                                                  
C35                     17994.950         770.252          21.000                                                                                                                                  
> 2022  1 20  8 46 48.0000000  0 12                     
G 1                    -65977.675       -3095.146          15.000                                                                  
G 4                     95570.626        3569.295          29.000                                                                  
G 7                    -53676.747       -2284.350          24.000                                                                  
G 8                     34665.609         831.672          25.000                                                                  
G 9                     52207.132           0.001          23.000                       11844.817        1644.448          25.000  
G21                    -25248.406       -2083.440          26.000                                                                  
R 9                                                        23.000  
E 9                     84062.916        3239.738          25.000                       17802.206        2420.508          23.000  
E24                     -8829.826        -331.047          26.000                                                                  
C26                    -12020.306        -562.531          24.000                                                                                                                                  
C29                     74190.495        3359.686          32.000                                                                                                                                  
C35                     22014.368         774.064          23.000                                                                                                                                  
> 2022  1 20  8 46 49.0000000  0 12                     
G 1                    -82245.257       -3096.174          16.000                                                                  
G 4                    114329.719        3569.681          29.000                                                                  
G 7                    -65677.649           0.011          19.000                                                                  
G 8                     39040.045         832.560          28.000                                                                  
G 9                     63788.352        2205.038          37.000                       18299.414        1646.823          22.000  
G21                    -36186.099       -2081.830          28.000                                                                  
R 9                                                        27.000  
E 9                    101092.987        3238.416          19.000                       27299.079        2419.587          15.000  
E24                    -10576.299        -331.762          28.000                                                                  
C26                    -14955.152        -564.862          25.000                                                                                                                                  
C29                     91688.929        3359.359          34.000                                                                                                                                  
C35                     26029.126         771.624          20.000                                                                                                                                  
> 2022  1 20  8 46 50.0000000  0 12                     
G 1                    -98517.014       -3095.385          15.000                                                                  
G 4                    133060.153        3561.771          22.000                                                                  
G 7                    -77684.457           0.011          20.000                                                                  
G 8                     43419.197         834.923          33.000                                                                  
G 9                     75387.600        2209.717          27.000                       24764.358        1645.716          23.000  
G21                    -47111.335       -2078.164          24.000                                                                  
R 9                                                        21.000  
E 9                    118111.642        3238.199          28.000                                                                  
E24                    -12313.402        -329.265          24.000                                                                  
C26                    -17879.461        -561.036          25.000                                                                                                                                  
C29                    109190.400        3362.447          28.000                                                                                                                                  
C35                     30051.828         770.911          20.000                                                                                                                                  
> 2022  1 20  8 46 51.0000000  0 13                     
G 1                   -114782.106       -3095.029          16.000                                                                  
G 4                    151792.935        3567.477          36.000                                                                  
G 7                    -89679.537           0.011          18.000                                                                  
G 8                     47801.661         834.538          24.000                                                                  
G 9                     86990.558        2207.347          35.000                                                                  
G21                    -58036.876       -2077.853          20.000                                                                  
R 9                                                        20.000  
E 9                    135130.508        3236.599          20.000                                                                  
E24                    -14047.740        -329.897          27.000                                                                  
C 7                      4666.334         766.778          24.000                                                                                                                                  
C26                    -20799.817        -560.011          23.000                                                                                                                                  
C29                    126699.165        3360.021          32.000                                                                                                                                  
C35                     34070.895         772.393          23.000                                                                                                                                  
> 2022  1 20  8 46 52.0000000  0 14                     
G 1                   -131048.729       -3095.773          15.000                                                                  
G 4                    170539.417        3565.641          39.000                        8779.495        2666.633          28.000  
G 7                   -101667.276           0.011          19.000                                                                  
G 8                     52197.838         838.173          26.000                                                                  
G 9                     98602.207        2217.507          26.000                       37707.979        1652.267          22.000  
G21                    -68948.025          -0.008          19.000                                                                  
R 9                                                        27.000  
E 9                                                                                     55785.788        2418.428          22.000  
E24                    -15776.089        -327.286          23.000                        -577.285        -242.305          23.000  
C 7                      8665.682         767.585          20.000                                                                                                                                  
C10                      6004.537         720.203          21.000                                                                                                                                  
C26                    -23714.718        -559.741          30.000                                                                                                                                  
C29                    144198.979        3362.727          31.000                                                                                                                                  
C35                     38095.251         772.762          27.000                                                                                                                                  
> 2022  1 20  8 46 53.0000000  0 14                     
G 1                   -147316.582       -3095.256          15.000                                                                  
G 4                    189298.501        3569.094          29.000                       19238.422        2664.287          23.000  
G 7                   -113647.778       -2280.219          20.000                                                                  
G 8                     56602.238         839.333          24.000                                                                  
G 9                    110232.898        2212.646          28.000                       44183.991        1648.568          23.000  
G21                    -79859.976          -0.008          20.000                                                                  
R 9                                                        24.000  
E 9                    169172.564        3239.771          28.000                       65287.819        2420.972          18.000  
E24                    -17510.543        -328.318          24.000                       -1532.581        -242.977          20.000  
C 7                     12663.428         767.168          19.000                                                                                                                                  
C10                      9759.310         722.880          20.000                                                                                                                                  
C26                    -26638.482        -560.335          25.000                                                                                                                                  
C29                    161689.268        3362.811          30.000                                                                                                                                  
C35                     42148.519         780.551          25.000                                                                                                                                  
> 2022  1 20  8 46 54.0000000  0 15                     
G 1                   -163569.487       -3093.040          16.000                                                                  
G 4                    208060.926        3570.060          24.000                       29700.786        2663.973          22.000  
G 7                   -125625.067           0.011          19.000                                                                  
G 8                     61019.399         837.589          26.000                        8567.624         650.008          26.000  
G 9                    121856.742        2216.289          29.000                       50658.253        1653.517          24.000  
R 9                                                        20.000  
E 9                    186189.639        3236.779          20.000                                                                  
E12                     -6461.454       -1118.431          19.000                                                                  
E24                    -19226.983        -325.717          27.000                       -2480.084        -241.955          19.000  
C 6                     26058.727        2217.789          21.000                                                                                                                                  
C 7                     16660.834         767.983          20.000                                                                                                                                  
C10                     13522.983         722.801          20.000                                                                                                                                  
C26                    -29554.831        -559.131          27.000                                                                                                                                  
C29                    179197.840        3362.634          34.000                                                                                                                                  
C35                     46194.452         778.170          27.000                                                                                                                                  
> 2022  1 20  8 46 55.0000000  0 16                     
G 1                   -179813.595       -3089.915          17.000                                                                  
G 4                    226829.465        3572.108          21.000                       40179.277        2671.238          18.000  
G 7                   -137606.624           0.011          22.000                                                                  
G 8                     65429.587         842.525          25.000                       10988.973         605.840          11.000  
G 9                    133480.207        2213.169          29.000                       57136.740        1651.929          24.000  
G21                   -101666.325       -2069.578          24.000                                                                  
R 9                                                        23.000  
E 9                    203208.657        3239.998          27.000                                                                  
E12                    -12345.554       -1119.290          19.000                                                                  
E24                    -20948.198        -325.723          30.000                       -3433.129        -244.359          18.000  
C 6                     37612.405        2219.010          23.000                                                                                                                                  
C 7                     20661.622         768.289          23.000                                                                                                                                  
C10                     17278.093         721.059          20.000                                                                                                                                  
C26                    -32465.714        -557.995          29.000                                                                                                                                  
C29                    196701.370        3365.429          33.000                                                                                                                                  
C35                     50254.207         784.199          26.000                                                                                        6339.134         583.921          20.000  
> 2022  1 20  8 46 56.0000000  0 17                     
G 1                   -196061.195       -3092.123          17.000                                                                  
G 4                    245607.469           0.002          20.000                       50667.324        2673.356          17.000  
G 7                   -149573.634           0.011          22.000                                                                  
G 8                     69859.623         840.648          24.000                       13400.801         619.466          19.000  
G 9                    145104.813        2212.917          33.000                       63621.773        1652.541          24.000  
G21                   -112538.512       -2068.517          24.000                                                                  
R 9                                                        25.000  
E 5                     25141.137        1816.507          18.000                                                                  
E 9                    220241.881        3240.681          20.000                                                                  
E12                    -18218.404       -1118.758          21.000                                                                  
E24                    -22658.741        -324.810          27.000                       -4380.163        -241.537          18.000  
C 6                     49168.612           0.098          19.000                                                                                                                                  
C 7                     24669.199         770.700          23.000                                                                                                                                  
C10                     21032.760         721.501          20.000                                                                                                                                  
C26                    -35376.506        -558.618          31.000                                                                                                                                  
C29                    214211.958        3366.751          27.000                                                                                                                                  
C35                     54310.835         777.802          27.000                                                                                        8627.243         584.693          19.000  
> 2022  1 20  8 46 57.0000000  0 16                     
G 1                   -212313.003       -3092.457          16.000                                                                  
G 4                    264377.252           0.002          20.000                       61150.413        2670.762          15.000  
G 7                   -161529.177       -2272.890          21.000                                                                  
G 8                     74273.074         841.044          27.000                       15849.286         627.638          21.000  
G 9                    156726.701        2211.031          30.000                       70110.196        1652.425          23.000  
G21                   -123415.119       -2071.673          30.000                                                                  
R 9                                                        24.000  
E 5                     34690.620        1818.409          15.000                                                                  
E12                    -24086.023       -1116.976          24.000                                                                  
E24                    -24371.803        -327.065          24.000                       -5324.823        -242.156          22.000  
C 6                     60722.941        2218.850          19.000                                                                                                                                  
C 7                     28682.179         771.055          24.000                                                                                                                                  
C10                     24789.041         720.948          20.000                                                                                                                                  
C26                    -38286.556        -557.048          31.000                                                                                                                                  
C29                    231737.730        3362.658          28.000                                                                                                                                  
C35                     58384.412         783.309          30.000                                                                                       10938.720         592.310          20.000  
> 2022  1 20  8 46 58.0000000  0 17                     
G 1                   -228558.018       -3090.753          17.000                                                                  
G 4                    283147.157        3572.002          25.000                       71625.624        2667.618          17.000  
G 7                   -173487.392       -2278.050          22.000                                                                  
G 8                     78697.445         849.123          24.000                       18301.143         625.810          21.000  
G 9                    168353.119        2218.124          30.000                       76590.555        1654.629          23.000  
G21                   -134263.157       -2067.011          24.000                                                                  
R 9                                                        22.000  
E 5                     44244.797        1818.554          13.000                                                                  
E12                    -29939.627       -1116.507          22.000                                                                  
E24                    -26089.005        -326.133          29.000                       -6285.756        -242.552          22.000  
E31                     11239.529        1222.876          26.000                                                                  
C 6                     72291.493        2223.242          19.000                                                                                                                                  
C 7                     32699.373         771.808          20.000                                                                                                                                  
C10                     28547.421         724.845          20.000                                                                                                                                  
C26                    -41186.511        -555.806          29.000                                                                                                                                  
C29                    249232.659        3360.783          30.000                                                                                                                                  
C35                     62449.208         779.482          25.000                                                                                       13236.006         583.330          21.000  
> 2022  1 20  8 46 59.0000000  0 19                     
G 1                   -244798.318       -3090.791          18.000                                                                  
G 4                    301916.140           0.002          25.000                       82097.959        2668.297          18.000  
G 7                   -185465.002       -2279.669          19.000                                                                  
G 8                     83135.420         842.588          24.000                       20755.176         620.490          19.000  
G 9                    179992.088        2214.685          26.000                       83083.000        1653.678          20.000  
G21                   -145123.626       -2067.921          26.000                                                                  
R 9                                                        21.000  
E 5                     53803.472        1819.266          13.000                                                                  
E 9                    271360.681        3241.126          27.000                                                                  
E12                    -35802.996       -1116.421          25.000                       -4956.423        -834.902          17.000  
E24                    -27805.498        -326.349          23.000                       -7253.098        -242.554          21.000  
E31                     17658.118        1221.881          24.000                                                                  
C 6                     83868.178        2221.513          20.000                                                                                                                                  
C 7                     36714.092         770.256          23.000                                                                                                                                  
C10                     32307.013         720.723          20.000                                                                                                                                  
C12                    -20361.087       -2460.895          18.000                                                                                                                                  
C26                    -44083.047        -555.747          26.000                                                                                                                                  
C29                    266738.932        3365.486          29.000                                                                                                                                  
C35                     66520.405         782.403          29.000                                                                                       15536.607         585.135          18.000  
> 2022  1 20  8 47  0.0000000  0 19                     
G 1                   -261038.806       -3090.428          17.000                                                                  
G 4                    320692.232        3572.583          27.000                       92565.882        2666.662          16.000  
G 7                   -197437.160       -2279.277          20.000                                                                  
G 8                     87567.575         845.689          22.000                       23206.819         626.989          20.000  
G 9                    191631.581        2214.933          24.000                       89562.909        1650.990          19.000  
G26                     89201.801        3108.852          17.000                                                                  
R 9                                                        23.000  
E 5                     63363.994        1819.598          14.000                                                                  
E 9                    288389.349        3239.858          27.000                                                                  
E12                    -41678.745       -1118.482          28.000                       -8226.039        -832.163          17.000  
E24                    -29520.136        -325.732          25.000                       -8212.609        -244.105          20.000  
E31                     24084.733        1222.558          30.000                                                                  
C 6                     95423.112           0.098          19.000                                                                                                                                  
C 7                     40722.925         769.192          25.000                                                                                                                                  
C10                     36053.270         719.586          24.000                                                                                                                                  
C24                    -10186.622       -1938.897          25.000                                                                                                                                  
C26                    -46974.220        -555.426          32.000                                                                                                                                  
C29                    284247.945        3362.857          26.000                                                                                                                                  
C35                     70572.811         778.216          31.000                                                                                       17846.108         590.502          19.000  
> 2022  1 20  8 47  1.0000000  0 20                     
G 1                   -277275.019       -3089.518          16.000                                                                  
G 4                    339472.408        3573.477          25.000                      103036.357        2668.516          20.000  
G 7                   -209411.238       -2276.413          27.000                                                                  
G 8                     91991.492         841.297          25.000                       25673.105         627.959          21.000  
G 9                    203270.445        2215.676          22.000                       96044.163        1652.121          17.000  
G21                   -166829.468       -2065.170          25.000                                                                  
G26                    105532.992        3106.870          16.000                                                                  
R 9                                                        25.000  
E 5                     72933.146        1821.590          19.000                                                                  
E 9                    305412.957        3236.274          19.000                                                                  
E12                    -47539.634       -1114.592          26.000                      -11494.553        -833.603          18.000  
E24                    -31226.727        -326.763          24.000                       -9170.105        -243.104          20.000  
E31                     30511.123        1224.993          30.000                        1446.879         916.850          23.000  
C 6                    106972.529        2220.728          17.000                                                                                                                                  
C 7                     44726.586         768.723          20.000                                                                                                                                  
C10                     39806.968         721.596          21.000                                                                                                                                  
C24                    -20281.547       -1938.856          19.000                                                                                                                                  
C26                    -49869.699        -553.645          29.000                                                                                                                                  
C29                    301761.077        3361.627          30.000                                                                                                                                  
C35                     74657.862         782.922          32.000                                                                                       20162.532         590.560          19.000  
> 2022  1 20  8 47  2.0000000  0 20                     
G 1                   -293507.351       -3088.659          15.000                                                                  
G 4                    358242.511           0.002          22.000                      113502.931        2669.068          17.000  
G 7                   -221374.878       -2277.632          25.000                                                                  
G 8                     96412.864         841.022          25.000                       28133.959         629.660          20.000  
G 9                    214910.826        2216.135          23.000                      102530.382        1653.466          17.000  
G21                   -177681.865       -2065.484          28.000                                                                  
G26                    121852.459        3105.785          17.000                                                                  
R 9                                                        24.000  
E 5                     82505.850        1821.316          22.000                                                                  
E 9                    322433.499        3240.515          20.000                                                                  
E12                    -53378.271       -1112.589          25.000                      -14763.544        -836.265          20.000  
E24                    -32938.948        -326.587          23.000                      -10126.972        -242.686          20.000  
E31                     36937.618        1223.623          27.000                        5038.241         915.926          23.000  
C 6                    118530.463        2218.763          21.000                                                                                                                                  
C 7                     48739.591         771.240          22.000                                                                                                                                  
C10                     43567.705         720.750          19.000                                                                                                                                  
C24                    -30373.450                          19.000                                                                                                                                  
C26                    -52768.932        -556.645          28.000                                                                                                                                  
C29                    319267.072        3360.571          26.000                                                                                                                                  
C35                     78713.672         779.227          24.000                                                                                       22474.275         591.215          19.000  
> 2022  1 20  8 47  3.0000000  0 19                     
G 1                   -309734.461       -3087.995          18.000                                                                  
G 4                    377007.947        3571.064          25.000                      123976.296        2667.511          20.000  
G 8                    100834.840         844.529          28.000                       30602.657         627.351          20.000  
G 9                    226564.043           0.001          22.000                      109016.559        1650.697          13.000  
G21                   -188511.000       -2061.393          26.000                                                                  
G26                    138186.014        3111.793          15.000                                                                  
R 9                                                        23.000  
E 5                     92094.880        1823.802          19.000                                                                  
E 9                    339463.230        3239.749          23.000                                                                  
E12                    -59227.632       -1115.427          28.000                      -18033.038        -833.889          19.000  
E24                    -34648.877        -324.792          22.000                      -11079.902        -240.643          20.000  
E31                     43369.698        1223.083          29.000                        8641.404         917.258          19.000  
C 6                    130089.583        2220.002          24.000                                                                                                                                  
C 7                     52754.230         770.591          22.000                                                                                                                                  
C10                     47314.231         720.516          22.000                                                                                                                                  
C24                    -40466.883       -1938.346          22.000                                                                                                                                  
C26                    -55657.490        -554.064          29.000                                                                                                                                  
C29                    336776.399        3361.825          30.000                                                                                                                                  
C35                     82787.834         785.175          26.000                                                                                       24790.228         589.238          18.000  
> 2022  1 20  8 47  4.0000000  0 19                     
G 1                   -325957.835       -3088.253          19.000                                                                  
G 4                    395778.151        3570.873          31.000                      134438.287        2666.836          18.000  
G 7                   -245305.295       -2275.728          18.000                                                                  
G 8                    105275.122         845.380          23.000                       33074.883         631.830          22.000  
G 9                    238219.268           0.001          18.000                      115491.732        1649.247          14.000  
G21                   -199371.031       -2073.103          27.000                                                                  
G26                    154533.381        3108.469          15.000                                                                  
R 9                                                        20.000  
E 5                    101677.865        1825.145          18.000                                                                  
E 9                    356483.227        3238.795          19.000                                                                  
E12                    -65077.019       -1113.873          25.000                      -21285.024        -829.494          19.000  
E24                    -36362.098        -326.109          27.000                      -12045.991        -243.573          22.000  
E31                     49795.009        1222.014          31.000                       12222.566         910.920          24.000  
C 6                    141647.678        2218.865          24.000                                                                                                                                  
C 7                     56762.059         769.981          22.000                                                                                                                                  
C10                     51062.617         720.356          20.000                                                                                                                                  
C26                    -58551.918        -553.792          29.000                                                                                                                                  
C29                    354289.207        3365.957          30.000                                                                                                                                  
C35                     86882.160         783.583          24.000                                                                                       27103.283         590.260          18.000  
> 2022  1 20  8 47  5.0000000  0 19                     
G 1                   -342190.249       -3088.961          17.000                                                                  
G 4                    414547.639        3569.193          35.000                      144909.286        2667.411          19.000  
G 7                   -257265.113           0.011          23.000                                                                  
G 8                    109708.730         842.173          22.000                       35545.620         635.352          20.000  
G 9                    249879.211           0.001          17.000                                                                  
G21                   -210201.150       -2059.513          29.000                                                                  
G26                    170870.459           0.008          15.000                                                                  
R 9                                                        20.000  
E 5                    111285.929        1831.634          18.000                                                                  
E 9                    373503.058        3238.283          21.000                                                                  
E12                    -70916.951       -1113.321          29.000                      -24537.155        -830.652          19.000  
E24                    -38072.995        -325.459          24.000                      -12997.529        -240.421          20.000  
E31                     56224.829        1224.206          24.000                       15789.252         908.412          21.000  
C 6                    153200.445        2218.419          24.000                                                                                                                                  
C 7                     60762.146         768.053          21.000                                                                                                                                  
C10                     54818.299         722.395          22.000                                                                                                                                  
C26                    -61440.818        -555.218          29.000                                                                                       -2238.018        -417.670          23.000  
C29                    371802.456        3365.719          28.000                                                                                                                                  
C35                     90970.235         784.337          27.000                                                                                       29430.756         592.571          19.000  
> 2022  1 20  8 47  6.0000000  0 20                     
G 1                   -358415.793       -3087.192          16.000                                                                  
G 4                    433304.598        3571.189          38.000                      155377.723        2666.570          28.000  
G 7                   -269221.113       -2273.186          22.000                                                                  
G 8                    114141.467         845.318          22.000                       38018.429         631.751          20.000  
G21                   -221027.244       -2062.546          27.000                                                                  
G26                    187216.156           0.008          17.000                                                                  
R 7                                                        23.000  
R 9                                                        23.000  
E 5                    120913.036        1828.009          20.000                                                                  
E 9                    390522.520        3239.685          20.000                                                                  
E12                    -76753.988       -1112.050          27.000                      -27798.253        -835.079          20.000  
E24                    -39777.702        -323.969          22.000                      -13951.941        -240.814          20.000  
E31                     62662.020        1223.786          29.000                       19373.115         911.641          21.000  
C 1                      7218.951         767.738          27.000                                                                                                                                  
C 6                    164758.928        2220.570          25.000                                                                                                                                  
C 7                     64766.948         770.698          23.000                                                                                                                                  
C10                     58580.369                          21.000                                                                                                                                  
C26                    -64327.968        -552.860          32.000                                                                                       -3877.048        -418.886          20.000  
C29                    389322.884        3367.773          28.000                                                                                                                                  
C35                     95064.321         784.304          27.000                                                                                       31750.651         592.517          18.000  
> 2022  1 20  8 47  7.0000000  0 21                     
G 1                   -374631.040       -3086.801          20.000                                                                  
G 4                    452078.178        3573.144          38.000                      165852.247        2667.246          26.000  
G 7                   -281184.869           0.011          24.000                                                                  
G 8                    118589.905         847.189          22.000                       40493.935         632.732          19.000  
G21                   -231864.328       -2063.971          30.000                                                                  
G26                    203549.107        3108.127          21.000                                                                  
R 7                                                        23.000  
R 9                                                        23.000  
E 5                    130519.562        1824.124          20.000                                                                  
E 9                    407555.191        3241.135          31.000                                                                  
E12                    -82599.883       -1112.617          28.000                      -31049.168        -829.163          20.000  
E24                    -41489.582        -324.840          29.000                      -14916.840        -244.035          21.000  
E31                     69089.067        1224.294          25.000                       22960.340         913.904          20.000  
C 1                     11269.505         782.939          26.000                                                                                                                                  
C 6                    176325.757        2219.890          24.000                                                                                                                                  
C 7                     68777.213         770.368          22.000                                                                                                                                  
C10                     62351.434                          20.000                                                                                                                                  
C24                    -13418.571       -1936.534          22.000                                                                                                                                  
C26                    -67204.731        -551.850          28.000                                                                                       -5521.075        -416.393          20.000  
C29                    406842.167        3366.832          31.000                                                                                                                                  
C35                     99158.158         785.702          34.000                                                                                       34084.589         595.380          19.000  
> 2022  1 20  8 47  8.0000000  0 21                     
G 1                   -390846.440       -3085.244          18.000                                                                  
G 4                    470863.810        3571.384          40.000                      176327.275        2667.979          29.000  
G 7                   -293140.883       -2273.338          30.000                                                                  
G 8                    123040.646         848.763          25.000                       42967.233         634.664          19.000  
G21                   -242694.023       -2059.738          26.000                                                                  
G26                    219887.386        3109.587          18.000                                                                  
R 7                                                        25.000  
R 9                                                        21.000  
E 5                    140108.943        1824.408          17.000                                                                  
E 9                    424593.359        3241.132          30.000                                                                  
E11                    -60645.693       -2352.729          21.000                                                                  
E12                    -88439.871       -1110.555          26.000                      -34293.209        -827.626          20.000  
E24                    -43201.449        -325.268          24.000                      -15863.512        -240.572          22.000  
E31                     75518.775        1224.289          21.000                       26547.179         913.633          18.000  
C 1                     15346.247         788.535          25.000                                                                                                                                  
C 6                    187886.951        2221.654          28.000                                                                                                                                  
C 7                     72792.176         770.810          21.000                                                                                                                                  
C24                    -23502.598       -1936.999          20.000                                                                                                                                  
C26                    -70070.714        -551.367          29.000                                                                                       -7149.422        -412.368          20.000  
C29                    424364.455        3365.210          26.000                                                                                                                                  
C35                    103245.924         787.883          32.000                                                                                       36404.990         591.656          19.000  
> 2022  1 20  8 47  9.0000000  0 20                     
G 1                   -407058.915       -3087.170          18.000                                                                  
G 4                    489642.741        3573.210          38.000                      186801.421        2669.115          34.000  
G 7                   -305089.176       -2271.763          26.000                                                                  
G 8                    127495.271         848.468          30.000                       45448.089         634.209          20.000  
G26                    236223.729        3106.912          17.000                                                                  
R 7                                                        24.000  
R 9                                                        20.000  
E 5                    149711.477        1828.741          17.000                                                                  
E 9                    441626.365        3241.702          30.000                                                                  
E11                    -73008.881       -2353.282          25.000                                                                  
E12                    -94259.770       -1108.848          28.000                      -37546.916        -831.030          21.000  
E24                    -44914.427        -324.835          23.000                      -16822.717        -244.973          22.000  
E31                     81950.606        1224.149          24.000                       30137.534         918.874          20.000  
C 1                     19476.298         804.997          27.000                                                                                                                                  
C 6                    199464.008        2222.428          32.000                                                                                                                                  
C 7                     76802.449         770.211          21.000                                                                                                                                  
C24                    -33586.042       -1937.960          18.000                                                                                                                                  
C26                    -72961.668        -553.495          29.000                                                                                       -8786.180        -417.221          21.000  
C29                    441892.010        3369.666          29.000                                                                                                                                  
C35                    107349.942         786.943          32.000                                                                                       38725.437         590.804          19.000  
> 2022  1 20  8 47 10.0000000  0 21                     
G 1                   -423283.970       -3086.414          19.000                                                                  
G 4                    508428.561        3573.655          43.000                      197276.296        2667.916          29.000  
G 7                   -317036.385       -2275.069          29.000                                                                  
G 8                    131959.386         849.458          28.000                       47919.470         628.413          19.000  
G21                   -264325.302       -2057.642          26.000                                                                  
G26                    252553.466        3106.588          18.000                                                                  
R 7                                                        26.000  
R 9                                                        23.000  
E 5                    159328.654        1828.760          17.000                                                                  
E 9                    458664.149        3241.236          27.000                                                                  
E11                    -85359.387       -2350.516          20.000                                                                  
E12                   -100084.354       -1109.767          25.000                      -40789.784        -827.174          20.000  
E24                    -46621.162        -323.942          25.000                      -17772.739        -241.715          22.000  
E31                     88386.649        1226.762          25.000                       33710.811         908.735          19.000  
C 1                     23571.366         783.737          22.000                                                                                                                                  
C 6                    211030.126        2218.371          22.000                                                                                                                                  
C 7                     80803.240         768.135          24.000                                                                                                                                  
C 9                     37010.948        1777.147          18.000                                                                                                                                  
C26                    -75836.702        -551.431          29.000                                                                                      -10418.001        -416.018          19.000  
C29                    459436.178        3369.365          29.000                                                                                                                                  
C35                    111456.436         787.411          31.000                                                                                       41043.819         589.890          19.000  
> 2022  1 20  8 47 11.0000000  0 22                     
G 1                   -439494.871       -3087.868          18.000                                                                  
G 4                    527215.616        3573.229          40.000                      207752.210        2668.185          29.000  
G 7                   -328975.941       -2270.979          24.000                                                                  
G 8                    136403.681         844.104          22.000                       50399.473         634.873          21.000  
G21                   -275130.078       -2057.404          31.000                                                                  
G26                    268883.415        3107.440          19.000                                                                  
R 7                                                        26.000  
R 9                                                        23.000  
E 5                    168934.618        1824.875          23.000                                                                  
E 9                    475704.588        3243.269          23.000                       27063.691        2420.678          22.000  
E11                    -97711.555       -2352.752          23.000                                                                  
E12                   -105914.258       -1108.906          27.000                      -44026.110        -823.562          22.000  
E24                    -48332.907        -324.796          25.000                      -18735.419        -246.129          21.000  
E31                     94824.741        1223.684          26.000                       37291.468         914.538          23.000  
C 1                     27647.613         775.382          27.000                                                                                                                                  
C 6                    222601.465        2221.505          25.000                                                                                                                                  
C 7                     84807.406         770.496          21.000                                                                                                                                  
C 9                     46274.705        1778.345          19.000                                                                                                                                  
C24                    -11962.960       -1936.682          23.000                                                                                                                                  
C26                    -78723.763        -551.289          28.000                                                                                      -12041.311        -411.768          20.000  
C29                    476970.501        3372.174          27.000                                                                                                                                  
C35                    115548.061         785.305          28.000                                                                                       43360.626         589.896          19.000  
> 2022  1 20  8 47 12.0000000  0 22                     
G 1                   -455721.600       -3086.996          18.000                                                                  
G 4                    546005.740        3574.000          32.000                      218231.352        2669.286          26.000  
G 7                   -340911.440       -2272.073          19.000                                                                  
G 8                    140862.531         849.458          25.000                       52883.277         636.121          21.000  
G21                   -285924.331          -0.008          24.000                                                                  
G26                    285211.364        3106.621          18.000                                                                  
R 7                                                        28.000  
R 9                                                        20.000  
E 5                    178542.346        1826.503          22.000                                                                  
E 9                    492748.662        3242.222          30.000                       36558.501        2420.184          19.000  
E11                   -110058.837       -2351.791          24.000                                                                  
E12                   -111730.328       -1108.269          25.000                      -47253.043        -822.855          20.000  
E24                                                                                    -19695.738        -242.378          21.000  
E31                    101267.499        1226.926          28.000                       40879.070         916.285          24.000  
C 1                     31718.173         791.214          28.000                                                                                                                                  
C 6                    234168.414        2218.961          26.000                                                                                                                                  
C 7                     88821.290         770.217          20.000                                                                                                                                  
C 9                     55530.375        1775.758          20.000                                                                                                                                  
C24                    -22035.420                          22.000                                                                                                                                  
C26                    -81590.950        -550.641          25.000                                                                                      -13686.680        -419.450          20.000  
C29                    494501.775        3367.141          30.000                                                                                                                                  
C35                    119655.597         787.195          24.000                                                                                       45679.372         592.211          20.000  
> 2022  1 20  8 47 13.0000000  0 23                     
G 1                   -471954.422       -3091.843          19.000                                                                  
G 4                    564798.447        3574.874          36.000                      228713.409        2669.615          28.000  
G 7                   -352845.347       -2271.086          23.000                                                                  
G 8                    145319.716         848.723          28.000                       55362.794         634.855          21.000  
G21                   -296746.105       -2061.093          28.000                                                                  
G26                    301536.552        3108.573          17.000                                                                  
R 7                                                        23.000  
R 9                                                        21.000  
E 5                    188157.016        1830.502          19.000                                                                  
E 9                    509794.989        3243.372          24.000                       46059.896        2421.803          17.000  
E11                   -122403.630       -2351.655          29.000                                                                  
E12                   -117554.780       -1110.127          25.000                      -50480.783        -825.141          19.000  
E24                    -51746.488        -323.283          27.000                      -20642.402        -241.586          18.000  
E31                    107710.130        1226.254          30.000                       44471.947         915.675          22.000  
C 1                     35829.756         784.753          28.000                                                                                                                                  
C 3                     12586.459         736.628          27.000                                                                                                                                  
C 6                    245727.037        2219.840          21.000                                                                                                                                  
C 7                     92823.537         769.235          22.000                                                                                                                                  
C 9                     64782.501                          19.000                                                                                                                                  
C24                    -32106.734       -1934.767          19.000                                                                                                                                  
C26                    -84468.389        -550.924          28.000                                                                                      -15320.384        -415.916          19.000  
C29                    512036.524        3370.384          29.000                                                                                                                                  
C35                    123756.299         789.015          25.000                                                                                       48008.383         595.493          19.000  
> 2022  1 20  8 47 14.0000000  0 25                     
G 1                   -488203.628       -3091.842          15.000                                                                  
G 4                    583598.737        3576.986          34.000                      239196.284        2670.710          32.000  
G 7                   -364780.021       -2270.397          20.000                                                                  
G 8                    149788.546         850.124          24.000                       57853.812         636.173          24.000  
G21                   -307576.355       -2060.585          28.000                                                                  
G26                    317876.304        3109.389          16.000                                                                  
R 7                                                        24.000  
R 9                                                        18.000  
E 5                    197786.776        1831.906          18.000                                                                  
E 9                    526841.314        3242.715          27.000                       55561.098        2420.042          18.000  
E11                   -134746.432       -2349.604          20.000                                                                  
E12                   -123360.899       -1103.240          19.000                      -53717.711        -825.096          18.000  
E24                    -53454.226        -324.974          24.000                      -21595.202        -243.111          18.000  
E31                    114154.412        1226.556          28.000                       48060.576         916.587          22.000  
E33                     27074.839        1640.621          16.000                                                                  
C 1                     39949.256         786.795          27.000                                                                                                                                  
C 3                     16479.897         742.802          25.000                                                                                                                                  
C 6                    257295.648        2223.888          27.000                                                                                                                                  
C 7                     96835.454         771.883          26.000                                                                                                                                  
C 9                     74063.657        1783.629          18.000                                                                                                                                  
C10                      4081.094         721.522          23.000                                                                                                                                  
C24                    -42177.505       -1936.058          25.000                                                                                                                                  
C26                    -87341.564        -551.849          26.000                                                                                      -16953.205        -414.867          18.000  
C29                    529572.783        3372.760          28.000                                                                                                                                  
C35                    127870.324         791.289          32.000                                                                                       50333.291         592.660          17.000  
> 2022  1 20  8 47 15.0000000  0 24                     
G 1                   -504465.104       -3095.086          19.000                                                                  
G 4                    602405.193        3577.164          39.000                      249682.225        2671.171          26.000  
G 7                   -376706.116           0.011          19.000                                                                  
G 8                    154260.129         852.476          24.000                       60337.172         637.762          22.000  
G21                   -318378.272          -0.008          23.000                                                                  
G26                    334209.501        3107.407          16.000                                                                  
R 7                                                        20.000  
R 9                                                        25.000  
E 5                    207411.038        1829.116          15.000                                                                  
E 9                    543892.123        3244.073          23.000                       65062.343        2422.693          15.000  
E11                   -147107.415       -2352.612          20.000                                                                  
E12                   -129167.106       -1106.305          21.000                      -56953.875        -824.845          19.000  
E24                    -55161.448        -323.774          22.000                      -22553.013        -243.633          20.000  
E31                    120605.039        1228.486          28.000                       51652.368         914.433          23.000  
E33                     35691.570        1639.686          11.000                                                                  
C 1                     44045.212         795.776          26.000                                                                                                                                  
C 3                     20375.822         749.981          23.000                                                                                                                                  
C 6                    268871.133        2223.906          22.000                                                                                                                                  
C 7                    100852.660         771.493          22.000                                                                                                                                  
C 9                     83344.337        1781.657          19.000                                                                                                                                  
C24                    -52249.815       -1934.043          20.000                                                                                                                                  
C26                    -90215.946        -549.131          28.000                                                                                      -18582.589        -414.614          18.000  
C29                    547124.468        3374.823          27.000                                                                                                                                  
C35                    132009.406         797.041          24.000                                                                                       52676.160         597.259          20.000  
> 2022  1 20  8 47 16.0000000  0 23                     
G 1                   -520721.300       -3092.195          20.000                                                                  
G 4                    621207.483        3576.379          35.000                      260164.804        2671.621          25.000  
G 7                   -388621.902           0.011          17.000                                                                  
G 8                    158733.564         851.497          28.000                       62820.579         631.137          20.000  
G26                    350545.063        3109.083          17.000                                                                  
R 7                                                        17.000  
R 9                                                        24.000  
E 9                    560946.663        3245.204          29.000                       74573.334        2425.623          18.000  
E11                   -159465.074       -2351.412          18.000                                                                  
E12                   -134976.728       -1105.943          25.000                      -60193.843        -826.405          20.000  
E24                    -56873.404        -324.591          24.000                      -23504.924        -242.802          20.000  
E31                    127054.023        1226.852          30.000                       55246.394         918.089          22.000  
E33                     44309.954        1640.165          13.000                                                                  
C 1                     48151.871         782.372          27.000                                                                                                                                  
C 3                     24230.039         741.656          24.000                                                                                                                                  
C 6                    280448.903        2223.535          24.000                                                                                                                                  
C 7                    104869.716         771.627          22.000                                                                                                                                  
C 9                     92613.384        1777.705          17.000                                                                                                                                  
C10                     11596.067         723.050          19.000                                                                                                                                  
C24                    -62323.139                          25.000                                                                                                                                  
C26                    -93087.495        -551.946          30.000                                                                                      -20206.385        -413.062          21.000  
C29                    564672.001        3367.439          25.000                                                                                                                                  
C35                    136141.411         794.178          27.000                                                                                       55014.333         597.822          19.000  
> 2022  1 20  8 47 17.0000000  0 22                     
G 1                   -536968.388       -3092.644          24.000                                                                  
G 4                    640011.694        3577.501          39.000                      270652.233        2670.957          28.000  
G 7                   -400530.978           0.011          19.000                                                                  
G 8                    163209.055         853.628          26.000                       65307.114         639.218          20.000  
G26                    366879.673        3108.193          20.000                                                                  
R 7                                                        18.000  
R 9                                                        22.000  
E 9                    577999.867        3245.689          30.000                       84088.419        2424.024          18.000  
E11                   -171812.755       -2350.308          26.000                      -20772.369       -1754.615          14.000  
E12                   -140782.017       -1106.680          22.000                      -63423.875        -823.841          18.000  
E24                    -58572.506        -322.430          26.000                      -24454.218        -241.542          22.000  
E31                    133504.279        1226.732          22.000                       58842.384         917.903          21.000  
E33                     52930.891        1641.089          15.000                                                                  
C 1                     52240.657         770.746          25.000                                                                                                                                  
C 6                    292032.235           0.098          20.000                                                                                                                                  
C 7                    108884.546         772.443          24.000                                                                                                                                  
C 9                    101872.735        1776.436          19.000                                                                                                                                  
C10                     15359.823         721.057          18.000                                                                                                                                  
C24                    -72394.147       -1933.230          21.000                                                                                                                                  
C26                    -95956.000        -550.453          27.000                                                                                      -21833.384        -414.753          19.000  
C29                    582230.389        3372.312          29.000                                                                                                                                  
C35                    140259.838         788.584          30.000                                                                                       57361.327         594.823          20.000  
> 2022  1 20  8 47 18.0000000  0 23                     
G 1                   -553206.086       -3088.362          23.000                                                                  
G 4                    658821.880        3578.157          28.000                      281141.852        2672.461          28.000  
G 7                   -412449.012           0.011          20.000                                                                  
G 8                    167686.602         851.529          25.000                       67806.745         639.256          23.000  
G21                   -350790.030       -2055.858          26.000                                                                  
G26                    383214.742        3109.368          20.000                                                                  
R 7                                                        20.000  
R 9                                                        19.000  
E 5                    236253.358        1832.069          20.000                                                                  
E 9                    595054.997        3245.355          32.000                       93602.486        2425.989          18.000  
E11                   -184150.761       -2350.392          21.000                      -27663.347       -1755.564          12.000  
E12                   -146592.186       -1104.721          23.000                      -66657.747        -825.034          18.000  
E24                    -60272.192        -322.002          25.000                      -25419.805        -244.544          20.000  
E31                    139947.960        1227.629          25.000                       62448.121         920.815          22.000  
C 1                     56318.814         781.393          27.000                                                                                                                                  
C 6                    303621.996        2226.902          19.000                                                                                                                                  
C 7                    112903.059         770.894          20.000                                                                                                                                  
C 9                    111132.190        1780.986          18.000                                                                                                                                  
C10                     19115.496         722.629          20.000                                                                                                                                  
C24                    -82455.515       -1932.989          24.000                                                                                                                                  
C26                    -98822.272        -549.574          25.000                                                                                      -23458.834        -413.805          19.000  
C29                    599785.409        3372.025          28.000                                                                                                                                  
C35                    144392.356         794.373          29.000                                                                                       59699.633         597.352          20.000  
> 2022  1 20  8 47 19.0000000  0 21                     
G 1                   -569433.484       -3087.916          20.000                                                                  
G 4                    677631.888        3579.656          32.000                      291631.895        2672.951          24.000  
G 7                   -424356.585           0.011          18.000                                                                  
G 8                    172170.669         856.842          27.000                       70308.457         638.744          24.000  
G26                    399552.270        3109.011          23.000                                                                  
R 7                                                        17.000  
R 9                                                        19.000  
E 5                    245874.524        1830.308          24.000                                                                  
E 9                    612116.328        3246.664          23.000                      103124.410        2426.208          18.000  
E11                   -196498.742       -2350.769          23.000                      -34553.070       -1754.542          13.000  
E12                   -152391.994       -1103.450          24.000                      -69893.856        -826.635          20.000  
E24                    -61973.179        -320.408          21.000                      -26368.699        -241.041          22.000  
E31                    146407.098        1229.179          23.000                       66049.706         917.700          20.000  
C 1                     60453.130         783.641          27.000                                                                                                                                  
C 6                    315212.394           0.098          21.000                                                                                                                                  
C 7                    116919.381         773.037          24.000                                                                                                                                  
C 9                    120417.829        1784.219          17.000                                                                                                                                  
C10                     22873.568         723.566          20.000                                                                                                                                  
C26                   -101682.604        -548.163          27.000                                                                                      -25083.100        -414.843          19.000  
C29                    617336.528        3372.821          25.000                                                                                                                                  
C35                    148518.731         792.459          25.000                                                                                       62063.134         600.302          23.000  
> 2022  1 20  8 47 20.0000000  0 21                     
G 1                   -585663.295       -3088.858          18.000                                                                  
G 4                    696451.546        3581.784          32.000                      302122.306        2673.140          25.000  
G 7                   -436268.770           0.011          21.000                                                                  
G 8                    176665.344         855.837          23.000                       72806.798         637.303          21.000  
G21                    -10994.849       -2058.920          33.000                                                                  
G26                    415891.386        3108.923          23.000                                                                  
R 7                                                        18.000  
R 9                                                        17.000  
E 9                    629180.962        3246.690          18.000                      112644.576        2425.308          15.000  
E11                   -208841.107       -2350.032          25.000                                                                  
E12                   -158189.081       -1105.168          24.000                      -73136.714        -825.973          18.000  
E24                    -63674.892        -322.846          27.000                      -27320.313        -238.355          22.000  
E31                    152872.807        1229.396          24.000                       69650.396         919.827          22.000  
C 1                     64545.052         788.935          26.000                                                                                                                                  
C 6                    326806.661        2225.780          26.000                                                                                                                                  
C 7                    120946.519         773.860          22.000                                                                                                                                  
C 9                    129705.863                          18.000                                                                                                                                  
C10                     26645.668         724.643          20.000                                                                                                                                  
C26                   -104531.697        -547.643          27.000                                                                                      -26704.921        -411.749          19.000  
C29                    634907.182        3374.216          29.000                                                                                                                                  
C35                    152640.409         794.855          30.000                                                                                       64400.493         591.455          20.000  
> 2022  1 20  8 47 21.0000000  0 22                     
G 1                   -601894.646          -0.015          18.000                                                                  
G 4                    715262.019        3578.111          33.000                      312613.167        2674.950          26.000  
G 7                   -448188.296           0.011          19.000                                                                  
G 8                    181161.187         857.910          24.000                       75307.530         635.633          23.000  
G21                    -21810.121       -2060.776          28.000                                                                  
G26                    432234.480        3111.159          27.000                                                                  
R 7                                                        17.000  
R 9                                                        17.000  
E 9                    646242.362        3244.361          24.000                      122160.375        2423.973          16.000  
E11                   -221181.857       -2350.301          21.000                                                                  
E12                   -163982.205       -1104.431          25.000                      -76377.711        -822.929          21.000  
E24                    -65383.398        -320.511          25.000                      -28259.215        -242.385          23.000  
E31                                                                                     73260.414         921.375          20.000  
C 1                     68618.207         790.165          29.000                                                                                                                                  
C 6                    338384.629        2222.062          19.000                                                                                                                                  
C 7                    124980.070         776.658          24.000                                                                                                                                  
C 9                    138986.743                          17.000                                                                                                                                  
C10                     30409.824         722.289          24.000                                                                                                                                  
C24                    -22531.635       -1931.493          19.000                                                                                                                                  
C26                   -107382.760        -544.229          29.000                                                                                      -28325.065        -412.062          22.000  
C29                    652469.926        3377.139          33.000                                                                                                                                  
C35                    156778.364         792.000          29.000                                                                                       66743.226         599.683          22.000  
> 2022  1 20  8 47 22.0000000  0 22                     
G 1                   -618118.542          -0.015          19.000                                                                  
G 4                    734074.830        3583.563          29.000                      323107.387        2677.727          23.000  
G 7                   -460105.144           0.011          21.000                                                                  
G 8                    185665.530         859.475          29.000                       77806.141         639.600          22.000  
G21                    -32620.943       -2056.091          30.000                                                                  
G26                    448578.678        3110.607          20.000                                                                  
R 7                                                        17.000  
R 9                                                        16.000  
E 9                    663311.826        3246.644          24.000                      131675.229        2425.043          17.000  
E11                   -233527.225       -2348.366          26.000                      -55247.464       -1757.401          12.000  
E12                   -169784.566       -1101.939          25.000                      -79585.823        -820.286          20.000  
E24                    -67075.142        -321.813          29.000                      -29230.064        -240.645          24.000  
E31                    165798.072        1230.424          26.000                       76877.161         921.572          20.000  
E33                     35804.192        1647.785          18.000                                                                  
C 1                     72762.660         793.118          27.000                                                                                                                                  
C 6                    349949.157        2222.488          20.000                                                                                                                                  
C 7                    129019.146         773.633          27.000                                                                                                                                  
C10                     34167.683         722.144          22.000                                                                                                                                  
C24                    -32584.512       -1931.037          22.000                                                                                                                                  
C26                   -110227.998        -544.841          28.000                                                                                      -29943.351        -412.586          23.000  
C29                    670054.548        3375.328          30.000                                                                                       16167.592        2546.459          24.000  
C35                    160916.783         798.242          31.000                                                                                       69096.147         602.747          20.000  
> 2022  1 20  8 47 23.0000000  0 20                     
G 1                   -634332.909       -3084.680          19.000                                                                  
G 4                    752910.060        3584.878          24.000                                                                  
G 8                    190180.924         861.390          27.000                       80321.785         640.248          24.000  
G26                    464917.978        3109.713          17.000                                                                  
R 7                                                        15.000  
R 9                                                        16.000  
E 9                    680382.233        3248.596          24.000                      141193.106        2425.482          19.000  
E11                                                                                    -62138.137       -1754.259          13.000  
E12                   -175577.546       -1100.901          26.000                      -82802.854        -821.435          21.000  
E24                    -68771.040        -324.075          22.000                      -30184.510        -242.402          21.000  
E31                    172258.286        1229.924          27.000                       80501.211         923.768          18.000  
E33                     44465.037        1648.242          20.000                                                                  
C 1                     76863.669         803.949          28.000                                                                                                                                  
C 6                    361529.660        2224.371          23.000                                                                                                                                  
C 7                    133045.004         772.707          24.000                                                                                                                                  
C10                     37925.158         722.062          21.000                                                                                                                                  
C24                    -42633.190       -1928.641          18.000                                                                                                                                  
C26                   -113063.905        -543.637          29.000                                                                                      -31563.447        -410.842          24.000  
C29                    687622.146        3372.353          31.000                                                                                       26154.658        2545.549          21.000  
C35                    165088.228         796.841          30.000                                                                                       71445.840         598.210          20.000  
> 2022  1 20  8 47 24.0000000  0 21                     
G 1                   -650541.802          -0.015          19.000                                                                  
G 4                    771746.676        3583.207          21.000                                                                  
G 8                    194690.398         855.445          24.000                       82816.721         638.568          20.000  
G21                    -54270.843       -2059.060          28.000                                                                  
G26                    481256.585        3111.214          20.000                                                                  
R 7                                                        15.000  
R 9                                                        15.000  
E 9                    697459.679        3248.788          24.000                      150715.917        2426.007          17.000  
E11                   -258219.396       -2351.605          19.000                      -69016.569       -1752.798          17.000  
E12                   -181364.197       -1100.664          22.000                      -86009.208        -817.541          19.000  
E24                    -70469.012        -324.214          23.000                      -31126.074        -242.446          19.000  
E31                    178718.912        1232.023          25.000                       84114.791         917.818          21.000  
E33                     53132.725        1650.745          26.000                                                                  
C 1                     81015.278         782.849          26.000                                                                                                                                  
C 6                    373115.526        2226.607          19.000                                                                                                                                  
C 7                    137073.659         774.364          23.000                                                                                                                                  
C10                     41681.841         721.350          19.000                                                                                                                                  
C24                    -52688.798       -1933.812          18.000                                                                                                                                  
C26                   -115911.150        -544.714          27.000                                                                                      -33188.068        -415.422          18.000  
C29                    705170.854        3370.703          34.000                                                                                       36133.543        2544.570          20.000  
C35                    169233.886         794.921          29.000                                                                                       73801.422         602.124          20.000  
> 2022  1 20  8 47 25.0000000  0 21                     
G 1                   -666746.941       -3085.794          19.000                                                                  
G 4                    790573.338        3581.549          21.000                                                                  
G 8                    199195.469         856.750          27.000                       85335.694         642.717          20.000  
G21                    -65082.275       -2056.070          29.000                                                                  
G26                    497605.282        3110.967          17.000                                                                  
R 7                                                        14.000  
R 9                                                        15.000  
E 5                    303560.749        1829.683          20.000                                                                  
E 9                    714536.098        3249.654          20.000                      160226.681        2421.362          17.000  
E11                   -270561.094       -2348.375          18.000                      -75894.789       -1752.498          18.000  
E12                   -187149.187       -1102.427          22.000                      -89221.577        -820.377          20.000  
E24                    -72159.116        -323.169          25.000                      -32076.633        -241.537          18.000  
E31                    185186.987        1233.126          24.000                       87716.166         919.892          21.000  
E33                     61810.958        1652.396          23.000                                                                  
C 1                     85073.380         781.270          26.000                                                                                                                                  
C 6                    384703.367        2225.617          17.000                                                                                                                                  
C 7                    141108.286         774.863          20.000                                                                                                                                  
C24                    -62749.057       -1932.919          17.000                                                                                                                                  
C26                   -118746.741        -544.747          30.000                                                                                      -34812.200        -410.470          20.000  
C29                    722736.834        3373.170          33.000                                                                                       46100.511        2540.671          18.000  
C35                    173390.873         797.325          34.000                                                                                       76165.016         602.066          23.000  
> 2022  1 20  8 47 26.0000000  0 22                     
G 1                   -682962.514       -3087.794          17.000                                                                  
G 4                    809398.377        3582.347          21.000                                                                  
G 8                    203716.179         860.880          22.000                       87859.484         644.817          20.000  
G21                    -75894.169       -2061.420          30.000                                                                  
G26                    513957.127        3111.587          17.000                                                                  
R 7                                                        15.000  
R 9                                                        16.000  
E 5                    313159.691        1824.989          24.000                                                                  
E 9                    731613.181        3250.470          23.000                      169737.067        2425.890          18.000  
E11                   -282900.211       -2348.937          18.000                      -82769.015       -1750.363          15.000  
E12                   -192948.611       -1104.395          22.000                      -92444.044        -822.919          21.000  
E24                    -73854.728        -321.334          22.000                      -33020.593        -241.593          22.000  
E31                    191655.683        1231.205          26.000                       91321.822         918.325          24.000  
E33                     70498.781        1654.371          27.000                                                                  
C 1                     89136.634         785.383          27.000                                                                                                                                  
C 6                    396304.528        2227.871          25.000                                                                                                                                  
C 7                    145140.257         775.573          19.000                                                                                                                                  
C 9                     38599.076        1788.263          16.000                                                                                                                                  
C24                    -72812.787       -1932.344          16.000                                                                                                                                  
C26                   -121587.940        -544.251          29.000                                                                                      -36420.729        -410.535          19.000  
C29                    740311.631        3375.841          27.000                                                                                       56078.386        2542.790          19.000  
C35                    177547.006         798.015          29.000                                                                                       78525.918         604.444          24.000  
> 2022  1 20  8 47 27.0000000  0 22                     
G 1                   -699187.126       -3087.905          19.000                                                                  
G 4                    828218.190           0.002          21.000                                                                  
G 8                    208242.752         861.405          23.000                       90384.763         642.725          16.000  
G21                    -86681.629       -2049.509          29.000                                                                  
G26                    530305.744        3111.537          19.000                                                                  
R 7                                                        14.000  
R 9                                                        12.000  
E 5                    322752.942        1829.294          19.000                                                                  
E 9                    748687.169        3248.400          20.000                      179253.747        2425.161          17.000  
E11                   -295238.811       -2346.158          22.000                      -89639.740       -1749.929          14.000  
E12                   -198746.303       -1100.289          23.000                      -95684.669        -823.343          19.000  
E24                    -75546.830        -324.623          25.000                      -33966.610        -240.087          19.000  
E31                    198130.851        1230.994          23.000                       94911.749         916.673          17.000  
E33                     79183.497        1654.306          22.000                                                                  
C 1                     93186.710         769.793          27.000                                                                                                                                  
C 6                    407910.576        2228.751          23.000                                                                                                                                  
C 7                    149180.411         774.781          20.000                                                                                                                                  
C 9                     47899.678        1784.736          15.000                                                                                                                                  
C24                    -82876.936       -1932.292          17.000                                                                                                                                  
C26                   -124429.474        -545.757          25.000                                                                                      -38029.400        -410.613          19.000  
C29                    757899.385        3378.584          27.000                                                                                       66054.057        2543.316          17.000  
C35                    181711.593         802.113          30.000                                                                                                                                  
> 2022  1 20  8 47 28.0000000  0 22                     
G 1                   -715403.173       -3085.446          17.000                                                                  
G 4                    847042.607           0.002          19.000                                                                  
G 8                    212757.002         859.010          26.000                       92905.482         641.688          20.000  
G21                    -97491.970       -2058.722          33.000                                                                  
G26                    546659.108        3111.514          17.000                                                                  
R 7                                                        15.000  
R 9                                                        13.000  
E 5                    332364.796        1827.685          19.000                                                                  
E 9                    765764.194        3250.323          20.000                      188774.068        2427.931          19.000  
E11                   -307578.974       -2350.048          17.000                      -96508.447       -1749.999          16.000  
E12                   -204513.287       -1095.529          22.000                      -98910.688        -819.472          20.000  
E24                    -77244.123        -322.005          24.000                      -34912.038        -240.484          20.000  
E31                    204601.874        1230.612          27.000                       98514.035         919.244          23.000  
E33                     87866.203        1652.266          26.000                                                                  
C 1                     97254.306         784.749          27.000                                                                                                                                  
C 6                    419514.537        2229.543          20.000                                                                                                                                  
C 7                    153213.167         772.869          23.000                                                                                                                                  
C 9                     57191.698        1784.504          16.000                                                                                                                                  
C24                    -92936.770       -1932.778          18.000                                                                                                                                  
C26                   -127258.936        -542.280          25.000                                                                                      -39642.586        -408.555          20.000  
C29                    775487.100        3375.646          30.000                                                                                       76031.106        2541.107          19.000  
C35                    185885.024         802.275          28.000                                                                                       83292.604         606.798          19.000  
> 2022  1 20  8 47 29.0000000  0 24                     
G 1                   -731624.733       -3086.895          17.000                                                                  
G 4                    865874.197        3583.249          19.000                                                                  
G 8                    217267.454         859.454          28.000                       95426.347         637.008          20.000  
G16                     48031.366        2547.358          23.000                                                                  
G21                   -108291.989       -2055.645          28.000                                                                  
G26                    563012.329        3113.269          20.000                                                                  
R 7                                                        13.000  
R 9                                                        14.000  
E 5                    341971.124        1828.403          17.000                                                                  
E 9                    782839.138        3247.498          20.000                      198299.025        2427.736          17.000  
E11                   -319925.533       -2347.044          20.000                     -103377.037       -1749.159          16.000  
E12                   -210273.364       -1098.430          20.000                     -102119.241        -818.883          17.000  
E24                    -78929.531        -322.634          27.000                      -35857.443        -242.088          21.000  
E31                    211068.263        1229.801          26.000                      102104.127         913.294          21.000  
E33                     96554.272        1653.903          25.000                                                                  
C 1                    101306.331         785.925          25.000                                                                                                                                  
C 6                    431123.805        2228.894          20.000                                                                                                                                  
C 7                    157241.843         773.700          22.000                                                                                                                                  
C 9                     66484.208                          15.000                                                                                                                                  
C10                     17197.679         722.790          20.000                                                                                                                                  
C24                   -103007.179       -1933.032          16.000                                                                                                                                  
C26                   -130102.401        -547.484          28.000                                                                                      -41253.843        -410.069          20.000  
C29                    793060.831        3376.287          25.000                                                                                       86008.091        2544.691          18.000  
C35                    190065.119         804.871          28.000                                                                                       85679.601         608.514          19.000  
> 2022  1 20  8 47 30.0000000  0 24                     
G 1                   -747844.415          -0.015          15.000                                                                  
G 4                    884705.662        3583.895          19.000                                                                  
G 8                    221788.110         859.029          29.000                       97920.377         638.668          22.000  
G16                     61417.353        2548.134          20.000                                                                  
G21                   -119097.063       -2056.011          26.000                                                                  
G26                    579367.915        3112.674          17.000                                                                  
R 7                                                        15.000  
R 9                                                        14.000  
E 5                    351580.157        1828.664          15.000                                                                  
E 9                    799915.455        3252.503          20.000                      207821.811        2428.428          15.000  
E11                   -332256.332       -2341.973          21.000                     -110238.950       -1746.744          14.000  
E12                   -216049.934       -1097.544          18.000                     -105333.652        -816.872          17.000  
E24                    -80615.480        -324.502          27.000                      -36799.964        -240.930          20.000  
E31                    217537.230        1229.317          27.000                      105717.777         920.324          22.000  
E33                    105244.861        1655.261          29.000                        3538.932        1231.395          19.000  
C 1                    105405.140         774.069          25.000                                                                                                                                  
C 6                    442734.989        2232.159          22.000                                                                                                                                  
C 7                    161266.628         770.939          24.000                                                                                                                                  
C 9                     75769.856                          15.000                                                                                                                                  
C10                     20971.492                          21.000                                                                                                                                  
C24                   -113076.066       -1933.474          17.000                                                                                                                                  
C26                   -132939.753        -543.624          29.000                                                                                      -42856.842        -405.875          20.000  
C29                    810648.037        3376.733          22.000                                                                                       95989.961        2544.440          15.000  
C35                    194249.194         809.198          28.000                                                                                       88060.293         605.740          18.000  
> 2022  1 20  8 47 31.0000000  0 24                     
G 1                   -764061.815          -0.015          16.000                                                                  
G 4                    903546.575        3584.697          20.000                                                                  
G 8                    226316.518         866.776          29.000                      100434.440         640.228          20.000  
G16                     74795.561        2546.096          18.000                                                                  
G21                   -129895.238       -2055.702          24.000                                                                  
G26                    595724.315        3111.711          19.000                                                                  
R 7                                                        15.000  
R 9                                                        13.000  
E 5                    361200.930        1830.600          14.000                                                                  
E 9                    817007.674        3251.378          19.000                      217348.980        2428.673          16.000  
E11                   -344579.328       -2341.663          24.000                     -117096.059       -1747.178          13.000  
E12                   -221823.842       -1097.911          19.000                     -108551.100        -819.121          17.000  
E24                    -82304.517        -320.517          29.000                      -37752.983        -248.057          21.000  
E31                    224013.497        1232.317          27.000                      109325.206         920.758          20.000  
E33                    113947.856        1654.300          30.000                        8375.672        1230.327          20.000  
C 1                    109489.261         783.881          22.000                                                                                                                                  
C 6                    454363.707        2232.035          18.000                                                                                                                                  
C 7                    165297.559         776.413          25.000                                                                                                                                  
C 9                     85053.969        1782.700          16.000                                                                                                                                  
C10                     24755.728                          22.000                                                                                                                                  
C24                   -123137.145       -1930.368          19.000                                                                                                                                  
C26                   -135771.867        -544.189          29.000                                                                                      -44468.369        -408.517          22.000  
C29                    828234.147        3377.256          20.000                                                                                      105976.145        2545.445          12.000  
C35                    198439.176         805.629          27.000                                                                                       90434.729         605.534          19.000  
> 2022  1 20  8 47 32.0000000  0 23                     
G 1                   -780283.993          -0.015          16.000                                                                  
G 4                    922388.821        3589.875          26.000                                                                  
G 8                    230860.361         863.897          29.000                      102957.851         646.622          21.000  
G16                     88176.487        2545.564          17.000                                                                  
G21                   -140694.479       -2053.735          23.000                                                                  
G26                    612072.556        3111.280          18.000                                                                  
R 7                                                        13.000  
R 9                                                        16.000  
E 5                    370830.983        1831.957          16.000                                                                  
E 9                    834097.320        3252.913          19.000                      226874.957        2427.370          16.000  
E11                   -356901.464       -2341.660          21.000                     -123956.453       -1747.519          14.000  
E12                   -227601.110       -1099.399          18.000                     -111771.991        -820.062          18.000  
E24                    -83988.194        -321.572          33.000                      -38693.282        -239.781          23.000  
E31                    230495.311        1231.007          23.000                      112931.081         917.012          20.000  
E33                    122651.234        1655.604          25.000                       13217.391        1239.034          20.000  
C 1                    113547.674         782.364          24.000                                                                                                                                  
C 6                    465989.783        2232.093          18.000                                                                                                                                  
C 7                    169334.144         775.408          24.000                                                                                                                                  
C 9                     94341.865        1784.062          15.000                                                                                                                                  
C24                   -133199.558       -1933.233          17.000                                                                                                                                  
C26                   -138599.511        -543.942          28.000                                                                                      -46065.958        -405.884          21.000  
C29                    845822.790        3379.213          18.000                                                                                      115959.768        2542.885          14.000  
C35                    202635.771         810.391          26.000                                                                                       92809.997         606.816          19.000  
> 2022  1 20  8 47 33.0000000  0 25                     
G 1                   -796503.281          -0.015          17.000                                                                  
G 4                    941245.378        3586.539          22.000                                                                  
G 7                    -24076.419       -2270.801          19.000                                                                  
G 8                    235393.556         863.692          26.000                      105497.091         647.778          21.000  
G16                    101556.841        2546.521          18.000                                                                  
G21                   -151485.501          -0.008          19.000                                                                  
G26                    628421.340        3110.981          20.000                                                                  
R 7                                                        16.000  
R 9                                                        14.000  
E 9                    851179.446        3250.398          18.000                      236402.885        2430.898          13.000  
E11                   -369223.714       -2344.714          18.000                     -130815.870       -1748.224          13.000  
E12                   -233373.716       -1095.737          19.000                     -114991.034        -819.853          18.000  
E24                    -85671.455        -321.515          35.000                      -39636.820        -240.173          22.000  
E31                    236970.856        1229.833          20.000                      116540.162         919.000          20.000  
E33                    131361.497        1660.248          25.000                       18081.195        1240.320          18.000  
C 1                    117632.347         766.732          24.000                                                                                                                                  
C 3                     14062.739         752.718          24.000                                                                                                                                  
C 6                    477603.697        2230.401          23.000                                                                                                                                  
C 7                    173378.189         777.225          25.000                                                                                                                                  
C 9                    103635.617        1785.151          16.000                                                                                                                                  
C10                     32311.571         725.121          21.000                                                                                                                                  
C24                   -143262.184       -1931.044          19.000                                                                                                                                  
C26                   -141424.154        -541.084          26.000                                                                                      -47677.176        -413.580          21.000  
C29                    863419.565        3379.113          19.000                                                                                      125931.837        2540.772          14.000  
C35                    206832.795         803.880          26.000                                                                                       95188.572         605.612          18.000  
> 2022  1 20  8 47 34.0000000  0 25                     
G 1                   -812719.760          -0.015          17.000                                                                  
G 4                    960091.784        3587.942          24.000                                                                  
G 7                    -36003.948       -2271.464          19.000                                                                  
G 8                    239925.636         862.254          28.000                      108037.156         649.042          21.000  
G16                    114945.231        2548.789          20.000                                                                  
G21                   -162273.812          -0.008          20.000                                                                  
G26                    644774.373        3111.656          17.000                                                                  
R 7                                                        14.000  
R 9                                                        12.000  
E 9                    868259.272        3248.310          17.000                      245930.932        2429.305          11.000  
E11                   -381541.176       -2344.442          20.000                     -137682.454       -1749.652          12.000  
E12                   -239132.010       -1095.038          19.000                     -118205.408        -816.633          17.000  
E24                    -87352.950        -322.353          32.000                      -40587.163        -247.685          19.000  
E31                    243440.870        1231.462          27.000                      120144.028         921.011          20.000  
E33                    140081.239        1660.592          25.000                       22940.888        1239.121          17.000  
C 1                    121641.313         786.866          25.000                                                                                                                                  
C 3                     17937.881         742.197          24.000                                                                                                                                  
C 6                    489218.866        2231.556          22.000                                                                                                                                  
C 7                    177421.602         774.825          25.000                                                                                                                                  
C 9                    112935.970        1785.408          17.000                                                                                                                                  
C10                     36088.138         725.916          24.000                                                                                                                                  
C24                   -153310.282       -1930.064          19.000                                                                                                                                  
C26                   -144251.718        -542.754          28.000                                                                                                                                  
C29                    881018.306        3379.677          18.000                                                                                                                                  
C35                    211034.956         809.888          27.000                                                                                       97570.750         609.409          18.000  
> 2022  1 20  8 47 35.0000000  0 25                     
G 1                   -828939.454          -0.015          17.000                                                                  
G 4                    978935.410        3583.510          25.000                                                                  
G 7                    -47923.280           0.011          21.000                                                                  
G 8                    244460.262         864.329          29.000                      110571.510         645.742          22.000  
G16                    128333.115        2548.528          20.000                                                                  
G21                   -173055.163       -2051.495          20.000                                                                  
G26                    661117.091           0.008          17.000                                                                  
R 7                                                        14.000  
R 9                                                        14.000  
E 9                    885346.000        3253.240          18.000                      255459.213        2426.012          14.000  
E11                   -393874.893       -2349.110          17.000                     -144547.236       -1749.154          10.000  
E12                   -244879.250       -1091.591          23.000                     -121412.195        -817.758          18.000  
E24                    -89034.691        -320.347          30.000                      -41549.701        -245.455          19.000  
E31                    249924.171        1234.734          27.000                      123752.901         927.334          20.000  
E33                    148792.744        1658.425          28.000                       27807.251        1244.829          20.000  
C 1                    125655.937         780.818          27.000                                                                                                                                  
C 3                     21832.893         762.841          25.000                                                                                                                                  
C 6                    500842.335        2232.252          19.000                                                                                                                                  
C 7                    181457.692         776.534          27.000                                                                                                                                  
C 9                    122242.027        1788.367          17.000                                                                                                                                  
C10                     39871.322         725.720          22.000                                                                                                                                  
C24                   -163363.810       -1930.302          21.000                                                                                                                                  
C26                   -147069.058        -542.501          28.000                                                                                      -50891.664        -409.423          18.000  
C29                    898621.674        3380.269          18.000                                                                                                                                  
C35                    215246.652         807.359          27.000                                                                                       99953.591         606.466          20.000  
> 2022  1 20  8 47 36.0000000  0 25                     
G 1                   -845165.576          -0.015          17.000                                                                  
G 7                    -59839.403       -2268.746          20.000                                                                  
G 8                    249018.414         866.349          30.000                      113092.658         641.681          22.000  
G16                    141719.373        2547.300          21.000                                                                  
G21                   -183840.524          -0.008          19.000                                                                  
G26                    677459.440        3110.513          16.000                                                                  
R 7                                                        14.000  
R 9                                                        14.000  
E 5                      5057.860        1836.180          24.000                                                                  
E 9                    902440.705        3251.942          18.000                      264972.594        2423.582          13.000  
E11                   -406215.447       -2346.832          26.000                     -151416.746       -1751.368          11.000  
E12                   -250619.052       -1092.417          20.000                     -124625.715        -817.001          19.000  
E24                    -90709.330        -318.909          28.000                      -42508.294        -243.718          19.000  
E31                    256402.874        1233.968          23.000                      127372.243         925.365          20.000  
E33                    157504.622        1655.543          24.000                       32666.348        1236.913          20.000  
C 1                    129698.714         762.402          26.000                                                                                                                                  
C 3                     25725.476         742.461          27.000                                                                                                                                  
C 6                    512457.964        2230.720          17.000                                                                                                                                  
C 7                    185492.959         774.181          27.000                                                                                                                                  
C 9                    131549.426        1787.453          18.000                                                                                                                                  
C10                     43645.402         724.233          22.000                                                                                                                                  
C24                   -173414.119       -1929.996          18.000                                                                                                                                  
C26                   -149889.231        -543.961          29.000                                                                                      -52501.941        -411.574          20.000  
C29                    916227.397        3381.471          17.000                                                                                                                                  
C35                    219439.498         804.736          28.000                                                                                      102345.744         612.771          20.000  
> 2022  1 20  8 47 37.0000000  0 27                     
G 1                   -861396.123          -0.015          17.000                                                                  
G 4                   1016603.019        3585.266          23.000                                                                  
G 7                    -71755.326       -2266.062          19.000                                                                  
G 8                    253573.379         867.060          30.000                      115627.998         643.521          22.000  
G16                    155109.346        2550.252          20.000                                                                  
G21                   -194621.107          -0.008          20.000                                                                  
G26                    693813.025        3111.992          16.000                                                                  
R 7                                                        14.000  
R 9                                                        13.000  
E 1                     83061.979        2453.961           8.000                                                                  
E 5                     14712.650        1837.982          19.000                                                                  
E 9                                                                                    274482.186        2422.212          13.000  
E11                   -418536.581       -2340.920          20.000                     -158284.851       -1749.447          11.000  
E12                   -256367.754       -1095.136          21.000                     -127842.991        -818.699          18.000  
E24                    -92379.098        -318.835          27.000                      -43460.946        -243.535          20.000  
E31                    262887.620        1234.130          25.000                      130994.490         923.869          20.000  
E33                    166217.028        1660.676          26.000                       37511.663        1234.455          18.000  
C 1                    133714.373         769.625          25.000                                                                                                                                  
C 3                     29579.159         762.628          26.000                                                                                                                                  
C 6                    524076.107           0.098          17.000                                                                                                                                  
C 7                    189531.690         775.373          25.000                                                                                                                                  
C 9                    140860.353        1788.341          17.000                                                                                                                                  
C10                     47426.352         726.735          20.000                                                                                                                                  
C24                   -183462.897                          20.000                                                                                                                                  
C26                   -152703.711        -537.988          29.000                                                                                      -54093.659        -404.277          19.000  
C29                    933842.302        3383.486          17.000                                                                                                                                  
C35                    223644.271         806.068          27.000                                                                                      104742.366         606.905          20.000  
> 2022  1 20  8 47 38.0000000  0 24                     
G 4                   1035443.145        3586.103          25.000                                                                  
G 7                    -83676.809       -2269.641          20.000                                                                  
G 8                    258143.022         870.031          28.000                      118155.434         646.732          23.000  
G16                    168510.846        2551.408          20.000                                                                  
G26                    710174.728        3113.947          17.000                                                                  
R 7                                                        16.000  
R 9                                                        12.000  
E 1                     95958.013        2454.399           9.000                                                                  
E 5                     24362.087        1834.771          17.000                                                                  
E11                   -430853.729       -2346.905          24.000                     -165145.630       -1749.318          14.000  
E12                   -262125.233       -1095.846          19.000                     -131049.968        -815.391          19.000  
E24                    -94054.160        -319.100          25.000                      -44391.514        -233.811          19.000  
E31                    269375.466        1234.076          25.000                      134617.939         924.553          19.000  
E33                    174943.647        1661.745          26.000                       42359.855        1236.968          17.000  
C 1                    137738.622         766.139          29.000                                                                                                                                  
C 3                     33509.869         750.391          23.000                                                                                                                                  
C 6                    535699.840        2233.863          19.000                                                                                                                                  
C 7                    193574.693         776.633          22.000                                                                                                                                  
C 9                    150172.104        1789.865          17.000                                                                                                                                  
C10                     51203.407         724.910          20.000                                                                                                                                  
C24                   -193517.685                          17.000                                                                                                                                  
C26                   -155504.119        -541.608          28.000                                                                                      -55680.263        -405.961          20.000  
C29                    951461.716        3383.256          17.000                                                                                                                                  
C35                    227861.806         810.940          28.000                                                                                      107132.292         609.299          19.000  
> 2022  1 20  8 47 39.0000000  0 26                     
G 4                   1054286.939        3587.104          27.000                                                                  
G 7                    -95596.755       -2266.718          19.000                                                                  
G 8                    262705.055         867.585          27.000                      120706.470         649.958          22.000  
G 9                      7246.409        2242.043          19.000                                                                  
G16                    181919.679        2551.262          22.000                                                                  
G26                    726539.096        3113.517          17.000                                                                  
R 7                                                        16.000  
R 9                                                        11.000  
E 1                    108856.390        2454.451           9.000                                                                  
E 5                     33998.402        1835.878          18.000                                                                  
E 9                    953698.113        3250.617          19.000                                                                  
E11                   -443174.454       -2345.890          28.000                     -172007.343       -1749.797          15.000  
E12                   -267868.463       -1091.541          18.000                     -134244.986        -817.020          20.000  
E24                    -95734.701        -318.472          23.000                      -45313.018        -236.420          19.000  
E31                    275862.028        1236.158          25.000                      138238.165         916.676          22.000  
E33                    183678.368        1661.478          25.000                       47224.042        1236.878          20.000  
C 1                    141794.209         778.629          29.000                                                                                                                                  
C 3                     37407.359         759.791          23.000                                                                                                                                  
C 6                    547336.832        2234.771          19.000                                                                                                                                  
C 7                    197622.919         778.348          24.000                                                                                                                                  
C 9                    159493.196        1791.197          16.000                                                                                                                                  
C10                     54979.700         726.302          17.000                                                                                                                                  
C24                   -203576.847                          20.000                                                                                                                                  
C26                   -158330.927        -542.040          27.000                                                                                      -57270.249        -404.495          22.000  
C29                    969083.378        3383.888          17.000                                                                                                                                  
C35                    232075.159         807.205          27.000                                                                                      109523.032         610.216          22.000  
> 2022  1 20  8 47 40.0000000  0 22                     
G 4                   1073136.938           0.002          20.000                                                                  
G 7                   -107517.093           0.011          21.000                                                                  
G 8                    267266.580         867.052          29.000                      123251.803         651.356          23.000  
G26                    742906.296        3116.418          17.000                                                                  
R 7                                                        17.000  
R 9                                                        14.000  
E 1                    121754.754        2454.318           9.000                                                                  
E 5                      6071.182        1838.309          22.000                                                                  
E 9                    970781.274        3250.637          17.000                                                                  
E11                   -455490.763       -2345.680          23.000                     -178871.697       -1751.148          17.000  
E12                   -273614.492       -1096.500          27.000                     -137440.940        -814.947          21.000  
E24                    -97415.339        -322.091          22.000                      -46265.551        -242.002          20.000  
E31                    282346.852        1233.546          27.000                      141849.661         921.018          23.000  
E33                    192405.385        1661.003          29.000                       52093.416        1236.997          24.000  
C 1                    145850.779         779.060          29.000                                                                                                                                  
C 6                    558967.539        2234.645          17.000                                                                                                                                  
C 7                    201666.033         776.384          24.000                                                                                                                                  
C 9                    168815.365        1789.401          16.000                                                                                                                                  
C10                     58747.352         721.454          18.000                                                                                                                                  
C26                   -161158.701        -542.521          26.000                                                                                      -58873.681        -410.551          20.000  
C29                    986702.771        3383.739          15.000                                                                                                                                  
C35                    236288.128         809.384          30.000                                                                                      111900.887         603.444          21.000  
> 2022  1 20  8 47 41.0000000  0 22                     
G 4                   1091981.177        3586.035          20.000                                                                  
G 7                   -119438.706       -2265.091          19.000                                                                  
G 8                    271832.226         870.353          24.000                      125794.401         646.513          18.000  
G16                     18109.570        2552.351          26.000                                                                  
G21                   -237642.086       -2043.193          24.000                                                                  
G26                    759292.336        3118.915          17.000                                                                  
R 7                                                        15.000  
R 9                                                        14.000  
E 1                    134654.442        2455.006           7.000                                                                  
E 9                    987863.939        3246.548          21.000                                                                  
E11                   -467818.263       -2347.479          24.000                     -185738.834       -1751.485          18.000  
E12                   -279355.575       -1094.822          24.000                     -140658.042        -821.641          18.000  
E24                    -99098.555        -317.048          28.000                      -47205.018        -235.098          23.000  
E31                    288835.968        1235.567          23.000                      145461.172         920.870          19.000  
E33                    201137.810        1661.759          31.000                       56973.383        1242.391          21.000  
C 1                    149926.239         779.824          27.000                                                                                                                                  
C 6                    570601.514        2232.324          20.000                                                                                                                                  
C 7                    205697.088         774.800          23.000                                                                                                                                  
C10                     62519.594         726.808          20.000                                                                                                                                  
C26                   -163982.138        -538.914          30.000                                                                                      -60478.210        -406.056          20.000  
C29                   1004322.344        3384.537          15.000                                                                                                                                  
C35                    240520.165         812.165          34.000                                                                                      114290.794         606.867          19.000  
> 2022  1 20  8 47 42.0000000  0 23                     
G 4                   1110821.442        3586.483          23.000                                                                  
G 7                   -131348.796       -2266.113          26.000                                                                  
G 8                    276399.436         869.446          26.000                      128335.600         647.466          18.000  
G16                     31518.842          -0.009          20.000                                                                  
G21                   -248370.899       -2042.372          25.000                                                                  
G26                    775684.756        3117.984          19.000                                                                  
R 7                                                        14.000  
R 9                                                        14.000  
E 1                    147555.608        2455.080           7.000                                                                  
E 5                     25413.774        1839.888          22.000                                                                  
E 9                   1004943.356        3250.626          18.000                                                                  
E11                   -480129.126       -2345.158          25.000                     -192609.675       -1752.419          17.000  
E12                   -285078.701       -1090.147          28.000                     -143863.052        -817.598          19.000  
E24                   -100766.640        -316.097          29.000                      -48150.813        -238.335          23.000  
E31                    295328.268        1236.911          25.000                      149081.795         921.191          22.000  
E33                    209871.687        1662.159          25.000                       61848.774        1241.876          17.000  
C 1                    153958.756         752.996          26.000                                                                                                                                  
C 6                    582227.914           0.098          20.000                                                                                                                                  
C 7                    209726.022         775.271          20.000                                                                                                                                  
C10                     66307.323         728.424          19.000                                                                                                                                  
C26                   -166786.578        -537.976          29.000                                                                                      -62071.333        -406.729          21.000  
C29                   1021944.826        3383.692          17.000                                                                                                                                  
C35                    244755.407         811.976          30.000                                                                                      116678.418         610.665          18.000  
> 2022  1 20  8 47 43.0000000  0 23                     
G 4                   1129681.347        3590.137          22.000                                                                  
G 7                   -143251.786       -2264.738          23.000                                                                  
G 8                    280969.590         872.097          26.000                      130878.231         649.287          17.000  
G 9                     14314.775        2241.190          24.000                                                                  
G16                     44925.439        2551.911          22.000                                                                  
G21                   -259093.011       -2041.743          25.000                                                                  
G26                    792073.905        3118.159          17.000                                                                  
R 7                                                        14.000  
E 1                    160456.833        2455.151           7.000                                                                  
E 5                     35088.771        1840.578          22.000                                                                  
E 9                   1022043.317        3253.532          17.000                                                                  
E11                   -492432.939       -2344.204          27.000                     -199477.693       -1750.798          16.000  
E12                   -290803.195       -1090.740          27.000                     -147062.526        -816.630          20.000  
E24                   -102433.215        -315.634          30.000                      -49086.662        -238.935          24.000  
E31                    301822.342        1236.369          28.000                      152687.619         919.847          23.000  
E33                    218611.831        1664.011          34.000                       66724.747        1241.819          21.000  
C 1                    157886.541         774.654          27.000                                                                                                                                  
C 6                    593859.674        2232.317          17.000                                                                                                                                  
C 7                    213763.326         776.028          24.000                                                                                                                                  
C10                     70099.163         727.196          18.000                                                                                                                                  
C26                   -169587.508        -536.791          30.000                                                                                      -63658.258        -406.175          23.000  
C29                   1039561.046        3382.462          14.000                                                                                                                                  
C35                    248999.082         812.030          27.000                                                                                      119068.209         607.634          18.000  
> 2022  1 20  8 47 44.0000000  0 24                     
G 4                   1148545.948           0.002          19.000                                                                  
G 7                   -155156.490       -2264.467          19.000                                                                  
G 8                    285553.135         869.808          25.000                      133435.797         652.752          20.000  
G 9                     26101.658        2242.724          27.000                                                                  
G16                     58336.527        2551.655          25.000                                                                  
G21                   -269821.557          -0.008          24.000                                                                  
G26                    808454.591        3115.445          19.000                                                                  
R 7                                                        16.000  
E 1                    173361.315        2456.002           8.000                                                                  
E 5                     44769.178        1841.884          25.000                                                                  
E 9                   1039132.184        3250.759          17.000                                                                  
E11                   -504740.190       -2343.607          29.000                     -206340.980       -1748.870          16.000  
E12                   -296534.506       -1090.184          29.000                     -150255.205        -815.366          18.000  
E24                   -104087.948        -315.169          27.000                      -50022.758        -237.926          25.000  
E31                    308316.476        1235.931          29.000                      156315.891         921.415          22.000  
E33                    227362.069        1664.272          31.000                       71591.972        1243.673          22.000  
C 1                    161928.410         778.488          31.000                                                                                                                                  
C 6                    605480.550        2232.243          17.000                                                                                                                                  
C 7                    217808.900         779.209          24.000                                                                                                                                  
C10                     73883.384         726.478          22.000                                                                                                                                  
C24                   -253940.876       -1934.707          16.000                                                                                                                                  
C26                   -172376.642        -537.668          29.000                                                                                      -65257.030        -406.102          23.000  
C29                   1057184.553        3383.052          18.000                                                                                                                                  
C35                    253234.414         814.717          27.000                                                                                      121460.767         611.214          18.000  
> 2022  1 20  8 47 45.0000000  0 25                     
G 4                   1167400.714           0.002          20.000                                                                  
G 7                   -167063.871       -2265.728          24.000                                                                  
G 8                    290131.189         872.061          30.000                      136006.107         651.687          21.000  
G 9                     37883.177        2243.142          23.000                                                                  
G16                     71752.328        2555.021          29.000                                                                  
G21                   -280556.236          -0.008          23.000                                                                  
G26                    824835.007        3118.916          22.000                                                                  
R 7                                                        15.000  
R 9                                                        13.000  
E 1                    186268.349        2456.209           7.000                                                                  
E 5                     54456.941        1842.687          24.000                        6245.794        1376.160          20.000  
E 9                   1056223.493        3254.622          15.000                                                                  
E11                   -517046.631       -2343.103          21.000                     -213198.200       -1747.989          15.000  
E12                   -302263.887       -1091.812          21.000                     -153448.222        -813.448          17.000  
E24                   -105740.547        -316.490          27.000                      -50958.789        -241.141          22.000  
E31                    314813.404        1237.126          28.000                      159947.236         921.741          21.000  
E33                    236113.756        1666.116          27.000                       76473.995        1243.198          21.000  
C 1                    166000.779         785.346          28.000                                                                                                                                  
C 6                    617109.386        2232.277          17.000                                                                                                                                  
C 7                    221858.994         777.086          26.000                                                                                                                                  
C10                     77671.087         728.971          22.000                                                                                                                                  
C24                   -264022.744       -1936.217          19.000                                                                                                                                  
C26                   -175176.492        -535.486          30.000                                                                                      -66845.324        -404.196          23.000  
C29                   1074801.457        3383.037          17.000                                                                                                                                  
C35                    257472.999         811.889          31.000                                                                                      123864.123         613.123          18.000  
> 2022  1 20  8 47 46.0000000  0 20                     
G 4                   1186258.362           0.002          17.000                                                                  
G 7                   -178960.542       -2262.061          23.000                                                                  
G 8                    294726.429         874.402          28.000                      138554.805         649.907          23.000  
G 9                     49674.106        2243.646          24.000                                                                  
G16                     85172.751        2555.969          27.000                                                                  
G21                   -291283.560       -2040.808          19.000                                                                  
G26                    841225.970        3120.911          25.000                                                                  
R 7                                                        16.000  
R 9                                                        13.000  
E 5                     64142.695        1843.996          25.000                       11649.376        1379.856          21.000  
E 9                   1073309.216        3254.706          15.000                                                                  
E11                   -529343.429       -2339.046          18.000                     -220058.801       -1748.305          14.000  
E12                     -4738.020       -1087.777          22.000                     -156635.570        -811.371          18.000  
E24                   -107407.928        -315.631          24.000                      -51902.441        -240.697          22.000  
E31                    321314.162        1238.055          30.000                      163570.969         922.315          22.000  
E33                    244869.020        1666.820          32.000                       81336.146        1237.628          20.000  
C24                   -274109.983       -1934.827          17.000                                                                                                                                  
C26                   -177954.020        -539.215          27.000                                                                                      -68408.206        -400.265          20.000  
C29                   1092421.357        3383.900          17.000                                                                                                                                  
C35                    261718.547         818.110          29.000                                                                                      126272.527         613.970          17.000  
> 2022  1 20  8 47 47.0000000  0 20                     
G 4                   1205123.608        3590.044          19.000                                                                  
G 7                   -190845.410       -2261.071          22.000                                                                  
G 8                    299311.487         873.375          29.000                      141090.442         649.476          23.000  
G 9                     61467.045        2242.908          19.000                                                                  
G16                     98598.903        2552.077          29.000                                                                  
G21                   -302013.881          -0.008          20.000                                                                  
G26                    857640.375        3122.338          25.000                                                                  
R 7                                                        12.000  
R 9                                                        14.000  
E 5                                                                                     17055.870        1377.141          18.000  
E 9                   1090396.748        3254.307          16.000                                                                  
E11                   -541631.060       -2337.690          18.000                     -226915.326       -1748.210          14.000  
E12                    -10445.918       -1086.735          23.000                     -159818.337        -810.464          19.000  
E24                   -109080.221        -321.133          26.000                      -52837.089        -238.763          23.000  
E31                    327814.180        1236.556          28.000                      167196.134         925.674          22.000  
E33                    253627.459        1668.657          29.000                       86218.503        1244.938          19.000  
C24                   -284182.677       -1933.723          17.000                                                                                                                                  
C26                   -180740.641        -532.289          28.000                                                                                      -69994.478        -402.743          20.000  
C29                   1110044.194        3385.141          18.000                                                                                                                                  
C35                    265975.294         812.479          29.000                                                                                      128683.056         613.846          19.000  
> 2022  1 20  8 47 48.0000000  0 19                     
G 4                   1223984.478           0.002          18.000                                                                  
G 7                   -202738.281       -2264.259          20.000                                                                  
G 8                    303916.183         877.466          28.000                      143671.158         658.380          23.000  
G 9                     73257.218        2244.926          20.000                                                                  
G16                    112017.258        2554.151          29.000                                                                  
G21                   -312734.469       -2043.688          23.000                                                                  
G26                    874038.634        3125.170          28.000                                                                  
R 7                                                        16.000  
E 5                     83538.711        1847.448          20.000                       22468.357        1381.294          16.000  
E 9                   1107489.304        3251.279          15.000                                                                  
E11                   -553907.126       -2333.779          18.000                     -233770.942       -1746.616          13.000  
E12                    -16155.909       -1084.611          22.000                     -162995.623        -811.327          18.000  
E24                   -110747.433        -317.131          25.000                      -53771.236        -238.873          20.000  
E31                    334310.926        1235.605          29.000                      170824.441         922.268          22.000  
E33                    262383.681        1668.066          29.000                       91095.565        1250.850          21.000  
C24                   -294254.334       -1935.884          17.000                                                                                                                                  
C26                   -183533.193        -539.169          27.000                                                                                      -71574.650        -409.351          19.000  
C29                   1127672.868        3385.340          17.000                                                                                                                                  
C35                    270207.557         812.487          29.000                                                                                      131090.294         613.050          19.000  
> 2022  1 20  8 47 49.0000000  0 19                     
G 4                   1242841.163        3586.609          19.000                                                                  
G 7                   -214626.917           0.011          18.000                                                                  
G 8                    308512.570         875.777          28.000                      146244.930         655.358          22.000  
G16                    125450.133        2553.615          27.000                                                                  
G21                   -323451.980       -2035.423          24.000                                                                  
G26                    890455.936        3128.287          31.000                                                                  
R 7                                                        16.000  
E 5                     93233.390        1846.051          24.000                       27889.727        1381.440          16.000  
E 9                   1124574.856        3253.219          16.000                                                                  
E11                   -566173.923       -2334.873          17.000                     -240622.851       -1746.070          11.000  
E12                    -21866.213       -1085.870          23.000                     -166180.395        -811.953          18.000  
E24                   -112412.432        -317.613          24.000                      -54719.236        -245.432          20.000  
E31                    340813.069        1236.489          28.000                      174451.527         925.020          23.000  
E33                    271144.302        1667.469          32.000                       95985.371        1242.207          22.000  
C10                      4730.898         726.282          20.000                                                                                                                                  
C24                   -304344.389       -1938.208          18.000                                                                                                                                  
C26                   -186313.588        -530.089          25.000                                                                                      -73169.881        -403.511          20.000  
C29                   1145305.190        3386.892          17.000                                                                                                                                  
C35                    274453.432         821.067          29.000                                                                                      133496.254         613.445          19.000  
> 2022  1 20  8 47 50.0000000  0 19                     
G 4                   1261700.488           0.002          19.000                                                                  
G 7                   -226514.455       -2259.805          19.000                                                                  
G 8                    313118.122         878.057          27.000                      148812.184         653.319          20.000  
G16                    138880.443        2555.747          23.000                                                                  
G21                   -334159.295       -2036.610          24.000                                                                  
G26                    906873.784        3130.279          29.000                        4540.566        2354.695          20.000  
R 7                                                        16.000  
E 5                    102934.554        1846.257          20.000                       33310.540        1381.630          14.000  
E 9                   1141674.917        3256.427          16.000                                                                  
E11                   -578446.442       -2336.954          15.000                     -247477.180       -1747.812           9.000  
E12                    -27569.320       -1086.276          23.000                     -169359.661        -810.431          17.000  
E24                   -114062.202        -314.695          26.000                      -55663.326        -238.965          18.000  
E31                    347314.174        1236.027          27.000                      178072.064         920.171          19.000  
E33                    279906.822        1667.667          26.000                      100869.343        1246.019          20.000  
C10                      3445.100         726.522          23.000                                                                                                                                  
C24                   -314438.644       -1939.335          14.000                                                                                                                                  
C26                   -189087.938        -534.945          27.000                                                                                      -74751.818        -403.428          18.000  
C29                   1162939.485        3386.842          15.000                                                                                                                                  
C35                    278716.536         820.290          25.000                                                                                      135907.280         613.579          18.000  
