     3.04           OBSERVATION DATA    M: Mixed            RINEX VERSION / TYPE
Higeo_Hi1105        Huawei CBG          20220126 062256 UTC PGM / RUN BY / DATE 
************************************************************COMMENT             
* If you have any problem,                                 *COMMENT             
*     please contact with LBS Technology Group, thanks.    *COMMENT             
*                                                          *COMMENT             
* Version Higeo2RinexV1.1 2020.07.21                       *COMMENT             
* Fuction:  Convert Higeo Log to Rinex file                *COMMENT             
*                                                          *COMMENT             
* Note that the verision support B1C B2A signal            *COMMENT             
*     BDS: C1D L1D D1D S1D indicate BDS B1C                *COMMENT             
*     BDS: C5D L5D D5D S5D indicate BDS B2A                *COMMENT             
*     Reference: RINEX V3.04                               *COMMENT             
*                                                          *COMMENT             
* Copyright(C) Huawei Technologies Co., Ltd. 2019 - 2020   *COMMENT             
*     All rights reserved.                                 *COMMENT             
************************************************************COMMENT             
                                                            MARKER NAME         
                                                            MARKER NUMBER       
                                                            MARKER TYPE         
                                                            OBSERVER / AGENCY   
                                                            REC # / TYPE / VERS 
                                                            ANT # / TYPE        
        0.0000        0.0000        0.0000                  APPROX POSITION XYZ 
        0.0000        0.0000        0.0000                  ANTENNA: DELTA H/E/N
G    8 C1C L1C D1C S1C C5I L5I D5I S5I                      SYS / # / OBS TYPES 
R    4 C1C L1C D1C S1C                                      SYS / # / OBS TYPES 
E    8 C1C L1C D1C S1C C5I L5I D5I S5I                      SYS / # / OBS TYPES 
J    8 C1C L1C D1C S1C C5I L5I D5I S5I                      SYS / # / OBS TYPES 
C   12 C2I L2I D2I S2I C1D L1D D1D S1D C5D L5D D5D S5D      SYS / # / OBS TYPES 
  2022     1    25     4     2   48.0000000     GPS         TIME OF FIRST OBS   
  2022     1    25     4    17   52.0000000     GPS         TIME OF LAST OBS    
G                                                           SYS / PHASE SHIFT   
R                                                           SYS / PHASE SHIFT   
E                                                           SYS / PHASE SHIFT   
J                                                           SYS / PHASE SHIFT   
C                                                           SYS / PHASE SHIFT   
  0                                                         GLONASS SLOT / FRQ #
 C1C    0.000 C1P    0.000 C2C    0.000 C2P    0.000        GLONASS COD/PHS/BIS 
                                                            END OF HEADER       
> 2022  1 25  4  2 48.0000000  0  1                     
G32                      3813.504        1630.486          26.000                                                                  
> 2022  1 25  4  2 49.0000000  0  9                     
G 3                     -7334.482       -1131.007          35.000                                                                  
G16                    -13455.351       -3333.564          22.000                                                                  
G26                     -4254.021       -1168.572          25.000                                                                  
G29                       351.655           5.742          25.000                                                                  
G31                       917.839         182.616          33.000                                                                  
G32                     12381.059        1631.372          23.000                                                                  
J 2                      2650.910         508.908          35.000                                                                  
C24                     -4466.925        -871.887          38.000                                                                                                                                  
C33                     -7690.645       -1567.567          37.000                                                                                                                                  
> 2022  1 25  4  2 50.0000000  0  9                     
G 3                    -13279.616       -1131.213          34.000                       -4403.399        -844.864          31.000  
G16                    -30971.558       -3331.803          24.000                                                                  
G26                    -10383.079       -1162.995          31.000                                                                  
G29                       379.743           6.124          22.000                                                                  
G31                      1881.186         185.291          31.000                                                                  
G32                     20959.386        1634.686          28.000                                                                  
J 2                      5329.065         509.569          32.000                                                                  
C24                     -9006.096        -871.128          39.000                                                                                                                                  
C33                    -15841.989       -1563.952          39.000                                                                                                                                  
> 2022  1 25  4  2 51.0000000  0 11                     
G 3                    -19220.388       -1127.490          33.000                       -7716.081        -844.432          29.000  
G16                    -48476.452       -3330.350          24.000                                                                  
G26                    -16497.442       -1163.861          34.000                                                                  
G29                       418.236           7.977          21.000                                                                  
G31                      2851.130         184.928          33.000                                                                  
G32                     29558.206        1637.730          29.000                                                                  
R 2                                                        35.000  
R12                                                        33.000  
J 2                      8015.150         512.287          33.000                                                                  
C24                    -13539.884        -870.573          41.000                                                                                       -3305.952        -645.666          27.000  
C33                    -23984.581       -1563.676          38.000                                                                                                                                  
> 2022  1 25  4  2 52.0000000  0 12                     
G 3                    -25151.072       -1129.631          34.000                      -11026.093        -843.075          29.000  
G16                    -65971.268       -3328.230          22.000                                                                  
G26                    -22616.157       -1164.180          35.000                                                                  
G29                       465.987           9.652          20.000                                                                  
G31                      3820.426         185.272          33.000                                                                  
G32                     38164.113        1636.850          29.000                                                                  
R 2                                                        36.000  
R12                                                        34.000  
E 7                     -7588.850       -2669.034          34.000                                                                  
J 2                     10696.926         510.940          33.000                        3971.626         364.711          16.000  
C24                    -18071.934        -869.681          40.000                                                                                       -5874.947        -655.522          30.000  
C33                    -32122.051       -1562.574          37.000                                                                                                                                  
> 2022  1 25  4  2 53.0000000  0 12                     
G 3                    -31076.229       -1124.557          33.000                      -14332.280        -843.735          18.000  
G16                    -83463.461       -3329.944          20.000                                                                  
G26                    -28726.451       -1161.652          30.000                                                                  
G29                       520.947          11.600          19.000                                                                  
G31                      4798.300         184.740          28.000                                                                  
G32                     46760.889        1637.539          27.000                                                                  
R 2                                                        36.000  
R12                                                        34.000  
E 7                    -21608.041       -2667.413          33.000                                                                  
J 2                     13386.395         512.131          32.000                        5422.441         374.244          17.000  
C24                    -22596.293        -868.151          39.000                                                                                       -8444.538        -654.497          26.000  
C33                    -40254.493       -1560.461          35.000                                                                                                                                  
> 2022  1 25  4  2 54.0000000  0 12                     
G 3                    -36995.805       -1127.250          31.000                      -17640.937        -842.541          19.000  
G16                   -100958.063       -3328.772          17.000                                                                  
G26                    -34818.719       -1159.592          32.000                                                                  
G29                       581.198          12.091          17.000                                                                  
G31                      5775.738         187.219          32.000                                                                  
G32                     55375.447        1641.262          30.000                                                                  
R 2                                                        32.000  
R12                                                        35.000  
E 7                    -35619.638       -2665.805          31.000                                                                  
J 2                     16088.494         515.095          28.000                        6897.319         376.934          18.000  
C24                    -27112.559        -866.381          36.000                                                                                      -11009.697        -653.236          28.000  
C33                    -48376.824       -1558.776          34.000                                                                                                                                  
> 2022  1 25  4  2 55.0000000  0 13                     
G 3                    -42905.591       -1122.199          31.000                      -20939.047        -839.154          23.000  
G26                    -40911.843       -1158.473          29.000                                                                  
G29                       648.578          12.385          17.000                                                                  
G31                      6761.770         187.556          34.000                                                                  
G32                     63998.107        1641.000          27.000                                                                  
R 2                                                        30.000  
R12                                                        37.000  
E 7                    -49627.457       -2664.994          34.000                                                                  
J 2                     18784.933         512.074          31.000                        8386.344         382.034          19.000  
C14                       -65.875         -19.399          33.000                                                                                                                                  
C24                    -31626.799        -866.399          36.000                                                                                      -13572.623        -652.683          29.000  
C33                    -56492.452       -1558.521          34.000                                                                                                                                  
C35                     -9078.394       -1441.135          28.000                                                                                                                                  
> 2022  1 25  4  2 56.0000000  0 14                     
G 3                    -48803.696       -1122.836          34.000                      -24232.401        -838.769          22.000  
G26                    -46997.082       -1157.072          33.000                                                                  
G29                       714.475          12.979          20.000                                                                  
G31                      7752.202         190.063          34.000                                                                  
G32                     72618.772        1638.166          28.000                                                                  
R 2                                                        34.000  
R12                                                        36.000  
E 2                      5132.551         704.456          29.000                                                                  
E 7                    -63632.483       -2664.698          33.000                                                                  
J 2                     21477.667         512.403          30.000                        9891.730         384.462          22.000  
C14                      -181.299         -20.753          33.000                                                                                                                                  
C24                    -36135.625        -865.209          39.000                                                                                      -16133.887        -652.414          29.000  
C33                    -64603.952       -1557.242          36.000                                                                                                                                  
C35                    -16639.233       -1442.922          23.000                                                                                                                                  
> 2022  1 25  4  2 58.0000000  0 18                     
G 3                    -57173.880       -1120.203          36.000                      -28901.090        -835.743          25.000  
G16                   -160795.106       -3326.547          20.000                                                                  
G26                    -55646.809       -1155.422          29.000                       -8941.161        -852.503          18.000  
G29                       802.173          11.106          17.000                                                                  
G31                      9177.588         190.170          33.000                                                                  
G32                     84883.430        1645.503          28.000                                                                  
R 2                                                        25.000  
R 3                                                        21.000  
R12                                                        35.000  
E 2                     10357.464         699.143          26.000                                                                  
E 7                    -83518.395       -2662.423          34.000                                                                  
E30                    -26211.540       -1579.328          27.000                                                                  
J 2                     25318.264         510.300          19.000                       12044.605         387.555          20.000  
C 6                     -3280.141        -543.789          29.000                                                                                                                                  
C 9                     -4391.616        -729.686          33.000                                                                                                                                  
C14                      -314.303         -15.529          28.000                                                                                                                                  
C24                    -42531.174        -863.643          38.000                                                                                      -19764.956        -651.271          29.000  
C33                    -76106.968       -1555.948          38.000                                                                                                                                  
> 2022  1 25  4  2 59.0000000  0 20                     
G 3                    -63069.034       -1123.541          34.000                      -32188.776        -837.429          25.000  
G16                   -178257.787       -3321.064          17.000                                                                  
G26                    -61724.035       -1156.836          32.000                      -12311.892        -860.494          20.000  
G29                       865.211          13.411          20.000                                                                  
G31                     10170.198         189.374          29.000                                                                  
G32                     93523.351        1642.738          28.000                                                                  
R 2                                                        36.000  
R12                                                        30.000  
E 2                     14021.991         697.475          29.000                                                                  
E 7                    -97518.000       -2663.674          33.000                                                                  
E 8                     -3449.859        -757.439          33.000                                                                  
E30                    -34519.131       -1580.398          32.000                                                                  
J 2                     28020.733         515.764          30.000                       13555.842         386.105          21.000  
C 6                     -6109.898        -542.808          30.000                                                                                                                                  
C 9                     -8197.995        -729.093          27.000                                                                                                                                  
C14                      -402.590         -16.137          37.000                                                                                                                                  
C24                    -47034.873        -864.472          40.000                                                                                      -22322.604        -651.664          29.000  
C26                      5711.596        1048.788          31.000                                                                                                                                  
C33                    -84211.776       -1555.883          35.000                                                                                                                                  
C35                    -34616.938       -1414.817          15.000                                                                                                                                  
> 2022  1 25  4  3  0.0000000  0 20                     
G 3                    -68956.610       -1119.147          30.000                      -35472.478        -836.361          25.000  
G16                   -195722.947       -3324.152          19.000                                                                  
G26                    -67793.836       -1151.648          26.000                      -15689.152        -861.080          19.000  
G29                       942.078          -0.008          16.000                                                                  
G31                     11172.294         189.561          31.000                                                                  
G32                    102154.736        1642.348          23.000                                                                  
R 2                                                        35.000  
R12                                                        33.000  
E 2                     17689.644         697.943          30.000                                                                  
E 7                   -111516.759       -2663.875          34.000                                                                  
E 8                     -7428.476        -756.577          30.000                                                                  
E30                    -42822.654       -1579.914          26.000                                                                  
J 2                     30726.219         515.893          32.000                       15071.464         386.699          18.000  
C 6                     -8953.748        -544.603          29.000                                                                                                                                  
C 9                    -11997.426        -729.263          30.000                                                                                                                                  
C14                      -490.067         -15.337          36.000                                                                                                                                  
C24                    -51537.384        -862.664          36.000                                                                                      -24878.824        -650.936          28.000  
C26                     11172.129        1051.429          31.000                                                                                                                                  
C33                    -92311.625       -1556.194          35.000                                                                                       -4453.878       -1171.720          25.000  
C35                    -42112.342       -1445.740          27.000                                                                                                                                  
> 2022  1 25  4  3  1.0000000  0 21                     
G 3                    -74847.886       -1118.904          31.000                      -38751.656        -833.825          22.000  
G16                   -213171.901       -3319.165          17.000                                                                  
G26                    -73857.383       -1156.810          31.000                      -19075.147        -863.443          20.000  
G29                      1024.199          -0.008          14.000                                                                  
G31                     12166.667         189.130          29.000                                                                  
G32                    110789.764        1641.977          27.000                                                                  
R 2                                                        35.000  
R12                                                        34.000  
E 2                     21359.013         698.277          32.000                                                                  
E 7                   -125515.103       -2663.592          34.000                                                                  
E 8                     -2301.419        -757.017          30.000                                                                  
E30                    -51124.760       -1580.294          24.000                                                                  
J 2                     33437.144         514.139          29.000                       16587.088         385.917          16.000  
C 6                    -11787.941        -545.832          30.000                                                                                                                                  
C 9                    -15803.712        -730.693          32.000                                                                                                                                  
C14                      -573.000         -14.902          36.000                                                                                                                                  
C21                     36344.198        3218.630          20.000                                                                                                                                  
C24                    -56036.942        -865.466          36.000                                                                                      -27435.337        -651.496          28.000  
C26                     16642.650        1049.385          30.000                                                                                                                                  
C33                   -100405.558       -1553.429          35.000                                                                                       -9052.695       -1171.944          25.000  
C35                    -49651.567       -1448.424          31.000                                                                                                                                  
> 2022  1 25  4  3  2.0000000  0 20                     
G 3                    -80741.424       -1121.743          30.000                      -42032.450        -835.222          26.000  
G26                    -79932.919       -1154.101          31.000                      -22464.288        -862.370          19.000  
G29                      1108.661          -0.008          18.000                                                                  
G31                     13168.477         190.561          29.000                                                                  
G32                    119433.484        1642.560          20.000                                                                  
R 2                                                        35.000  
R12                                                        32.000  
E 2                     25030.287         698.715          30.000                                                                  
E 7                   -139511.057       -2663.299          34.000                                                                  
E 8                     -6274.959        -755.794          33.000                                                                  
E30                    -59424.733       -1579.298          29.000                                                                  
J 2                     36143.318         515.258          32.000                       18100.458         386.815          18.000  
C 6                    -14626.127        -543.712          30.000                                                                                                                                  
C 9                    -19613.228        -731.008          29.000                                                                                                                                  
C14                      -653.117         -15.041          34.000                                                                                                                                  
C21                     53099.494        3215.876          18.000                                                                                                                                  
C24                    -60537.557        -863.732          39.000                                                                                      -29990.456        -650.380          30.000  
C26                     22101.434        1048.691          27.000                                                                                                                                  
C33                   -108496.263       -1554.834          36.000                                                                                      -13648.962       -1170.727          26.000  
C35                    -57195.522       -1447.769          29.000                                                                                                                                  
> 2022  1 25  4  3  3.0000000  0 20                     
G 3                    -86618.652       -1116.964          32.000                      -45310.125        -834.471          22.000  
G26                    -85997.994       -1155.508          30.000                      -25851.898        -862.375          19.000  
G29                      1210.138          19.657          23.000                                                                  
G31                     14170.094         190.544          27.000                                                                  
G32                    128076.629        1645.604          18.000                                                                  
R 2                                                        36.000  
R12                                                        31.000  
E 2                     28705.150         699.488          31.000                                                                  
E 7                   -153505.196       -2662.961          33.000                                                                  
E 8                    -10244.675        -754.993          32.000                                                                  
E30                    -67720.564       -1578.474          28.000                                                                  
J 2                     38850.645         514.838          29.000                       19615.297         384.167          19.000  
C 6                    -17470.084        -546.056          29.000                                                                                                                                  
C 9                    -23415.757        -730.929          28.000                                                                                                                                  
C14                      -727.904         -15.464          35.000                                                                                                                                  
C21                     69852.859        3217.235          18.000                                                                                                                                  
C24                    -65032.704        -863.607          38.000                                                                                      -32543.838        -650.032          27.000  
C26                     27571.494        1050.813          27.000                                                                                                                                  
C33                   -116586.461       -1554.169          36.000                                                                                      -18242.629       -1170.174          23.000  
C35                    -64720.473       -1443.070          28.000                                                                                                                                  
> 2022  1 25  4  3  4.0000000  0 23                     
G 3                    -92484.360       -1117.330          32.000                      -48586.013        -833.674          24.000  
G16                   -265511.345       -3320.378          19.000                                                                  
G26                    -92064.109       -1151.072          32.000                      -29227.617        -859.608          19.000  
G29                      1312.603          19.511          24.000                                                                  
G31                     15183.058         194.348          28.000                                                                  
G32                    136732.946        1647.647          21.000                                                                  
R 2                                                        35.000  
R 3                                                        23.000  
R12                                                        33.000  
R22                                                        19.000  
E 2                     32382.259         699.944          30.000                                                                  
E 7                   -167497.528       -2662.503          33.000                                                                  
E 8                    -14211.468        -754.399          33.000                                                                  
E30                    -76014.473       -1577.922          29.000                                                                  
J 2                     41559.106         513.960          32.000                       21125.316         384.516          18.000  
C 6                    -20307.820        -544.809          30.000                                                                                                                                  
C 9                    -27216.657        -730.533          30.000                                                                                                                                  
C14                      -803.333         -13.701          35.000                                                                                                                                  
C21                     86605.573        3217.802          17.000                                                                                                                                  
C24                    -69527.663        -861.622          38.000                                                                                      -35096.648        -649.976          27.000  
C26                     33039.398        1050.258          25.000                                                                                                                                  
C33                   -124674.346       -1552.130          36.000                                                                                                                                  
C35                    -72248.139       -1447.880          29.000                                                                                                                                  
> 2022  1 25  4  3  5.0000000  0 22                     
G 3                    -98354.490       -1117.005          33.000                      -51859.446        -833.771          26.000  
G16                   -282977.104       -3322.902          18.000                                                                  
G26                    -98117.757       -1152.886          31.000                      -32606.816        -860.127          20.000  
G29                      1420.633          22.488          21.000                                                                  
G31                     16194.448         191.612          28.000                                                                  
G32                    145394.459        1649.328          25.000                                                                  
R 2                                                        35.000  
R12                                                        35.000  
R22                                                        18.000  
E 2                     36062.064         700.441          30.000                                                                  
E 7                   -181487.973       -2662.149          33.000                                                                  
E 8                    -18174.732        -754.123          31.000                                                                  
E30                    -84305.310       -1577.677          26.000                                                                  
J 2                     44268.903         515.716          30.000                       22636.233         385.789          17.000  
C 6                    -23137.907        -542.018          28.000                                                                                                                                  
C 9                    -31021.719        -730.103          30.000                                                                                                                                  
C14                      -871.528         -12.526          34.000                                                                                                                                  
C21                    103367.072        3219.466          17.000                                                                                                                                  
C24                    -74019.572        -862.485          37.000                                                                                      -37647.627        -649.741          29.000  
C26                     38509.823        1051.086          29.000                                                                                                                                  
C33                   -132756.055       -1551.817          37.000                                                                                        -693.076       -1169.830          27.000  
C35                    -79782.013       -1445.482          28.000                                                                                                                                  
> 2022  1 25  4  3  6.0000000  0 25                     
G 3                   -104221.688       -1114.816          32.000                      -55129.975        -834.812          22.000  
G16                   -300444.127       -3323.186          19.000                                                                  
G26                   -104166.048       -1152.746          32.000                      -35990.178        -863.365          22.000  
G29                      1541.043          23.482          17.000                                                                  
G31                     17205.337         191.605          33.000                                                                  
G32                    154060.475        1649.052          26.000                                                                  
R 1                                                        17.000  
R 2                                                        35.000  
R 3                                                        20.000  
R12                                                        33.000  
R21                                                        17.000  
R22                                                        17.000  
E 2                     39744.843         700.673          31.000                                                                  
E 7                   -195476.140       -2661.552          30.000                                                                  
E 8                    -22134.111        -753.757          33.000                                                                  
E30                    -92592.289       -1577.153          26.000                                                                  
J 2                     46980.210         516.064          31.000                       24144.904         383.539          22.000  
C 6                    -25960.358        -544.608          30.000                                                                                                                                  
C 9                    -34821.924        -730.368          30.000                                                                                                                                  
C14                      -930.932         -12.559          33.000                                                                                                                                  
C21                    120134.209        3219.760          20.000                                                                                                                                  
C24                    -78509.005        -862.484          37.000                                                                                      -40197.308        -649.568          27.000  
C26                     43980.560        1051.181          33.000                                                                                                                                  
C33                   -140833.455       -1551.350          36.000                                                                                                                                  
C35                    -87297.880       -1443.664          28.000                                                                                                                                  
> 2022  1 25  4  3  7.0000000  0 24                     
G 3                   -110084.229       -1115.416          34.000                      -58399.078        -832.708          25.000  
G16                   -317902.047       -3324.040          19.000                                                                  
G26                   -110213.452       -1150.891          32.000                      -39361.892        -860.339          23.000  
G29                      1661.210          24.515          17.000                                                                  
G31                     18222.190         194.039          30.000                                                                  
G32                    162715.567        1646.436          27.000                                                                  
R 1                                                        17.000  
R 2                                                        35.000  
R12                                                        35.000  
R21                                                        15.000  
R22                                                        17.000  
E 2                     43428.837         701.264          32.000                                                                  
E 7                   -209464.033       -2661.730          31.000                      -12097.873       -1987.401          26.000  
E 8                    -26091.911        -752.965          34.000                                                                  
E30                   -100879.072       -1576.707          30.000                                                                  
J 2                     49691.503         516.279          30.000                       25640.502         383.586          19.000  
C 6                    -28784.861        -542.419          29.000                                                                                                                                  
C 9                    -38619.543        -729.220          28.000                                                                                                                                  
C14                      -990.012         -10.826          37.000                                                                                                                                  
C21                    136899.445        3219.595          18.000                                                                                                                                  
C24                    -82997.686        -861.884          38.000                                                                                      -42746.280        -648.167          29.000  
C26                     49456.561        1051.647          33.000                                                                                                                                  
C33                   -148908.665       -1550.683          36.000                                                                                       -2158.217       -1164.931          26.000  
C35                    -94825.650       -1446.776          26.000                                                                                                                                  
> 2022  1 25  4  3  8.0000000  0 26                     
G 3                   -115938.345       -1113.949          35.000                      -61665.173        -831.255          23.000  
G16                   -335359.424       -3321.647          15.000                                                                  
G26                   -116258.063       -1149.202          31.000                      -42732.878        -858.545          23.000  
G29                      1785.176          -0.008          18.000                                                                  
G31                     19235.914         192.507          27.000                                                                  
G32                    171382.293        1650.993          27.000                                                                  
R 1                                                        17.000  
R 2                                                        35.000  
R 3                                                        23.000  
R12                                                        30.000  
R21                                                        17.000  
R22                                                        15.000  
E 2                     47115.119         701.917          24.000                                                                  
E 7                   -223448.973       -2661.026          32.000                      -19897.018       -1988.667          23.000  
E 8                    -30046.565        -752.031          33.000                                                                  
E30                   -109163.270       -1576.033          30.000                                                                  
J 2                     52403.590         517.178          24.000                       27148.747         386.350          20.000  
C 6                    -31611.789        -542.396          27.000                                                                                                                                  
C 9                    -42425.639        -730.858          28.000                                                                                                                                  
C10                    -32890.127        -964.295          17.000                                                                                                                                  
C14                     -1045.234          -9.826          37.000                                                                                                                                  
C21                    153665.540        3218.874          18.000                                                                                                                                  
C24                    -87483.807        -860.818          39.000                                                                                      -45294.526        -649.086          26.000  
C26                     54934.755        1053.087          30.000                                                                                                                                  
C33                   -156979.294       -1548.882          35.000                                                                                                                                  
C35                   -102347.683       -1443.096          30.000                                                                                                                                  
> 2022  1 25  4  3  9.0000000  0 26                     
G 3                   -121792.384       -1113.215          35.000                      -64933.497        -831.264          21.000  
G16                   -352806.159       -3320.918          12.000                                                                  
G26                   -122298.269       -1150.661          34.000                      -46085.933        -852.368          20.000  
G29                      1909.440          22.916          20.000                                                                  
G31                     20252.902         192.433          31.000                                                                  
G32                    180059.084        1650.734          26.000                                                                  
R 1                                                        19.000  
R 2                                                        29.000  
R 3                                                        19.000  
R12                                                        29.000  
R21                                                        17.000  
R22                                                        15.000  
E 2                     50804.781         701.880          26.000                                                                  
E 7                   -237434.415       -2661.259          32.000                      -27690.147       -1984.369          21.000  
E 8                    -33999.378        -752.568          31.000                                                                  
E30                   -117445.490       -1576.455          30.000                                                                  
J 2                     55121.530         518.217          26.000                       28662.334         383.528          19.000  
C 6                    -34436.079        -541.274          26.000                                                                                                                                  
C 9                    -46223.178        -729.228          25.000                                                                                                                                  
C10                    -37910.976        -965.721          20.000                                                                                                                                  
C14                     -1098.558         -10.958          34.000                                                                                                                                  
C21                    170425.085        3218.005          17.000                                                                                                                                  
C24                    -91969.895        -861.749          39.000                                                                                      -47842.699        -649.776          25.000  
C26                     60413.336        1051.015          30.000                                                                                                                                  
C33                   -165048.106       -1548.815          37.000                                                                                                                                  
C35                   -109854.292       -1443.657          24.000                                                                                                                                  
> 2022  1 25  4  3 10.0000000  0 24                     
G 3                   -127667.504       -1118.147          34.000                      -68208.103        -835.402          20.000  
G26                   -128359.920       -1153.446          33.000                      -49446.708        -861.836          20.000  
G29                      2031.559          23.022          17.000                                                                  
G31                     21247.105         187.852          27.000                                                                  
G32                    188730.670        1647.885          27.000                                                                  
R 1                                                        17.000  
R 2                                                        34.000  
R12                                                        28.000  
R21                                                        17.000  
R22                                                        17.000  
E 2                     54474.927         697.630          21.000                                                                  
E 7                   -251439.845       -2666.369          30.000                      -35502.034       -1990.889          21.000  
E 8                    -37970.675        -756.860          32.000                                                                  
E30                   -125747.373       -1581.061          30.000                                                                  
J 2                     57822.767         510.584          26.000                       30162.562         378.929          19.000  
C 6                    -37279.538        -549.023          26.000                                                                                                                                  
C 9                    -50045.110        -735.575          31.000                                                                                                                                  
C10                    -42959.420        -971.794          17.000                                                                                                                                  
C14                     -1170.395         -13.927          34.000                                                                                                                                  
C21                    187176.232        3215.831          17.000                                                                                                                                  
C24                    -96477.186        -865.947          39.000                                                                                      -50401.910        -652.336          25.000  
C26                     65887.587        1051.792          19.000                                                                                                                                  
C33                   -173137.172       -1553.613          35.000                                                                                                                                  
C35                   -117377.296       -1446.107          29.000                                                                                                                                  
> 2022  1 25  4  3 11.0000000  0 25                     
G 3                   -133532.652       -1114.614          34.000                      -71483.780        -832.804          20.000  
G26                   -134413.368       -1150.004          32.000                      -52823.170        -859.171          20.000  
G29                      2150.244          22.009          17.000                                                                  
G31                     22236.988         188.615          28.000                                                                  
G32                    197385.474        1647.477          25.000                                                                  
R 1                                                        17.000  
R 2                                                        35.000  
R 3                                                        20.000  
R12                                                        28.000  
R21                                                        16.000  
R22                                                        16.000  
E 2                     58149.326         699.503          25.000                                                                  
E 7                   -265442.085       -2664.234          33.000                      -43299.470       -1986.864          19.000  
E 8                    -41937.618        -754.522          35.000                                                                  
E30                   -134044.965       -1578.635          29.000                                                                  
J 2                     60511.774         513.914          29.000                       31659.996         385.366          19.000  
C 6                    -40131.620        -548.296          28.000                                                                                                                                  
C 7                    -11899.860        -959.215          21.000                                                                                                                                  
C 9                    -53864.013        -731.805          32.000                                                                                                                                  
C10                    -48020.422        -972.796          17.000                                                                                                                                  
C14                     -1233.986         -10.461          35.000                                                                                                                                  
C24                   -100977.723        -862.549          40.000                                                                                      -52957.827        -649.208          26.000  
C26                     71349.161          -0.009          24.000                                                                                                                                  
C33                   -181217.605       -1549.480          38.000                                                                                                                                  
C35                   -124902.829       -1444.382          29.000                                                                                                                                  
> 2022  1 25  4  3 12.0000000  0 25                     
G 3                   -139383.837       -1112.547          34.000                      -74754.074        -832.032          18.000  
G26                   -140451.515       -1147.403          31.000                      -56190.372        -856.402          18.000  
G29                      2274.016          25.248          13.000                                                                  
G31                     23242.425         189.860          28.000                                                                  
G32                    206057.872        1651.418          22.000                                                                  
R 1                                                        14.000  
R 2                                                        32.000  
R 3                                                        19.000  
R12                                                        31.000  
R21                                                        17.000  
R22                                                        15.000  
E 2                     61835.598         702.172          25.000                                                                  
E 7                   -279430.921       -2661.439          30.000                      -51096.754       -1988.945          19.000  
E 8                    -45888.735        -751.418          32.000                                                                  
E30                   -142327.479       -1575.489          27.000                                                                  
J 2                     63221.321         518.010          28.000                       33172.342         384.650          18.000  
C 6                    -42967.402        -542.691          25.000                                                                                                                                  
C 7                    -16898.000        -959.418          19.000                                                                                                                                  
C 9                    -57671.172        -729.740          29.000                                                                                                                                  
C14                     -1283.291          -8.061          35.000                                                                                                                                  
C21                     28904.740        3214.579          17.000                                                                                                                                  
C24                   -105466.157        -861.083          36.000                                                                                      -55507.513        -649.453          26.000  
C26                     76811.501        1049.595          29.000                                                                                                                                  
C33                   -189284.574       -1547.881          37.000                                                                                                                                  
C35                   -132416.650       -1440.897          29.000                                                                                                                                  
> 2022  1 25  4  3 13.0000000  0 25                     
G 3                   -145229.179       -1112.945          29.000                      -78016.266        -829.441          24.000  
G26                   -146483.254       -1149.038          28.000                      -59555.016        -851.896          20.000  
G29                      2412.139          -0.008          16.000                                                                  
G31                     24252.858         194.629          35.000                                                                  
G32                    214737.516        1653.171          23.000                                                                  
R 1                                                        15.000  
R 2                                                        33.000  
R 3                                                        21.000  
R12                                                        34.000  
R21                                                        17.000  
R22                                                        15.000  
E 2                     65532.846         704.191          32.000                                                                  
E 7                   -293413.486       -2660.271          32.000                      -58897.123       -1986.425          24.000  
E 8                    -49831.791        -749.386          34.000                                                                  
E30                   -150604.565       -1575.960          21.000                                                                  
J 2                     65935.102         517.504          33.000                       34680.957         387.888          23.000  
C 6                    -45792.436        -543.794          30.000                                                                                                                                  
C 7                    -21900.097        -961.850          16.000                                                                                                                                  
C 9                    -61478.714        -729.999          30.000                                                                                                                                  
C14                     -1325.401          -8.613          28.000                                                                                                                                  
C21                     45644.997        3216.844          18.000                                                                                                                                  
C24                   -109946.744        -860.218          39.000                                                                                      -58051.627        -646.892          29.000  
C26                     82294.522        1053.384          32.000                                                                                                                                  
C33                   -197343.041       -1547.014          37.000                                                                                        -619.332       -1165.090          29.000  
C35                   -139928.765       -1441.504          27.000                                                                                                                                  
> 2022  1 25  4  3 14.0000000  0 26                     
G 3                   -151067.507       -1107.731          33.000                      -81274.533        -829.175          17.000  
G26                   -152501.526       -1145.693          30.000                      -62909.339        -854.902          26.000  
G29                      2560.284          -0.008          17.000                                                                  
G31                     25277.953         196.630          36.000                                                                  
G32                    223426.891        1653.876          24.000                                                                  
R 1                                                        16.000  
R 2                                                        34.000  
R 3                                                        26.000  
R12                                                        24.000  
R21                                                        17.000  
R22                                                        13.000  
E 2                     69234.113         705.164          34.000                                                                  
E 7                   -307388.951       -2656.212          19.000                      -66691.479       -1984.113          19.000  
E 8                    -53767.643        -747.965          36.000                       -2529.014        -559.752          24.000  
E30                   -158875.651       -1572.798          34.000                                                                  
J 2                     68655.974         517.226          33.000                       36196.075         385.777          20.000  
C 6                    -48613.126        -540.498          34.000                                                                                                                                  
C 7                    -26901.137        -958.988          20.000                                                                                                                                  
C 9                    -65282.405        -731.144          29.000                                                                                                                                  
C10                    -11791.684        -961.991          23.000                                                                                                                                  
C14                     -1351.807          -2.529          31.000                                                                                                                                  
C21                     62403.883        3221.639          17.000                                                                                                                                  
C24                   -114422.371        -857.952          39.000                                                                                      -60594.039        -646.940          29.000  
C26                     87775.908        1054.984          32.000                                                                                                                                  
C33                   -205395.678       -1544.747          36.000                                                                                                                                  
C35                   -147436.362       -1441.477          27.000                                                                                                                                  
> 2022  1 25  4  3 15.0000000  0 25                     
G 3                   -156895.414       -1107.523          31.000                      -84524.194        -826.053          22.000  
G26                   -158521.732       -1144.881          31.000                      -66265.447        -852.344          22.000  
G29                      2713.434          -0.008          17.000                                                                  
G31                     26313.169         197.097          36.000                                                                  
G32                    232117.249        1655.767          28.000                                                                  
R 1                                                        14.000  
R 2                                                        31.000  
R12                                                        34.000  
R21                                                        17.000  
R22                                                        12.000  
E 2                     72942.090         706.343          29.000                                                                  
E 7                   -321359.382       -2658.429          24.000                      -74481.791       -1984.264          19.000  
E 8                    -57699.458        -747.375          27.000                       -4721.568        -557.568          24.000  
E30                   -167149.099       -1574.125          32.000                       -4358.004       -1176.211          20.000  
J 2                     71380.294         519.568          30.000                       37715.373         387.705          20.000  
C 6                    -51429.659        -539.647          27.000                                                                                                                                  
C 7                    -31890.556        -958.555          17.000                                                                                                                                  
C 9                    -69076.081        -728.963          27.000                                                                                                                                  
C10                    -16803.485        -963.495          25.000                                                                                                                                  
C14                     -1382.983          -4.393          34.000                                                                                                                                  
C21                     79174.972        3217.874          15.000                                                                                                                                  
C24                   -118894.980        -857.285          37.000                                                                                      -63134.528        -647.231          25.000  
C26                     93273.240        1056.725          29.000                                                                                                                                  
C33                   -213440.974       -1543.444          30.000                                                                                                                                  
C35                   -154946.818       -1441.110          19.000                                                                                                                                  
> 2022  1 25  4  3 16.0000000  0 25                     
G 3                   -162725.130       -1109.863          24.000                      -87775.231        -827.125          20.000  
G26                   -164538.847       -1145.810          31.000                      -69617.750        -853.759          24.000  
G29                      2869.986          28.717          18.000                                                                  
G31                     27345.003         196.496          25.000                                                                  
G32                    240816.735        1656.089          35.000                                                                  
R 1                                                        13.000  
R 2                                                        27.000  
R12                                                        26.000  
R21                                                        15.000  
R22                                                        16.000  
E 2                     76648.677         705.555          23.000                                                                  
E 7                   -335316.289       -2654.303          18.000                      -82274.934       -1985.920          17.000  
E 8                    -61627.540        -747.935          25.000                       -6911.669        -554.692          21.000  
E30                   -175415.056       -1572.969          29.000                       -8967.573       -1174.912          22.000  
J 2                     74104.372         516.531          25.000                       39228.088         384.501          18.000  
C 6                    -54247.523        -543.516          21.000                                                                                                                                  
C 7                    -36880.850        -958.165          24.000                                                                                                                                  
C 9                    -72867.842        -726.170          24.000                                                                                                                                  
C10                    -21815.040        -960.504          27.000                                                                                                                                  
C14                     -1408.497          -5.969          26.000                                                                                                                                  
C21                     95938.754        3221.795          14.000                                                                                                                                  
C24                   -123365.866        -855.826          27.000                                                                                      -65673.979        -646.375          25.000  
C26                     98763.559        1052.758          20.000                                                                                                                                  
C33                   -221485.796       -1541.537          24.000                                                                                                                                  
C35                   -162460.992       -1442.293          19.000                                                                                                                                  
> 2022  1 25  4  3 17.0000000  0 25                     
G 3                   -168566.889       -1110.988          24.000                                                                  
G26                   -170557.526       -1145.122          24.000                      -72967.840        -853.154          21.000  
G29                      3023.628          28.810          17.000                                                                  
G32                    249514.797        1655.835          37.000                        8234.234        1237.341          25.000  
R 1                                                        15.000  
R 2                                                        24.000  
R12                                                        19.000  
R21                                                        15.000  
R22                                                        17.000  
E 2                     80362.048         707.356          22.000                                                                  
E 7                   -349259.628       -2652.501          15.000                      -90062.201       -1982.158          16.000  
E 8                    -65552.817        -746.816          22.000                       -9098.734        -556.794          20.000  
E25                     29633.534        2273.130          20.000                                                                  
E30                   -183684.484       -1573.897          27.000                      -13578.344       -1174.618          23.000  
J 2                     76813.482         516.642          27.000                       40737.559         385.537          19.000  
C 6                    -57061.874        -541.078          19.000                                                                                                                                  
C 7                    -41866.671        -957.031          30.000                                                                                                                                  
C 9                    -76658.910          -0.049          19.000                                                                                                                                  
C10                    -26821.520        -961.994          29.000                                                                                                                                  
C14                     -1436.964          -7.558          30.000                                                                                                                                  
C21                    112722.044          -0.013          15.000                                                                                                                                  
C24                   -127834.225        -858.654          30.000                                                                                      -68212.430        -645.719          17.000  
C26                    104241.007          -0.009          22.000                                                                                                                                  
C33                   -229519.879       -1544.301          28.000                                                                                                                                  
C35                   -169949.298       -1434.427          32.000                                                                                                                                  
> 2022  1 25  4  3 18.0000000  0 26                     
G 3                   -174405.882       -1109.771          23.000                                                                  
G26                   -176568.428       -1142.489          31.000                      -76322.408        -853.848          24.000  
G29                      3171.979          28.646          21.000                                                                  
G31                      1447.765         194.821          25.000                                                                  
G32                    258218.087        1656.516          38.000                       13086.655        1236.654          23.000  
R 1                                                        16.000  
R 2                                                        33.000  
R12                                                        23.000  
R21                                                        17.000  
R22                                                        19.000  
E 2                     84082.756         708.072          25.000                                                                  
E 7                   -363199.860       -2653.942          18.000                      -97838.569       -1980.632          14.000  
E 8                    -69477.073        -746.097          26.000                      -11283.627        -557.239          17.000  
E25                     41567.037        2271.312          18.000                                                                  
E30                   -191957.561       -1574.528          32.000                      -18197.637       -1175.142          25.000  
J 2                     79532.869         520.474          27.000                       42248.661         386.465          18.000  
C 6                    -59875.250        -540.299          23.000                                                                                                                                  
C 7                    -46861.089        -958.513          29.000                                                                                                                                  
C 9                    -80477.294          -0.049          25.000                                                                                                                                  
C10                    -31850.898        -967.041          29.000                                                                                                                                  
C14                     -1463.335          -4.619          27.000                                                                                                                                  
C21                    129518.878          -0.013          17.000                                                                                                                                  
C24                                                                                                                                                    -70749.463        -646.554          17.000  
C26                    109719.084          -0.009          24.000                                                                                                                                  
C33                   -237568.222       -1545.554          25.000                                                                                                                                  
C35                   -177426.502       -1437.188          30.000                                                                                                                                  
> 2022  1 25  4  3 19.0000000  0 24                     
G 3                   -180228.800       -1105.397          26.000                                                                  
G26                   -182566.322       -1144.380          29.000                      -79671.736        -852.225          24.000  
G29                      3321.622          26.866          18.000                                                                  
G31                      2482.784         196.166          20.000                                                                  
G32                    266935.937        1660.704          33.000                       17947.210        1239.846          25.000  
R 1                                                        17.000  
R 2                                                        23.000  
R12                                                        23.000  
R21                                                        17.000  
R22                                                        20.000  
E 2                     87806.037         708.916          21.000                                                                  
E 7                   -377152.152       -2655.657          18.000                                                                  
E 8                    -73390.228        -743.379          21.000                      -13472.559        -557.242          17.000  
E25                     53513.053        2275.053          15.000                                                                  
E30                   -200219.829       -1572.859          23.000                      -22806.788       -1179.135          20.000  
J 2                     82272.557         520.015          25.000                       43773.184         391.705          20.000  
C 6                    -62683.091        -539.086          20.000                                                                                                                                  
C 7                    -51829.322        -954.260          26.000                                                                                                                                  
C10                    -36866.675        -963.478          27.000                                                                                                                                  
C14                     -1477.764          -3.247          20.000                                                                                                                                  
C21                    146302.910        3224.317          20.000                                                                                                                                  
C24                                                                                                                                                    -73292.399        -648.374          16.000  
C33                   -245614.517       -1542.890          23.000                                                                                                                                  
C35                   -184903.838       -1432.819          23.000                                                                                                                                  
> 2022  1 25  4  3 20.0000000  0 24                     
G 3                   -186023.718       -1101.368          21.000                                                                  
G26                   -188578.708       -1142.677          30.000                      -83021.156        -850.009          23.000  
G29                      3480.918          33.585          18.000                                                                  
G31                      3522.866         199.390          25.000                                                                  
G32                    275658.877        1660.050          29.000                       22796.755        1238.135          22.000  
R 1                                                        17.000  
R 2                                                        23.000  
R12                                                        23.000  
R21                                                        17.000  
R22                                                        18.000  
E 2                     91530.167         708.590          20.000                                                                  
E 7                   -391113.821       -2655.898          23.000                                                                  
E 8                    -77302.993        -743.645          20.000                      -15659.437        -556.353          17.000  
E25                     65464.634        2274.369          16.000                                                                  
E30                   -208491.572       -1571.349          28.000                      -27413.995       -1173.318          23.000  
J 2                     85003.140         520.021          25.000                       45319.410         394.746          19.000  
C 6                    -65494.999        -539.418          21.000                                                                                                                                  
C 7                    -56806.141        -954.407          30.000                                                                                                                                  
C10                    -41891.249        -960.596          30.000                                                                                                                                  
C14                     -1505.376          -4.960          22.000                                                                                                                                  
C21                    163099.345        3226.435          22.000                                                                                                                                  
C24                                                                                                                                                    -75835.729        -648.441          17.000  
C33                   -253646.357       -1541.713          23.000                                                                                                                                  
C35                   -192368.897       -1437.589          24.000                                                                                                                                  
> 2022  1 25  4  3 21.0000000  0 25                     
G 3                   -191812.180       -1100.994          17.000                                                                  
G26                   -194583.957       -1137.157          29.000                      -86380.441        -853.811          23.000  
G29                      3657.865          34.666          20.000                                                                  
G31                      4582.104         201.085          25.000                                                                  
G32                    284387.130        1663.022          36.000                       27663.812        1240.026          25.000  
R 1                                                        15.000  
R 2                                                        25.000  
R12                                                        28.000  
R21                                                        19.000  
R22                                                        15.000  
E 2                     95254.477         710.286          24.000                                                                  
E 7                   -405059.925       -2654.349          26.000                                                                  
E 8                     -3081.357        -742.459          23.000                      -17840.987        -556.653          19.000  
E25                     77405.265        2269.460          14.000                                                                  
E30                   -216761.345       -1570.299          28.000                      -32023.507       -1176.850          20.000  
J 2                     87744.522         524.582          28.000                       46850.524         391.925          22.000  
C 6                    -68297.281        -536.918          21.000                                                                                                                                  
C 7                    -61789.086        -954.570          30.000                                                                                                                                  
C 9                    -91866.813        -729.117          22.000                                                                                                                                  
C10                    -46915.783        -960.471          31.000                                                                                                                                  
C14                     -1522.351          -2.098          22.000                                                                                                                                  
C21                    179923.059        3231.071          24.000                                                                                                                                  
C26                    126243.852        1056.054          25.000                                                                                                                                  
C33                   -261670.573       -1539.868          25.000                                                                                                                                  
C35                   -199826.852       -1430.196          27.000                                                                                                                                  
> 2022  1 25  4  3 22.0000000  0 26                     
G 3                   -197600.659       -1102.153          17.000                                                                  
G26                   -200577.874       -1137.500          30.000                      -89721.596        -850.240          22.000  
G29                      3836.928          -0.008          22.000                                                                  
G31                      5641.746         201.102          25.000                                                                  
G32                    293115.152        1661.148          30.000                       32535.643        1239.218          24.000  
R 1                                                        17.000  
R 2                                                        25.000  
R 3                                                        22.000  
R12                                                        23.000  
R21                                                        17.000  
R22                                                        16.000  
E 2                     98991.389         710.652          23.000                                                                  
E 7                   -418994.780       -2652.242          20.000                                                                  
E 8                     -6985.589        -742.136          23.000                      -20022.208        -555.028          18.000  
E25                     89331.499        2270.008          16.000                                                                  
E30                   -225028.829       -1570.281          27.000                      -36635.801       -1170.381          19.000  
J 2                     90499.825         521.720          26.000                       48379.597         388.333          22.000  
C 6                    -71090.699        -536.658          20.000                                                                                                                                  
C 7                    -66772.035        -954.561          27.000                                                                                                                                  
C 9                    -95661.120        -727.651          21.000                                                                                                                                  
C10                    -51945.910        -964.579          29.000                                                                                                                                  
C14                     -1533.711           0.163          28.000                                                                                                                                  
C21                    196751.559        3232.318          21.000                                                                                                                                  
C26                    131757.555        1059.585          30.000                                                                                                                                  
C33                   -269683.770          -0.000          23.000                                                                                                                                  
C35                   -207269.624       -1431.682          28.000                                                                                                                                  
> 2022  1 25  4  3 23.0000000  0 26                     
G 3                   -203399.507       -1102.740          18.000                                                                  
G26                   -206577.989       -1140.779          29.000                      -93058.831        -849.156          21.000  
G29                      4028.871          -0.008          20.000                                                                  
G31                      6694.803         202.145          28.000                                                                  
G32                    301838.383        1662.050          37.000                       37400.690        1241.198          22.000  
R 1                                                        16.000  
R 2                                                        21.000  
R 3                                                        23.000  
R12                                                        32.000  
R21                                                        18.000  
R22                                                        13.000  
E 2                    102721.834         709.989          27.000                        4239.951         529.062          20.000  
E 7                   -432941.278       -2655.578          20.000                                                                  
E 8                    -10898.277        -743.877          23.000                      -22203.052        -556.435          20.000  
E25                    101251.516        2268.990          13.000                                                                  
E30                   -233298.296       -1573.049          24.000                      -41238.441       -1174.710          19.000  
J 2                     93234.453         521.195          33.000                       49903.579         389.416          22.000  
C 6                    -73887.239        -537.037          26.000                                                                                                                                  
C 7                    -71770.410        -961.743          19.000                                                                                                                                  
C 9                    -99452.085        -727.034          25.000                                                                                                                                  
C10                    -56983.136        -968.531          20.000                                                                                                                                  
C14                     -1544.675          -2.493          26.000                                                                                                                                  
C21                    213584.257        3232.667          17.000                                                                                                                                  
C26                    137279.197        1062.756          27.000                                                                                                                                  
C33                   -277697.544       -1540.641          26.000                                                                                                                                  
C35                   -214712.505       -1428.306          27.000                                                                                                                                  
> 2022  1 25  4  3 24.0000000  0 26                     
G 3                   -209192.031       -1102.312          16.000                                                                  
G26                   -212547.742       -1136.630          34.000                      -96380.935        -845.639          24.000  
G29                      4232.652          38.859          23.000                                                                  
G31                      7777.559         206.193          29.000                                                                  
G32                    310582.012        1660.451          34.000                       42274.315        1239.225          22.000  
R 1                                                        16.000  
R 2                                                        28.000  
R12                                                        27.000  
R21                                                        15.000  
R22                                                        13.000  
E 2                    106465.208         712.819          23.000                        6333.511         532.377          20.000  
E 7                   -446886.518       -2652.623          17.000                                                                  
E 8                    -14795.517        -739.089          24.000                      -24370.594        -551.546          19.000  
E25                    113175.443        2269.395          12.000                                                                  
E30                   -241551.284       -1566.775          32.000                      -45840.046       -1172.054          23.000  
J 2                     95987.025         524.314          29.000                       51436.810         393.060          20.000  
C 6                    -76678.950        -533.824          22.000                                                                                                                                  
C 7                    -76750.613        -951.500          28.000                                                                                                                                  
C 9                   -103226.627        -721.420          24.000                                                                                                                                  
C10                    -62013.122        -961.587          29.000                                                                                                                                  
C14                     -1534.616           6.330          28.000                                                                                                                                  
C21                    230401.495        3224.838          20.000                                                                                                                                  
C24                     -6056.202        -853.436          29.000                                                                                                                                  
C26                    142809.507        1060.810          22.000                                                                                                                                  
C33                   -285706.738       -1535.500          21.000                                                                                                                                  
C35                   -222147.931       -1427.773          21.000                                                                                                                                  
> 2022  1 25  4  3 25.0000000  0 27                     
G 3                   -214978.591       -1100.487          16.000                                                                  
G26                   -218531.676       -1133.867          32.000                      -99717.914        -844.469          22.000  
G29                      4439.121          -0.008          24.000                                                                  
G31                      8850.074         202.544          23.000                                                                  
G32                    319327.327        1665.446          34.000                       47140.442        1242.526          24.000  
R 1                                                        18.000  
R 2                                                        27.000  
R12                                                        30.000  
R21                                                        16.000  
R22                                                        12.000  
E 2                    110217.542         713.357          23.000                        8424.069         532.471          17.000  
E 7                   -460833.572       -2655.960          18.000                                                                  
E 8                    -18681.616        -739.200          22.000                      -26536.190        -554.267          20.000  
E25                    125106.249        2271.440          13.000                                                                  
E30                   -249804.015       -1567.685          29.000                      -50439.979       -1166.295          20.000  
J 2                     98742.633         523.481          24.000                       52970.875         390.346          21.000  
C 1                      -637.157         -99.366          27.000                                                                                                                                  
C 6                    -79466.144        -536.168          22.000                                                                                                                                  
C 7                    -81727.758        -952.706          29.000                                                                                                                                  
C 9                   -107002.449          -0.049          22.000                                                                                                                                  
C10                    -67034.803        -958.909          32.000                                                                                                                                  
C14                     -1508.814           5.487          26.000                                                                                                                                  
C21                    247204.841        3227.998          20.000                                                                                                                                  
C24                    -10505.995        -853.780          23.000                                                                                                                                  
C26                    148333.986        1061.559          26.000                                                                                                                                  
C33                   -293706.600       -1536.229          16.000                                                                                                                                  
C35                   -229580.099       -1427.340          24.000                                                                                                                                  
> 2022  1 25  4  3 26.0000000  0 28                     
G 3                   -220760.789          -0.025          14.000                                                                  
G26                   -224513.430       -1136.058          28.000                     -103048.657        -846.630          21.000  
G29                      4657.640          41.729          19.000                                                                  
G31                      9900.829         202.651          27.000                                                                  
G32                    328071.830        1665.172          38.000                       52019.274        1241.860          25.000  
R 1                                                        17.000  
R 2                                                        26.000  
R 3                                                        21.000  
R12                                                        28.000  
R21                                                        17.000  
R22                                                        14.000  
E 2                    113963.700         713.515          23.000                       10517.590         532.233          17.000  
E 7                   -474793.368       -2655.392          18.000                                                                  
E 8                    -22574.460        -739.185          25.000                      -28701.625        -551.672          17.000  
E25                    137048.531        2273.299          12.000                                                                  
E30                   -258055.066       -1567.606          26.000                      -55024.706       -1172.952          20.000  
J 2                    101496.138         523.899          25.000                       54505.674         389.416          21.000  
C 1                     -1141.006        -109.291          27.000                                                                                                                                  
C 6                    -82259.639        -535.901          22.000                                                                                                                                  
C 7                    -86705.783        -953.600          30.000                                                                                                                                  
C 9                   -110785.890        -728.623          22.000                                                                                                                                  
C10                    -72039.432        -959.958          29.000                                                                                                                                  
C14                     -1497.176           3.490          25.000                                                                                                                                  
C21                    264026.577        3230.318          17.000                                                                                                                                  
C24                    -14947.197           0.001          20.000                                                                                                                                  
C26                    153854.718        1060.583          26.000                                                                                                                                  
C33                   -301706.710       -1536.221          17.000                                                                                                                                  
C35                   -237022.920       -1430.525          20.000                                                                                                                                  
> 2022  1 25  4  3 27.0000000  0 27                     
G 3                   -226547.390          -0.025          17.000                                                                  
G26                   -230492.058       -1135.162          32.000                     -106370.282        -846.292          21.000  
G29                      4878.976          -0.008          20.000                                                                  
G31                     10960.361         202.645          25.000                                                                  
G32                    336823.002        1667.145          37.000                       56899.280        1242.776          23.000  
R 1                                                        16.000  
R 2                                                        28.000  
R12                                                        23.000  
R21                                                        17.000  
R22                                                        14.000  
E 2                    117713.455         714.144          21.000                       12608.564         532.527          17.000  
E 7                   -488730.822       -2651.471          18.000                                                                  
E 8                    -26458.772        -738.191          22.000                      -30864.991        -551.341          18.000  
E25                    148998.805        2275.688          14.000                                                                  
E30                   -266307.643       -1566.952          24.000                      -59626.299       -1171.556          18.000  
J 2                    104250.925         527.428          27.000                       56030.800         389.145          20.000  
C 1                     -1669.374         -87.121          30.000                                                                                                                                  
C 6                    -85056.197        -537.037          21.000                                                                                                                                  
C 7                    -91679.709        -951.262          30.000                                                                                                                                  
C 9                   -114575.269        -726.899          19.000                                                                                                                                  
C10                    -77050.605        -959.210          32.000                                                                                                                                  
C14                     -1486.464           3.881          29.000                                                                                                                                  
C21                    280850.632        3230.203          17.000                                                                                                                                  
C24                    -19374.060           0.001          21.000                                                                                                                                  
C26                    159370.533        1060.456          26.000                                                                                                                                  
C33                   -309708.375          -0.000          17.000                                                                                                                                  
C35                   -244467.240       -1428.895          22.000                                                                                                                                  
> 2022  1 25  4  3 28.0000000  0 28                     
G 3                   -232321.828          -0.025          16.000                                                                  
G26                   -236466.259       -1136.401          30.000                     -109692.958        -842.875          23.000  
G29                      5095.564          42.704          25.000                                                                  
G31                     12017.280         201.460          21.000                                                                  
G32                    345575.056        1666.779          36.000                       61781.701        1245.187          25.000  
R 1                                                        14.000  
R 2                                                        24.000  
R 3                                                        26.000  
R12                                                        28.000  
R21                                                        17.000  
R22                                                        14.000  
E 2                    121457.079         713.802          23.000                       14701.282         533.433          19.000  
E 7                   -502669.271       -2653.092          18.000                                                                  
E 8                    -30342.358        -739.418          21.000                      -33029.340        -551.559          18.000  
E25                    160960.891        2276.677          13.000                                                                  
E30                   -274562.716       -1569.904          23.000                      -64220.894       -1170.575          18.000  
J 2                    107012.124         521.320          26.000                       57561.033         391.137          22.000  
C 1                     -2078.541         -77.688          28.000                                                                                                                                  
C 6                    -87848.881        -535.266          20.000                                                                                                                                  
C 7                    -96647.087        -950.750          28.000                                                                                                                                  
C 9                   -118372.510        -726.337          20.000                                                                                                                                  
C10                    -82061.027        -959.823          30.000                                                                                                                                  
C14                     -1476.967           3.270          25.000                                                                                                                                  
C21                    297671.236        3230.380          18.000                                                                                                                                  
C24                    -23800.618        -850.724          27.000                                                                                                                                  
C26                    164881.201        1058.193          23.000                                                                                                                                  
C33                   -317704.087          -0.000          17.000                                                                                                                                  
C35                   -251903.038       -1427.436          20.000                                                                                                                                  
> 2022  1 25  4  3 29.0000000  0 27                     
G 3                   -238098.261          -0.025          17.000                                                                  
G26                   -242426.509       -1128.678          31.000                     -113015.514        -845.593          22.000  
G29                      5328.550          44.368          27.000                                                                  
G31                     13081.718         204.635          25.000                                                                  
G32                    354331.839        1670.004          37.000                       66665.275        1246.555          24.000  
R 1                                                        15.000  
R 2                                                        25.000  
R12                                                        30.000  
R21                                                        17.000  
R22                                                        13.000  
E 2                    125214.141         715.107          24.000                       16798.754         534.261          17.000  
E 7                   -516626.024       -2656.493          16.000                                                                  
E 8                    -34231.600        -737.097          21.000                      -35193.049        -551.627          17.000  
E25                    172930.300        2278.850          12.000                                                                  
E30                   -282808.417       -1562.644          23.000                      -68817.373       -1172.139          17.000  
J 2                    109761.473         524.885          28.000                       59091.613         389.049          21.000  
C 1                     -2499.512         -72.366          28.000                                                                                                                                  
C 6                    -90648.673           0.100          24.000                                                                                                                                  
C 7                   -101606.932        -948.865          28.000                                                                                                                                  
C 9                   -122159.543          -0.049          21.000                                                                                                                                  
C10                    -87079.246        -962.327          30.000                                                                                                                                  
C14                     -1457.799           7.286          29.000                                                                                                                                  
C21                    314494.444        3230.311          20.000                                                                                                                                  
C24                    -28233.866        -850.719          29.000                                                                                                                                  
C26                    170398.703        1060.585          30.000                                                                                                                                  
C33                   -325701.010          -0.000          18.000                                                                                                                                  
C35                   -259332.426       -1427.501          19.000                                                                                                                                  
> 2022  1 25  4  3 30.0000000  0 27                     
G 3                   -243878.292          -0.025          16.000                                                                  
G26                   -248367.663       -1129.960          31.000                     -116336.700        -843.692          23.000  
G29                      5580.242          50.056          25.000                                                                  
G31                     14160.317         206.153          24.000                                                                  
G32                    363091.930        1671.138          36.000                       71553.427        1244.858          26.000  
R 1                                                        16.000  
R 2                                                        23.000  
R12                                                        23.000  
R21                                                        17.000  
R22                                                        15.000  
E 2                    128974.100         715.367          25.000                       18896.826         533.518          18.000  
E 7                   -530578.612       -2654.322          18.000                                                                  
E 8                    -38110.953        -736.761          22.000                      -37364.477        -554.733          17.000  
E25                    184906.786        2279.240          12.000                                                                  
E30                   -291055.916       -1569.769          20.000                      -73412.185       -1173.085          15.000  
J 2                    112519.974         523.231          26.000                       60622.795         387.713          21.000  
C 1                     -2820.063         -62.932          31.000                                                                                                                                  
C 6                    -93444.221        -536.302          23.000                                                                                                                                  
C 7                   -106572.575        -953.265          29.000                                                                                                                                  
C 9                   -125942.347        -725.550          20.000                                                                                                                                  
C10                    -92089.190        -957.398          33.000                                                                                                                                  
C14                     -1432.857           4.040          24.000                                                                                                                                  
C21                    331325.845        3232.122          17.000                                                                                                                                  
C24                    -32668.751        -850.025          34.000                                                                                                                                  
C26                    175929.734        1064.466          23.000                                                                                                                                  
C33                   -333700.011          -0.000          19.000                                                                                                                                  
C35                   -266767.799       -1427.087          19.000                                                                                                                                  
> 2022  1 25  4  3 31.0000000  0 27                     
G 3                   -249665.040          -0.025          16.000                                                                  
G26                   -254322.313       -1128.931          32.000                     -119658.999        -842.557          22.000  
G29                      5845.793          47.880          29.000                                                                  
G31                     15239.042         203.754          25.000                                                                  
G32                    371859.147        1668.672          32.000                       76438.201        1246.693          25.000  
R 1                                                        15.000  
R 2                                                        25.000  
R12                                                        28.000  
R21                                                        15.000  
R22                                                        14.000  
E 2                    132733.870         715.848          25.000                       20995.913         535.966          18.000  
E 7                   -544528.732       -2652.896          17.000                                                                  
E 8                    -41981.985        -736.398          23.000                      -39532.133        -552.565          17.000  
E25                    196886.354        2280.010          13.000                                                                  
E30                   -299305.543       -1570.741          18.000                      -78018.190       -1174.086          14.000  
J 2                    115269.534         524.409          28.000                       62158.378         390.756          21.000  
C 1                     -3167.603         -66.129          27.000                                                                                                                                  
C 6                    -96230.071        -534.010          20.000                                                                                                                                  
C 7                   -111541.349        -951.162          28.000                                                                                                                                  
C 9                   -129714.887          -0.049          20.000                                                                                                                                  
C10                    -97096.395        -956.876          31.000                                                                                                                                  
C14                     -1406.243          10.297          25.000                                                                                                                                  
C21                    348149.434        3231.040          18.000                                                                                                                                  
C24                    -37120.599        -853.513          31.000                                                                                                                                  
C26                    181474.289          -0.009          24.000                                                                                                                                  
C33                   -341697.881          -0.000          17.000                                                                                                                                  
C35                   -274202.911       -1425.729          26.000                                                                                                                                  
> 2022  1 25  4  3 32.0000000  0 26                     
G 3                   -255446.450          -0.025          15.000                                                                  
G26                   -260273.664       -1136.164          28.000                     -122973.172        -844.471          23.000  
G29                      6113.314          49.457          31.000                                                                  
G31                     16313.637         210.618          19.000                                                                  
G32                    380615.348        1669.327          35.000                       81329.200        1249.214          26.000  
R 1                                                        15.000  
R 2                                                        24.000  
R 3                                                        19.000  
R12                                                        27.000  
R21                                                        16.000  
R22                                                        13.000  
E 2                    136497.590         716.051          24.000                       23099.415         533.938          19.000  
E 7                   -558477.563       -2653.753          11.000                                                                  
E 8                    -45862.233        -736.537          21.000                      -41693.828        -549.966          17.000  
E30                   -307554.769       -1570.388          16.000                      -82631.700       -1177.925          13.000  
J 2                    118022.821         523.888          28.000                       63691.937         388.969          22.000  
C 1                     -3532.727         -78.896          27.000                                                                                                                                  
C 6                    -99009.611        -532.961          23.000                                                                                                                                  
C 7                   -116521.356        -952.834          28.000                                                                                                                                  
C 9                   -133485.591        -723.321          24.000                                                                                                                                  
C10                   -102103.371        -961.399          29.000                                                                                                                                  
C14                     -1364.418           8.502          20.000                                                                                                                                  
C21                    364973.967        3230.929          17.000                                                                                                                                  
C24                    -41556.579        -851.286          23.000                                                                                                                                  
C26                    187013.497        1062.198          27.000                                                                                                                                  
C35                   -281632.704       -1428.330          29.000                                                                                                                                  
> 2022  1 25  4  3 33.0000000  0 25                     
G 3                   -261226.413          -0.025          14.000                                                                  
G26                   -266240.449       -1132.096          32.000                     -126292.659        -841.338          22.000  
G29                      6385.476          52.075          28.000                                                                  
G31                     17414.946         207.728          25.000                                                                  
G32                    389384.739        1671.483          35.000                       86225.356        1245.163          25.000  
R 1                                                        16.000  
R 2                                                        26.000  
R 3                                                        20.000  
R12                                                        23.000  
R21                                                        15.000  
E 2                    140264.657         717.186          23.000                       25200.478         533.963          17.000  
E 7                   -572422.195       -2653.087          14.000                                                                  
E 8                    -49732.181        -734.768          22.000                      -43844.006        -546.114          17.000  
E30                   -315794.067       -1568.847          15.000                                                                  
J 2                    120781.286         521.302          31.000                       65224.114         388.957          23.000  
C 1                     -3937.938         -63.793          26.000                                                                                                                                  
C 6                   -101788.088        -534.547          22.000                                                                                                                                  
C 7                   -121488.457        -951.707          27.000                                                                                                                                  
C 9                   -137254.979          -0.049          20.000                                                                                                                                  
C10                   -107110.296        -958.499          29.000                                                                                                                                  
C14                     -1323.668           8.633          24.000                                                                                                                                  
C21                    381803.665        3231.927          16.000                                                                                                                                  
C24                    -45998.373        -851.880          21.000                                                                                                                                  
C26                    192544.209        1064.408          27.000                                                                                                                                  
C35                   -289058.892       -1430.736          31.000                                                                                                                                  
> 2022  1 25  4  3 34.0000000  0 24                     
G 3                   -266990.049          -0.025          15.000                                                                  
G26                   -272192.702       -1127.168          32.000                     -129603.461        -842.788          23.000  
G29                      6655.691          45.638          27.000                                                                  
G31                     18494.147         203.913          23.000                                                                  
G32                    398153.985        1669.469          30.000                       91117.745        1250.410          23.000  
R 1                                                        16.000  
R 2                                                        26.000  
R12                                                        29.000  
R21                                                        15.000  
E 2                    144030.158         716.246          25.000                       27299.587         537.155          19.000  
E 7                   -586364.034       -2652.732          12.000                                                                  
E 8                    -53595.081        -735.731          23.000                      -45991.532        -550.467          19.000  
E30                   -324031.132       -1565.203          11.000                                                                  
J 2                    123528.345         525.501          29.000                       66759.479         391.031          24.000  
C 1                     -4339.780         -75.519          26.000                                                                                                                                  
C 6                   -104575.621        -535.044          21.000                                                                                                                                  
C 7                   -126459.406        -950.680          31.000                                                                                                                                  
C 9                   -141027.790        -722.369          21.000                                                                                                                                  
C10                   -112121.141        -960.039          31.000                                                                                                                                  
C14                     -1279.256          12.239          21.000                                                                                                                                  
C21                    398628.440        3230.356          17.000                                                                                                                                  
C24                    -50420.721        -848.601          17.000                                                                                                                                  
C26                    198101.300        1065.242          24.000                                                                                                                                  
C35                   -296486.033       -1427.459          31.000                                                                                                                                  
> 2022  1 25  4  3 35.0000000  0 23                     
G26                   -278133.411       -1129.362          31.000                     -132913.857        -843.771          23.000  
G29                      6906.425          49.880          27.000                                                                  
G31                     19570.676         205.268          22.000                                                                  
G32                    406931.544        1674.260          29.000                       96024.352        1248.276          19.000  
R 1                                                        16.000  
R 2                                                        26.000  
R12                                                        23.000  
R21                                                        16.000  
E 2                    147796.161         715.594          22.000                       29405.515         535.631          18.000  
E 7                   -600304.572       -2653.543          12.000                                                                  
E 8                    -57476.979        -735.045          23.000                      -48152.241        -550.999          18.000  
E30                   -332262.991       -1566.069          12.000                                                                  
J 2                    126286.442         521.822          27.000                       68295.515         392.427          20.000  
C 1                     -4707.864         -82.977          26.000                                                                                                                                  
C 6                   -107362.486        -533.916          25.000                                                                                                                                  
C 7                   -131417.674        -951.705          30.000                                                                                                                                  
C 9                   -144792.829        -723.642          20.000                                                                                                                                  
C10                   -117124.857        -956.943          32.000                                                                                                                                  
C14                     -1225.570           8.026          24.000                                                                                                                                  
C21                    415455.169        3231.158          18.000                                                                                                                                  
C24                    -54844.729           0.001          17.000                                                                                                                                  
C26                    203651.533        1065.862          23.000                                                                                                                                  
C35                   -303903.078       -1427.771          29.000                                                                                                                                  
> 2022  1 25  4  3 36.0000000  0 23                     
G26                   -284079.954       -1128.490          29.000                     -136231.321        -845.831          19.000  
G29                      7173.811          51.660          27.000                                                                  
G31                     20645.829         205.991          26.000                                                                  
G32                    415713.650        1671.144          35.000                      100920.759        1245.534          22.000  
R 1                                                        16.000  
R 2                                                        23.000  
R12                                                        26.000  
R21                                                        16.000  
E 2                    151558.808         716.721          23.000                       31503.080         533.638          18.000  
E 7                   -614248.309       -2652.760           8.000                                                                  
E 8                    -61338.694        -733.629          23.000                      -50316.594        -551.286          18.000  
E30                   -340491.456       -1565.604          13.000                                                                  
J 2                    129038.733         523.085          29.000                       69830.294         389.501          22.000  
C 1                     -5080.546         -63.462          24.000                                                                                                                                  
C 6                   -110141.510        -534.898          23.000                                                                                                                                  
C 7                   -136387.670        -951.166          29.000                                                                                                                                  
C 9                   -148561.034        -723.443          21.000                                                                                                                                  
C10                   -122126.372        -958.253          29.000                                                                                                                                  
C14                     -1189.724           5.309          20.000                                                                                                                                  
C21                    432286.554        3233.243          17.000                                                                                                                                  
C24                    -59263.930           0.001          19.000                                                                                                                                  
C26                    209202.626        1064.680          25.000                                                                                                                                  
C35                   -311325.133       -1426.928          30.000                                                                                                                                  
> 2022  1 25  4  3 37.0000000  0 24                     
G26                   -290014.489       -1127.736          29.000                     -139542.592        -842.465          20.000  
G29                      7445.903          49.003          29.000                                                                  
G31                     21704.016         198.756          23.000                                                                  
G32                    424494.931        1670.877          35.000                      105816.173        1247.845          24.000  
R 1                                                        14.000  
R 2                                                        21.000  
R12                                                        25.000  
R21                                                        16.000  
E 2                    155328.776         717.143          21.000                       33605.981         536.418          19.000  
E 7                   -628187.432       -2652.218           8.000                                                                  
E 8                    -65195.801        -733.052          20.000                      -52480.846        -552.280          17.000  
E30                   -348718.251       -1564.669          13.000                                                                  
J 2                    131789.329         523.019          30.000                       71364.380         387.814          23.000  
C 1                     -5354.706         -56.013          23.000                                                                                                                                  
C 6                   -112929.244        -535.965          22.000                                                                                                                                  
C 7                   -141351.303        -949.971          30.000                                                                                                                                  
C 9                   -152332.161        -724.450          21.000                                                                                                                                  
C10                   -127125.836        -958.048          31.000                                                                                                                                  
C14                     -1148.409           9.940          20.000                                                                                                                                  
C21                    449129.876        3234.715          18.000                                                                                                                                  
C24                    -63692.118        -851.299          20.000                                                                                                                                  
C26                    214753.051        1062.750          29.000                                                                                                                                  
C33                    -11217.242       -1530.249          19.000                                                                                                                                  
C35                   -318746.750       -1423.548          27.000                                                                                                                                  
> 2022  1 25  4  3 38.0000000  0 23                     
G26                   -295952.098       -1125.165          31.000                     -142846.488        -841.613          21.000  
G29                      7720.350          51.111          29.000                                                                  
G31                     22757.270         199.452          22.000                                                                  
G32                    433274.566        1673.269          35.000                      110710.902        1247.849          23.000  
R 1                                                        15.000  
R 2                                                        22.000  
R12                                                        25.000  
R21                                                        14.000  
E 2                    159094.801         717.872          22.000                       35706.584         533.692          18.000  
E 7                   -642124.778       -2652.097           7.000                                                                  
E 8                    -69051.379        -733.079          23.000                      -54642.288        -549.317          17.000  
E30                   -356941.859       -1565.252          11.000                                                                  
J 2                    134538.068         522.953          29.000                       72900.108         392.625          22.000  
C 6                   -115719.518        -535.087          21.000                                                                                                                                  
C 7                   -146307.419        -950.726          28.000                                                                                                                                  
C 9                   -156116.988        -727.059          20.000                                                                                                                                  
C10                   -132133.374        -959.139          28.000                                                                                                                                  
C14                     -1090.651          11.501          26.000                                                                                                                                  
C21                    465978.074        3234.886          19.000                                                                                                                                  
C24                    -68130.449        -851.773          20.000                                                                                                                                  
C26                    220278.751        1062.635          24.000                                                                                                                                  
C33                    -19184.340          -0.000          20.000                                                                                                                                  
C35                   -326153.026       -1426.971          26.000                                                                                                                                  
> 2022  1 25  4  3 39.0000000  0 23                     
G26                   -301881.345       -1128.233          30.000                     -146149.388        -837.069          21.000  
G29                      7995.226          51.045          27.000                                                                  
G31                     23813.599         203.057          21.000                                                                  
G32                    442065.904        1673.867          33.000                      115612.073        1246.175          22.000  
R 1                                                        14.000  
R 2                                                        24.000  
R12                                                        27.000  
R21                                                        17.000  
E 2                    162867.967         717.595          23.000                       37802.780         535.584          18.000  
E 7                   -656062.378       -2652.143           8.000                                                                  
E 8                    -72917.239        -733.626          27.000                      -56789.186        -546.730          17.000  
E30                   -365165.347       -1564.748           9.000                                                                  
J 2                    137291.499         523.601          28.000                       74433.792         388.420          21.000  
C 6                   -118499.209        -533.224          25.000                                                                                                                                  
C 7                   -151271.147        -951.327          26.000                                                                                                                                  
C 9                   -159906.508        -727.280          20.000                                                                                                                                  
C10                   -137142.933        -960.278          27.000                                                                                                                                  
C14                     -1034.257          12.325          20.000                                                                                                                                  
C21                    482809.405        3233.363          18.000                                                                                                                                  
C24                    -72566.667           0.001          18.000                                                                                                                                  
C26                    225815.300        1063.462          25.000                                                                                                                                  
C33                    -27148.826       -1528.756          19.000                                                                                                                                  
C35                   -333585.828       -1427.524          25.000                                                                                                                                  
> 2022  1 25  4  3 40.0000000  0 23                     
G26                   -307816.070       -1124.100          29.000                     -149443.263        -842.260          18.000  
G29                      8279.351          51.228          30.000                                                                  
G31                     24889.075         207.743          23.000                                                                  
G32                    450859.015        1676.615          30.000                      120514.409        1253.284          18.000  
R 1                                                        15.000  
R 2                                                        24.000  
R12                                                        22.000  
R21                                                        13.000  
E 2                    166636.172         717.136          25.000                       39906.328         536.096          17.000  
E 7                   -669996.691       -2651.201           8.000                                                                  
E 8                    -76780.206        -733.657          22.000                      -58937.472        -548.441          17.000  
E30                   -373390.791       -1565.586           9.000                                                                  
J 2                    140040.869         525.374          31.000                       75962.680         390.150          22.000  
C 6                   -121282.464        -533.114          20.000                                                                                                                                  
C 7                   -156239.120        -952.068          25.000                                                                                                                                  
C 9                   -163697.578        -726.139          19.000                                                                                                                                  
C10                   -142154.343        -957.029          30.000                                                                                                                                  
C14                      -981.517           9.932          19.000                                                                                                                                  
C21                    499653.108        3232.090          22.000                                                                                                                                  
C24                    -77007.277           0.001          19.000                                                                                                                                  
C26                    231351.677        1062.573          25.000                                                                                                                                  
C33                    -35107.275       -1527.782          23.000                                                                                                                                  
C35                   -341009.934       -1425.306          21.000                                                                                                                                  
> 2022  1 25  4  3 41.0000000  0 23                     
G26                   -313744.050       -1129.474          30.000                     -152743.292        -839.373          22.000  
G29                      8567.556          52.326          26.000                                                                  
G31                     25970.821         206.010          23.000                                                                  
G32                    459667.571        1673.894          24.000                      125429.450        1251.024          17.000  
R 1                                                        15.000  
R 2                                                        23.000  
R12                                                        27.000  
R21                                                        15.000  
E 2                    170408.299         719.246          20.000                       42012.073         536.571          17.000  
E 7                   -683927.920       -2650.940          10.000                                                                  
E 8                    -80637.656        -734.067          22.000                      -61094.955        -550.193          18.000  
E30                   -381619.960       -1566.292           9.000                                                                  
J 2                    142800.782         525.155          26.000                       77498.207         389.339          20.000  
C 6                   -124065.526        -535.637          26.000                                                                                                                                  
C 7                   -161207.863        -953.180          26.000                                                                                                                                  
C 9                   -167481.849        -727.102          20.000                                                                                                                                  
C10                   -147163.406        -960.377          28.000                                                                                                                                  
C14                      -923.099          11.866          24.000                                                                                                                                  
C21                    516486.808        3232.389          18.000                                                                                                                                  
C24                    -81452.474           0.001          17.000                                                                                                                                  
C26                    236888.322        1063.952          23.000                                                                                                                                  
C33                    -43061.997       -1527.727          26.000                                                                                                                                  
C35                   -348432.843           0.027          20.000                                                                                                                                  
> 2022  1 25  4  3 42.0000000  0 24                     
G26                   -319685.454       -1123.975          24.000                     -156028.204        -836.101          19.000  
G29                      8850.503          55.106          23.000                                                                  
G31                     27046.447         204.902          23.000                                                                  
G32                    468460.621        1673.488          21.000                      130339.187        1250.333          14.000  
R 1                                                        14.000  
R 2                                                        24.000  
R 3                                                        15.000  
R12                                                        25.000  
R21                                                        16.000  
E 2                    174180.269         717.235          21.000                       44122.695         537.425          17.000  
E 7                   -697857.922       -2650.558           9.000                                                                  
E 8                    -84492.476        -734.346          23.000                      -63250.524        -548.929          18.000  
E30                   -389852.043       -1566.254          10.000                                                                  
J 2                    145549.497         523.693          24.000                       79027.372         388.783          20.000  
C 6                   -126852.482        -535.999          24.000                                                                                                                                  
C 7                   -166171.150        -950.603          25.000                                                                                                                                  
C 9                   -171266.013        -726.840          24.000                                                                                                                                  
C10                   -152166.394        -958.160          30.000                                                                                                                                  
C14                      -861.040          12.941          20.000                                                                                                                                  
C21                    533327.729        3233.605          18.000                                                                                                                                  
C24                    -85905.762           0.001          16.000                                                                                                                                  
C26                    242422.305        1061.873          22.000                                                                                                                                  
C33                    -51027.840       -1528.780          25.000                                                                                                                                  
C35                   -355856.646       -1424.964          19.000                                                                                                                                  
> 2022  1 25  4  3 43.0000000  0 26                     
G 3                    -11855.354       -1086.430          17.000                                                                  
G26                   -325603.740       -1125.955          25.000                     -159314.042        -837.799          17.000  
G29                      9142.548          54.879          26.000                                                                  
G31                     28139.080         207.544          24.000                                                                  
G32                    477258.207        1673.378          19.000                      135253.231        1252.457          13.000  
R 1                                                        15.000  
R 2                                                        21.000  
R 3                                                        17.000  
R12                                                        30.000  
R21                                                        17.000  
E 2                    177955.319         718.320          26.000                       46229.089         535.477          18.000  
E 7                   -711785.776       -2649.908           9.000                                                                  
E 8                    -88346.148        -733.383          23.000                      -65405.080        -547.059          17.000  
E25                    103317.332        2280.300          14.000                                                                  
E30                   -398082.903       -1566.252          10.000                                                                  
J 2                    148302.850         522.954          28.000                       80560.687         388.130          24.000  
C 6                   -129640.432        -533.882          23.000                                                                                                                                  
C 7                   -171137.531        -951.440          25.000                                                                                                                                  
C 9                   -175050.682        -725.755          22.000                                                                                                                                  
C10                   -157173.886        -957.575          28.000                                                                                                                                  
C14                      -799.658          12.772          18.000                                                                                                                                  
C21                    550162.849        3232.469          18.000                                                                                                                                  
C24                    -90359.757           0.001          17.000                                                                                                                                  
C26                    247957.927        1064.264          25.000                                                                                                                                  
C33                    -58996.419       -1530.374          19.000                                                                                                                                  
C35                   -363270.805       -1423.232          24.000                                                                                                                                  
> 2022  1 25  4  3 44.0000000  0 25                     
G26                   -331527.350       -1127.659          24.000                     -162605.911        -838.782          16.000  
G29                      9438.252          54.563          25.000                                                                  
G31                     29228.785         205.002          23.000                                                                  
G32                    486059.140        1673.529          20.000                      140167.539        1253.118          14.000  
R 1                                                        18.000  
R 2                                                        25.000  
R 3                                                        19.000  
R12                                                        21.000  
R21                                                        16.000  
E 2                    181731.976         718.451          27.000                       48331.668         536.485          16.000  
E 7                   -725708.921       -2648.813           9.000                                                                  
E 8                    -92189.503        -731.780          20.000                      -67549.613        -547.818          17.000  
E25                    115298.548        2279.956          13.000                                                                  
E30                   -406315.124       -1566.711           9.000                                                                  
J 2                    151058.409         523.330          29.000                       82086.000         388.032          21.000  
C 6                   -132434.381        -535.786          23.000                                                                                                                                  
C 7                   -176105.418        -950.296          24.000                                                                                                                                  
C 9                   -178833.975        -726.108          19.000                                                                                                                                  
C10                   -162168.486        -956.185          27.000                                                                                                                                  
C14                      -736.028          12.290          20.000                                                                                                                                  
C21                    566993.986        3232.523          17.000                                                                                                                                  
C24                    -94810.798           0.001          17.000                                                                                                                                  
C26                    253500.433        1063.571          29.000                                                                                                                                  
C33                    -66971.679       -1531.613          18.000                                                                                                                                  
C35                   -370681.350       -1423.701          22.000                                                                                                                                  
> 2022  1 25  4  3 45.0000000  0 25                     
G 3                    -23292.969       -1087.030          17.000                                                                  
G26                   -337451.199       -1125.222          24.000                     -165890.113        -838.157          19.000  
G29                      9735.941          54.803          25.000                                                                  
G31                     30311.664         206.880          25.000                                                                  
G32                    494859.970        1675.460          18.000                      145083.778        1253.715          13.000  
R 1                                                        17.000  
R 2                                                        20.000  
R12                                                        25.000  
R21                                                        17.000  
E 2                    185514.986         719.791          23.000                       50437.704         537.139          17.000  
E 7                   -739626.589       -2648.447           9.000                                                                  
E 8                    -96033.652        -731.143          19.000                      -69703.803        -549.120          15.000  
E25                    127278.506        2279.090          12.000                                                                  
E30                   -414547.424       -1566.269           8.000                                                                  
J 2                    153807.949         522.285          30.000                       83616.819         389.208          21.000  
C 6                   -135220.231        -535.427          25.000                                                                                                                                  
C 7                   -181062.709        -950.539          29.000                                                                                                                                  
C 9                   -182614.369        -725.706          21.000                                                                                                                                  
C10                   -167157.478        -957.272          27.000                                                                                                                                  
C14                      -659.715          16.324          21.000                                                                                                                                  
C21                    583840.357        3235.321          17.000                                                                                                                                  
C24                    -99267.076           0.001          16.000                                                                                                                                  
C26                    259043.721        1065.635          31.000                                                                                                                                  
C33                    -74938.179       -1528.169          17.000                                                                                                                                  
C35                   -378089.086       -1420.374          19.000                                                                                                                                  
> 2022  1 25  4  3 46.0000000  0 27                     
G 3                    -29021.650       -1090.282          17.000                                                                  
G16                   -158183.198       -3296.109          16.000                                                                  
G26                   -343373.204       -1125.917          31.000                     -169183.199        -842.425          20.000  
G29                     10037.053          58.030          20.000                                                                  
G31                     31394.040         206.211          21.000                                                                  
G32                    503656.991        1672.892          18.000                                                                  
R 1                                                        14.000  
R 2                                                        22.000  
R 3                                                        16.000  
R12                                                        25.000  
R21                                                        17.000  
E 2                    189296.397         719.070          22.000                       52544.093         536.497          17.000  
E 7                   -753544.288       -2648.396          11.000                                                                  
E 8                    -99882.843        -732.330          20.000                      -71862.768        -550.025          12.000  
E25                    139254.164        2278.798          10.000                                                                  
E30                   -422777.861       -1565.818           8.000                                                                  
J 2                    156567.819         525.833          29.000                       85148.197         388.481          20.000  
C 6                   -137992.145        -531.960          20.000                                                                                                                                  
C 7                   -186014.706        -952.366          27.000                                                                                                                                  
C 9                   -186383.736        -723.092          17.000                                                                                                                                  
C10                   -172154.435        -955.965          30.000                                                                                                                                  
C14                      -579.444          18.140          19.000                                                                                                                                  
C21                    600688.087        3236.311          15.000                                                                                                                                  
C24                   -103723.568           0.001          16.000                                                                                                                                  
C26                    264591.653        1066.242          26.000                                                                                                                                  
C33                    -82884.090       -1524.900          17.000                                                                                                                                  
C35                   -385492.111       -1422.647          18.000                                                                                                                                  
> 2022  1 25  4  3 47.0000000  0 27                     
G 3                    -34754.944       -1090.590          17.000                                                                  
G16                   -175507.150       -3297.931          16.000                                                                  
G26                   -349294.826       -1127.946          28.000                     -172480.785        -838.948          20.000  
G29                     10349.797          58.826          23.000                                                                  
G31                     32485.135         208.625          23.000                                                                  
G32                    512453.667        1673.560          16.000                                                                  
R 1                                                        12.000  
R 2                                                        19.000  
R 3                                                        20.000  
R12                                                        23.000  
R21                                                        21.000  
E 2                    193072.833         719.659          28.000                       54650.428         535.574          16.000  
E 7                   -767462.232       -2648.296          11.000                                                                  
E 8                   -103728.159        -732.403          19.000                      -74025.685        -551.724          12.000  
E25                    151227.429        2278.336          11.000                                                                  
E30                   -431004.975       -1564.771           9.000                                                                  
J 2                    159316.834         523.776          33.000                       86678.122         389.199          22.000  
C 6                   -140767.557        -534.307          24.000                                                                                                                                  
C 7                   -190978.978        -952.410          28.000                                                                                                                                  
C 9                   -190158.530        -725.429          20.000                                                                                                                                  
C10                   -177155.846        -958.903          23.000                                                                                                                                  
C14                      -494.266          15.971          22.000                                                                                                                                  
C21                    617542.418        3237.565          16.000                                                                                                                                  
C24                   -108177.501           0.001          16.000                                                                                                                                  
C26                    270138.538        1065.272          28.000                                                                                                                                  
C33                    -90823.036       -1524.928          17.000                                                                                                                                  
C35                   -392895.798       -1421.157          20.000                                                                                                                                  
> 2022  1 25  4  3 48.0000000  0 28                     
G 3                    -40482.763       -1087.827          16.000                                                                  
G16                   -192840.987       -3297.171          16.000                                                                  
G26                   -355211.744       -1122.301          20.000                     -175775.670        -837.080          19.000  
G29                     10660.213          -0.008          24.000                                                                  
G31                     33576.996         206.629          24.000                                                                  
G32                    521258.528        1675.492          16.000                                                                  
R 1                                                        17.000  
R 2                                                        26.000  
R 3                                                        18.000  
R12                                                        29.000  
R21                                                        17.000  
R22                                                        17.000  
E 2                    196852.348         718.443          25.000                       56755.412         536.451          19.000  
E 7                   -781378.545       -2648.079          11.000                                                                  
E 8                   -107575.853        -731.937          21.000                      -76182.450        -548.838          17.000  
E25                    163198.435        2277.779          11.000                                                                  
E30                   -439224.008       -1563.454           9.000                                                                  
J 2                    162069.103         521.193          33.000                       88207.362         389.157          25.000  
C 6                   -143550.312        -534.717          23.000                                                                                                                                  
C 7                   -195941.739        -951.595          28.000                                                                                                                                  
C 9                   -193928.913        -725.163          22.000                                                                                                                                  
C10                   -182144.599        -957.159          24.000                                                                                                                                  
C14                      -405.959          17.239          19.000                                                                                                                                  
C21                    634399.020        3236.590          14.000                                                                                                                                  
C24                   -112630.220           0.001          16.000                                                                                                                                  
C26                    275691.774        1065.447          26.000                                                                                                                                  
C33                    -98768.950          -0.000          15.000                                                                                                                                  
C35                   -400296.675       -1420.838          18.000                                                                                                                                  
> 2022  1 25  4  3 49.0000000  0 28                     
G 3                    -46201.041          -0.025          17.000                                                                  
G16                   -210168.971       -3297.740          15.000                                                                  
G26                   -361106.171       -1121.234          22.000                     -179068.815        -840.923          19.000  
G29                     10970.141          57.418          20.000                                                                  
G31                     34657.655         205.096          29.000                                                                  
G32                    530065.131        1675.084          15.000                                                                  
R 1                                                        16.000  
R 2                                                        21.000  
R 3                                                        15.000  
R12                                                        25.000  
R21                                                        17.000  
R22                                                        17.000  
E 2                    200622.062         718.274          24.000                       58869.111         538.758          16.000  
E 7                   -795293.369       -2648.074           9.000                                                                  
E 8                   -111419.198        -731.252          21.000                      -78330.568        -548.075          15.000  
E25                    175165.024        2276.853          12.000                                                                  
E30                   -447440.414       -1563.262          11.000                                                                  
J 2                    164809.558         520.871          26.000                       89736.639         388.939          22.000  
C 6                   -146337.698        -535.348          20.000                                                                                                                                  
C 7                   -200905.328        -948.803          29.000                                                                                                                                  
C 9                   -197712.404        -727.089          21.000                                                                                                                                  
C10                   -187131.220        -958.229          28.000                                                                                                                                  
C14                      -311.158          19.226          20.000                                                                                                                                  
C21                    651254.767        3237.042          13.000                                                                                                                                  
C24                   -117073.595           0.001          17.000                                                                                                                                  
C26                    281241.593        1065.783          22.000                                                                                                                                  
C33                   -106722.180          -0.000          17.000                                                                                                                                  
C35                   -407711.058       -1425.532          17.000                                                                                                                                  
> 2022  1 25  4  3 50.0000000  0 28                     
G 3                    -51916.821          -0.025          16.000                                                                  
G16                   -227492.301       -3297.092          15.000                                                                  
G26                   -367006.919       -1125.000          26.000                     -182359.798        -838.209          20.000  
G29                     11283.908          60.507          20.000                                                                  
G31                     35749.203         206.024          29.000                                                                  
G32                    538867.055        1674.805          14.000                                                                  
R 1                                                        15.000  
R 2                                                        20.000  
R 3                                                        17.000  
R12                                                        24.000  
R21                                                        17.000  
R22                                                        17.000  
E 2                    204404.487         720.102          23.000                       60982.411         539.252          18.000  
E 7                   -809204.699       -2646.723           9.000                                                                  
E 8                   -115258.175        -731.271          18.000                      -80474.534        -543.722          15.000  
E25                    187130.194        2276.721          11.000                                                                  
E30                   -455651.799       -1561.984          12.000                                                                  
J 2                    167549.409         517.749          24.000                       91273.371         389.485          20.000  
C 6                   -149134.450        -537.285          20.000                                                                                                                                  
C 7                   -205857.871        -948.411          25.000                                                                                                                                  
C 9                   -201495.762        -726.898          26.000                                                                                                                                  
C10                   -192131.308        -956.461          23.000                                                                                                                                  
C14                      -214.172          18.853          22.000                                                                                                                                  
C21                    668106.378          -0.013          12.000                                                                                                                                  
C24                   -121510.282        -851.259          17.000                                                                                                                                  
C26                    286794.092        1063.891          26.000                                                                                                                                  
C33                   -114676.288          -0.000          15.000                                                                                                                                  
C35                   -415137.264       -1424.520          20.000                                                                                                                                  
> 2022  1 25  4  3 51.0000000  0 22                     
G 3                    -57624.613          -0.025          17.000                                                                  
G16                   -244812.621       -3293.814          12.000                                                                  
G26                   -372903.142       -1119.163          23.000                     -185640.087        -834.202          19.000  
G29                     11601.648          58.053          25.000                                                                  
G31                     36827.380         206.100          24.000                                                                  
G32                    547665.161        1674.719          15.000                                                                  
R 1                                                        14.000  
R 2                                                        20.000  
R 3                                                        17.000  
R12                                                        25.000  
R21                                                        17.000  
R22                                                        15.000  
E 2                    208189.622         720.553          26.000                       63100.475         538.966          16.000  
E 7                   -823113.589       -2646.993          11.000                                                                  
E 8                                                                                    -82610.295        -544.350          13.000  
E25                    199093.083        2276.274          11.000                                                                  
E30                   -463858.204       -1561.187          11.000                                                                  
J 2                    170292.821         523.913          29.000                       92807.418         390.428          22.000  
C 6                   -151928.581        -536.416          23.000                                                                                                                                  
C21                    684958.513          -0.013          13.000                                                                                                                                  
C26                    292330.283        1063.222          25.000                                                                                                                                  
C35                   -422548.350       -1422.522          17.000                                                                                                                                  
> 2022  1 25  4  3 52.0000000  0 22                     
G 3                    -63340.336       -1086.202          19.000                                                                  
G16                   -262116.231       -3291.889          11.000                                                                  
G26                   -378791.145       -1122.229          28.000                     -188918.439        -837.643          20.000  
G29                     11918.228          61.540          21.000                                                                  
G31                     37915.924         208.831          24.000                                                                  
G32                    556470.655        1676.471          15.000                                                                  
R 1                                                        13.000  
R 2                                                        22.000  
R 3                                                        17.000  
R12                                                        28.000  
R21                                                        17.000  
R22                                                        16.000  
E 2                    211966.052         718.377          22.000                       65214.179         537.508          16.000  
E 7                   -837021.739       -2646.902          12.000                                                                  
E 8                     -6903.841        -730.626          20.000                      -84752.956        -546.112          16.000  
E25                    211054.997        2276.895          12.000                                                                  
E30                   -472059.876       -1560.079          12.000                                                                  
J 2                    173041.666         522.845          31.000                       94340.316         389.498          20.000  
C 6                   -154716.684        -535.627          28.000                                                                                                                                  
C21                    701813.707          -0.013          14.000                                                                                                                                  
C26                    297862.978          -0.009          24.000                                                                                                                                  
C35                   -429948.189       -1419.883          25.000                                                                                                                                  
> 2022  1 25  4  3 53.0000000  0 22                     
G 3                    -69049.135       -1085.321          23.000                                                                  
G16                   -279420.108       -3292.937          14.000                                                                  
G26                   -384689.189       -1117.895          27.000                     -192204.905        -838.249          19.000  
G29                     12245.688          62.637          22.000                                                                  
G31                     39010.915         208.493          31.000                                                                  
G32                    565285.785          -0.011          15.000                                                                  
R 1                                                        15.000  
R 2                                                        22.000  
R 3                                                        15.000  
R12                                                        31.000  
R21                                                        17.000  
R22                                                        15.000  
E 2                    215748.110         719.453          21.000                       67323.078         538.703          17.000  
E 7                   -850928.973       -2646.289          13.000                                                                  
E 8                    -10743.088        -730.671          19.000                      -86897.330        -545.039          14.000  
E25                    223021.171        2277.533          13.000                                                                  
E30                   -480258.489       -1559.951          12.000                                                                  
J 2                    175793.616         521.417          32.000                       95867.072         391.642          21.000  
C 6                   -157499.587        -534.217          25.000                                                                                                                                  
C21                    718672.062          -0.013          14.000                                                                                                                                  
C26                    303401.678        1064.724          25.000                                                                                                                                  
C35                   -437333.143       -1419.202          18.000                                                                                                                                  
> 2022  1 25  4  3 54.0000000  0 24                     
G 3                    -74759.687       -1086.303          20.000                                                                  
G16                   -296737.641       -3296.196          14.000                                                                  
G26                   -390576.747       -1119.256          29.000                     -195489.298        -837.868          23.000  
G29                     12576.135          61.072          25.000                                                                  
G31                     40106.675         212.080          23.000                                                                  
G32                    574109.008          -0.011          16.000                                                                  
R 1                                                        12.000  
R 2                                                        24.000  
R 3                                                        17.000  
R12                                                        30.000  
R21                                                        17.000  
R22                                                        15.000  
E 2                    219536.293         721.804          25.000                       69436.092         539.099          16.000  
E 7                   -864832.273       -2645.502          13.000                                                                  
E 8                    -14574.688        -727.173          22.000                      -89035.792        -546.565          17.000  
E25                    234989.725        2277.890          13.000                                                                  
E30                   -488455.951       -1559.541          12.000                                                                  
J 2                    178537.760         523.047          29.000                       97405.637         390.171          19.000  
C 6                   -160289.124        -533.656          22.000                                                                                                                                  
C21                    735523.128          -0.013          13.000                                                                                                                                  
C24                    -11482.209        -845.377          25.000                                                                                                                                  
C26                    308948.690        1064.774          23.000                                                                                                                                  
C33                    -20442.225       -1521.578          17.000                                                                                                                                  
C35                   -444725.261       -1418.308          18.000                                                                                                                                  
> 2022  1 25  4  3 55.0000000  0 24                     
G 3                    -80472.165       -1086.548          21.000                                                                  
G16                   -314065.585       -3300.304          14.000                                                                  
G26                   -396465.762       -1116.530          34.000                     -198767.578        -830.209          22.000  
G29                     12890.663          59.150          23.000                                                                  
G31                     41213.647         210.118          29.000                                                                  
G32                    582931.039          -0.011          15.000                                                                  
R 1                                                        16.000  
R 2                                                        26.000  
R 3                                                        16.000  
R12                                                        29.000  
R21                                                        17.000  
R22                                                        16.000  
E 2                    223330.021         721.332          22.000                       71556.363         541.890          14.000  
E 7                   -878733.454       -2645.400          13.000                                                                  
E 8                    -18396.943        -726.659          22.000                      -91182.930        -547.071          17.000  
E25                    246960.577        2278.170          12.000                                                                  
E30                   -496650.607       -1558.959          12.000                                                                  
J 2                    181289.323         525.563          31.000                       98933.922         388.425          19.000  
C 6                   -163078.278        -534.478          21.000                                                                                                                                  
C21                    752362.891          -0.013          14.000                                                                                                                                  
C24                    -15893.926        -846.502          18.000                                                                                                                                  
C26                    314495.151        1065.523          21.000                                                                                                                                  
C33                    -28364.566       -1520.251          19.000                                                                                                                                  
C35                   -452101.037       -1415.836          22.000                                                                                                                                  
> 2022  1 25  4  3 56.0000000  0 23                     
G 3                    -86180.815       -1083.396          19.000                                                                  
G16                   -331405.008       -3299.312          11.000                                                                  
G26                   -402345.119       -1116.811          27.000                     -202045.344        -835.254          19.000  
G29                     13206.915          -0.008          22.000                                                                  
G31                     42307.360         207.740          28.000                                                                  
G32                    591770.233          -0.011          15.000                                                                  
R 1                                                        14.000  
R 2                                                        23.000  
R 3                                                        18.000  
R12                                                        26.000  
R21                                                        15.000  
R22                                                        15.000  
E 2                    227119.381         719.761          21.000                       73680.645         540.084          17.000  
E 7                   -892630.942       -2644.200          12.000                                                                  
E 8                    -22216.289        -728.078          22.000                      -93314.857        -542.209          17.000  
E25                    258928.541        2277.649          14.000                                                                  
E30                   -504842.979       -1558.407          12.000                                                                  
J 2                    184055.862         521.759          26.000                      100459.874         388.147          20.000  
C 6                   -165856.255        -532.861          20.000                                                                                                                                  
C21                    769192.354          -0.013          14.000                                                                                                                                  
C26                    320038.701        1062.878          23.000                                                                                                                                  
C33                    -36281.978       -1520.116          22.000                                                                                                                                  
C35                   -459482.199       -1417.024          18.000                                                                                                                                  
> 2022  1 25  4  3 57.0000000  0 24                     
G 3                    -91878.281       -1083.200          23.000                                                                  
G16                   -348741.929       -3300.650          12.000                                                                  
G26                   -408238.335       -1123.557          22.000                     -205322.127        -835.376          16.000  
G29                     13531.494          62.078          22.000                                                                  
G31                     43393.858         207.697          26.000                                                                  
G32                    600624.367          -0.011          14.000                                                                  
R 1                                                        15.000  
R 2                                                        20.000  
R 3                                                        16.000  
R12                                                        26.000  
R21                                                        16.000  
R22                                                        16.000  
E 2                    230909.792         726.754          21.000                       75800.543         540.822          16.000  
E 7                   -906526.304       -2644.885          12.000                                                                  
E 8                    -26037.081        -727.664          21.000                      -95450.670        -545.528          17.000  
E25                    270895.769        2277.205          12.000                                                                  
E30                   -513032.195       -1557.966          12.000                                                                  
J 2                    186806.770         523.431          30.000                      101982.360         388.107          18.000  
C 6                   -168640.326        -537.064          23.000                                                                                                                                  
C21                    786016.009          -0.013          13.000                                                                                                                                  
C24                     -7697.459        -846.339          23.000                                                                                                                                  
C26                    325574.435        1063.196          20.000                                                                                                                                  
C33                    -44196.607       -1520.229          20.000                                                                                                                                  
C35                   -466857.678       -1417.182          20.000                                                                                                                                  
> 2022  1 25  4  3 58.0000000  0 24                     
G 3                    -97580.978       -1083.514          24.000                                                                  
G16                   -366070.144       -3292.999          14.000                                                                  
G26                   -414129.382       -1117.326          21.000                     -208595.176        -832.440          15.000  
G29                     13859.184          60.833          23.000                                                                  
G31                     44500.635         211.723          28.000                                                                  
G32                    609479.253          -0.011          13.000                                                                  
R 1                                                        13.000  
R 2                                                        24.000  
R 3                                                        17.000  
R12                                                        27.000  
R21                                                        17.000  
R22                                                        16.000  
E 2                    234712.772         722.018          27.000                       77919.381         540.305          16.000  
E 7                   -920427.760       -2648.783          15.000                                                                  
E 8                    -29853.406        -725.729          21.000                      -97592.766        -545.800          15.000  
E25                    282861.939        2277.184          12.000                                                                  
E30                   -521219.089       -1557.546          13.000                                                                  
J 2                    189552.884         523.905          30.000                      103507.696         388.662          19.000  
C 6                   -171437.220        -533.486          23.000                                                                                                                                  
C21                    802834.368          -0.013          11.000                                                                                                                                  
C24                    -12099.175        -846.398          27.000                                                                                                                                  
C26                    331127.609        1068.220          24.000                                                                                                                                  
C33                    -52123.541       -1522.837          16.000                                                                                                                                  
C35                   -474241.924           0.027          17.000                                                                                                                                  
> 2022  1 25  4  3 59.0000000  0 22                     
G 3                   -103270.718       -1082.115          18.000                                                                  
G26                   -420010.042       -1119.971          19.000                     -211860.153        -832.424          13.000  
G29                     14183.765          61.682          23.000                                                                  
G31                     45596.329         211.095          26.000                                                                  
G32                    618328.401          -0.011          14.000                                                                  
R 1                                                        16.000  
R 2                                                        24.000  
R 3                                                        17.000  
R12                                                        28.000  
R21                                                        19.000  
R22                                                        16.000  
E 2                    238510.857         721.656          24.000                       80036.400         540.317          17.000  
E 8                    -33665.460        -725.669          25.000                      -99733.465        -545.531          16.000  
E25                    294831.101        2278.354          12.000                                                                  
E30                   -529406.449       -1557.950          14.000                                                                  
J 2                    192311.770         522.357          30.000                      105036.253         389.053          20.000  
C 6                   -174215.098        -533.421          23.000                                                                                                                                  
C21                    819649.940          -0.013          13.000                                                                                                                                  
C24                    -16502.394        -845.483          24.000                                                                                                                                  
C26                    336679.722        1064.191          24.000                                                                                                                                  
C33                    -60054.472       -1522.006          18.000                                                                                                                                  
C35                   -481625.879           0.027          17.000                                                                                                                                  
> 2022  1 25  4  4  0.0000000  0 21                     
G 3                   -108957.235       -1082.047          20.000                                                                  
G26                   -425893.285       -1117.981          17.000                     -215134.459        -833.013          15.000  
G29                     14508.454          62.451          26.000                                                                  
G31                     46700.974         208.963          25.000                                                                  
G32                    627180.317          -0.011          12.000                                                                  
R 1                                                        17.000  
R 2                                                        23.000  
R 3                                                        16.000  
R12                                                        30.000  
R21                                                        18.000  
R22                                                        15.000  
E 2                    242304.566         721.190          26.000                       82160.388         541.272          17.000  
E 8                    -37485.927        -724.770          24.000                     -101871.730        -545.455          15.000  
E25                    306803.436        2278.470          17.000                                                                  
E30                   -537590.935       -1556.873          14.000                                                                  
J 2                    195063.541         523.461          30.000                      106566.823         391.687          20.000  
C 6                   -176997.738        -535.925          21.000                                                                                                                                  
C21                    836452.071          -0.013          16.000                                                                                                                                  
C24                    -20909.791           0.001          23.000                                                                                                                                  
C26                    342221.218        1064.797          27.000                                                                                                                                  
C33                    -67978.500       -1520.876          21.000                                                                                                                                  
> 2022  1 25  4  4  1.0000000  0 21                     
G 3                   -114649.987       -1082.245          17.000                                                                  
G26                   -431761.435       -1116.628          22.000                     -218400.277        -830.505          16.000  
G29                     14841.350          65.338          22.000                                                                  
G31                     47804.546         209.594          32.000                                                                  
G32                    636036.494          -0.011          15.000                                                                  
R 1                                                        17.000  
R 2                                                        22.000  
R 3                                                        20.000  
R12                                                        29.000  
R21                                                        17.000  
R22                                                        15.000  
E 2                    246105.946         724.492          24.000                       84286.824         542.628          17.000  
E 8                    -41295.435        -723.002          23.000                     -104007.268        -543.442          16.000  
E25                    318775.524        2278.496          19.000                                                                  
E30                   -545771.855       -1556.447          13.000                                                                  
J 2                    197826.841         523.499          32.000                      108098.822         390.386          20.000  
C 6                   -179788.413        -536.032          25.000                                                                                                                                  
C24                    -25309.545        -844.274          23.000                                                                                                                                  
C26                    347773.132        1065.172          25.000                                                                                                                                  
C33                    -75889.640       -1517.177          23.000                                                                                                                                  
C35                   -496363.356       -1414.708          19.000                                                                                                                                  
> 2022  1 25  4  4  2.0000000  0 21                     
G 3                   -120338.841       -1081.413          15.000                                                                  
G26                   -437633.047       -1116.566          20.000                     -221662.423        -831.179          13.000  
G29                     15182.625          63.664          26.000                                                                  
G31                     48926.857         214.822          23.000                                                                  
G32                    644883.853          -0.011          15.000                                                                  
R 1                                                        18.000  
R 2                                                        24.000  
R 3                                                        20.000  
R12                                                        36.000  
R21                                                        16.000  
R22                                                        14.000  
E 2                    249910.681         724.640          25.000                       86418.091         542.917          17.000  
E 8                    -45101.854        -724.135          26.000                     -106141.643        -543.870          17.000  
E25                    330746.473        2277.542          15.000                                                                  
E30                   -553950.139       -1555.907          13.000                                                                  
J 2                    200571.266         522.454          33.000                      109632.783         390.091          21.000  
C 6                   -182585.431        -537.825          27.000                                                                                                                                  
C24                    -29707.595        -845.044          28.000                                                                                                                                  
C26                    353329.065        1065.869          29.000                                                                                                                                  
C33                    -83789.229       -1517.360          22.000                                                                                                                                  
C35                   -503725.396       -1413.080          22.000                                                                                                                                  
> 2022  1 25  4  4  3.0000000  0 20                     
G 3                   -126019.236          -0.025          15.000                                                                  
G26                   -443505.573       -1117.142          23.000                     -224922.556        -829.900          12.000  
G29                     15522.234          65.128          23.000                                                                  
G31                     50042.522         211.694          30.000                                                                  
G32                    653728.463          -0.011          16.000                                                                  
R 1                                                        25.000  
R 2                                                        23.000  
R12                                                        25.000  
R21                                                        17.000  
R22                                                        13.000  
E 2                    253707.799         724.172          25.000                       88556.380         546.303          17.000  
E 8                    -48909.897        -723.055          25.000                     -108279.175        -545.490          17.000  
E25                    342710.803        2277.270          15.000                                                                  
E30                   -562126.403       -1555.265          15.000                                                                  
J 2                    203319.140         523.928          29.000                      111170.371         390.411          20.000  
C 6                   -185374.997        -534.948          27.000                                                                                                                                  
C24                    -34105.652        -843.018          25.000                                                                                                                                  
C26                    358889.322        1067.916          23.000                                                                                                                                  
C33                    -91693.211       -1518.267          24.000                                                                                                                                  
C35                   -511079.351       -1412.103          23.000                                                                                                                                  
> 2022  1 25  4  4  4.0000000  0 20                     
G 3                   -131676.639          -0.025          16.000                                                                  
G26                   -449375.707       -1117.746          19.000                     -228187.779        -834.227          14.000  
G29                     15865.202          66.753          23.000                                                                  
G31                     51155.115         212.021          25.000                                                                  
G32                    662578.316          -0.011          15.000                                                                  
R 1                                                        24.000  
R 2                                                        22.000  
R12                                                        30.000  
R21                                                        17.000  
R22                                                        13.000  
E 2                    257512.759         724.466          25.000                       90688.789         543.080          17.000  
E 8                    -52711.464        -723.219          23.000                     -110414.695        -544.042          18.000  
E25                    354665.126        2274.618          16.000                                                                  
E30                   -570292.313       -1552.549          15.000                                                                  
J 2                    206072.838         523.803          25.000                      112703.444         392.778          19.000  
C 6                   -188157.014        -534.304          21.000                                                                                                                                  
C24                    -38506.961        -843.857          24.000                                                                                                                                  
C26                    364447.585        1066.377          32.000                                                                                                                                  
C33                    -99595.164       -1515.443          26.000                                                                                                                                  
C35                   -518434.477       -1414.243          23.000                                                                                                                                  
> 2022  1 25  4  4  5.0000000  0 21                     
G 3                   -137337.128          -0.025          15.000                                                                  
G26                   -455240.172       -1115.424          18.000                     -231466.990        -835.179          12.000  
G29                     16217.884          67.019          22.000                                                                  
G31                     52273.876         216.117          24.000                                                                  
G32                    671435.117        1685.225          15.000                                                                  
R 1                                                        23.000  
R 2                                                        24.000  
R12                                                        25.000  
R21                                                        17.000  
R22                                                        13.000  
E 2                    261323.267         725.072          25.000                       92814.272         541.323          17.000  
E 7                    -32199.290       -2653.294          15.000                                                                  
E 8                    -56516.203        -723.514          22.000                     -112550.975        -545.011          17.000  
E25                    366616.761        2274.848          14.000                                                                  
E30                   -578451.250       -1552.229          15.000                                                                  
J 2                    208822.639         521.842          23.000                      114239.908         392.555          17.000  
C 6                   -190938.009        -536.202          21.000                                                                                                                                  
C24                    -42903.503        -842.216          25.000                                                                                                                                  
C26                    370009.856        1069.228          27.000                                                                                                                                  
C33                   -107488.872       -1515.319          24.000                                                                                                                                  
C35                   -525796.486           0.027          21.000                                                                                                                                  
> 2022  1 25  4  4  6.0000000  0 22                     
G 3                   -142999.542          -0.025          15.000                                                                  
G26                   -461100.035       -1112.116          22.000                     -234741.609        -833.983          14.000  
G29                     16574.373          68.117          22.000                                                                  
G31                     53402.385         212.206          29.000                                                                  
G32                    680290.236        1685.984          14.000                                                                  
R 1                                                        22.000  
R 2                                                        23.000  
R 3                                                        18.000  
R12                                                        25.000  
R21                                                        16.000  
R22                                                        14.000  
E 2                    265126.479         726.201          24.000                       94938.554         541.824          16.000  
E 7                    -46126.711       -2650.538          14.000                                                                  
E 8                    -60323.643        -722.714          25.000                     -114686.191        -543.052          17.000  
E25                    378585.662        2279.687          18.000                                                                  
E30                   -586604.772       -1550.483          16.000                                                                  
J 2                    211566.306         522.449          24.000                      115778.451         390.620          18.000  
C 6                   -193731.361        -535.688          23.000                                                                                                                                  
C24                    -47304.494        -845.892          27.000                                                                                                                                  
C26                    375574.079        1068.215          29.000                                                                                                                                  
C33                   -115387.997       -1514.561          20.000                                                                                                                                  
C35                   -533166.777       -1416.662          23.000                                                                                                                                  
> 2022  1 25  4  4  7.0000000  0 23                     
G 3                   -148654.907          -0.025          16.000                                                                  
G26                   -466953.411       -1115.780          20.000                     -238011.416        -832.810          15.000  
G29                     16923.180          66.175          22.000                                                                  
G31                     54515.872         213.648          24.000                                                                  
G32                    689148.593        1685.007          15.000                                                                  
R 1                                                        22.000  
R 2                                                        29.000  
R 3                                                        16.000  
R12                                                        29.000  
R21                                                        19.000  
R22                                                        14.000  
E 2                    268929.415         725.191          24.000                       97058.236         539.808          17.000  
E 7                    -60059.341       -2652.512          10.000                                                                  
E 8                    -64125.385        -720.022          22.000                     -116814.262        -541.221          17.000  
E25                    390570.844        2281.326          18.000                                                                  
E30                   -594747.197       -1549.187          15.000                                                                  
J 2                    214310.823         522.890          23.000                      117312.908         391.810          19.000  
C 6                   -196519.367        -535.406          20.000                                                                                                                                  
C21                     50729.375        3229.909          16.000                                                                                                                                  
C24                    -51714.470        -845.603          27.000                                                                                                                                  
C26                    381123.836        1066.181          24.000                                                                                                                                  
C33                   -123287.007       -1517.183          22.000                                                                                                                                  
C35                   -540535.999       -1413.178          20.000                                                                                                                                  
> 2022  1 25  4  4  8.0000000  0 24                     
G 3                   -154313.091       -1077.128          15.000                                                                  
G16                    -91932.195       -3292.819          21.000                                                                  
G26                   -472804.108       -1111.442          23.000                     -241280.022        -833.549          12.000  
G29                     17271.189          66.561          23.000                                                                  
G31                     55635.105         214.476          25.000                                                                  
G32                    697999.623          -0.011          15.000                                                                  
R 1                                                        28.000  
R 2                                                        30.000  
R 3                                                        16.000  
R12                                                        29.000  
R21                                                        18.000  
R22                                                        13.000  
E 2                    272739.770         726.781          23.000                       99178.347         539.464          16.000  
E 7                    -73994.078       -2651.081          12.000                                                                  
E 8                    -67923.330        -721.768          28.000                     -118938.213        -539.969          17.000  
E25                    402555.709        2279.701          19.000                                                                  
E30                   -602884.621       -1547.944          16.000                                                                  
J 2                    217059.808         523.426          27.000                      118839.523         388.745          18.000  
C 6                   -199315.669        -536.146          27.000                                                                                                                                  
C21                     67541.245        3230.883          16.000                                                                                                                                  
C24                    -56112.243        -846.099          31.000                                                                                                                                  
C26                    386671.072        1065.418          22.000                                                                                                                                  
C33                   -131187.121       -1515.882          22.000                                                                                                                                  
C35                   -547903.599           0.027          23.000                                                                                                                                  
> 2022  1 25  4  4  9.0000000  0 24                     
G 3                   -159977.815       -1078.101          15.000                                                                  
G16                   -109242.764       -3293.711          19.000                                                                  
G26                   -478644.987       -1110.657          20.000                                                                  
G29                     17621.292          66.550          33.000                                                                  
G31                     56755.579         212.436          24.000                                                                  
G32                    706840.891          -0.011          12.000                                                                  
R 1                                                        22.000  
R 2                                                        25.000  
R 3                                                        14.000  
R12                                                        27.000  
R21                                                        18.000  
R22                                                        14.000  
E 2                                                                                    101287.893         538.642          16.000  
E 7                    -87926.675       -2650.921          13.000                                                                  
E 8                    -71719.886        -722.088          27.000                     -121058.875        -540.685          17.000  
E25                    414533.168        2278.616          18.000                                                                  
E30                   -611018.965       -1548.182          17.000                                                                  
J 2                    219809.519         521.470          25.000                      120369.616         390.950          17.000  
C 6                   -202109.752        -535.442          20.000                                                                                                                                  
C21                     84360.499        3229.837          15.000                                                                                                                                  
C24                    -60533.966        -846.240          29.000                                                                                                                                  
C26                    392223.386        1066.771          22.000                                                                                                                                  
C33                   -139083.618          -0.000          24.000                                                                                                                                  
C35                   -555282.142       -1413.956          23.000                                                                                                                                  
> 2022  1 25  4  4 10.0000000  0 24                     
G 3                   -165636.699       -1075.638          14.000                                                                  
G16                   -126554.482       -3293.549          17.000                                                                  
G26                   -484477.540       -1110.942          18.000                                                                  
G29                     17956.877          64.538          29.000                                                                  
G31                     57872.010         213.853          25.000                                                                  
G32                    715684.610          -0.011          18.000                                                                  
R 1                                                        18.000  
R 2                                                        22.000  
R 3                                                        15.000  
R12                                                        29.000  
R21                                                        28.000  
R22                                                        15.000  
E 2                    280355.030         723.292          23.000                      103401.070         539.053          17.000  
E 7                   -101858.134       -2650.687          13.000                                                                  
E 8                    -75518.552        -721.822          24.000                     -123185.140        -541.418          19.000  
E25                    426521.894        2282.433          16.000                                                                  
E30                   -619151.504       -1546.818          15.000                                                                  
J 2                    222548.069         519.942          24.000                      121903.188         390.919          15.000  
C 6                   -204904.524        -534.532          22.000                                                                                                                                  
C21                    101175.566        3226.490          14.000                                                                                                                                  
C24                    -64937.496        -840.969          28.000                                                                                                                                  
C26                    397783.277        1068.181          24.000                                                                                                                                  
C33                   -146984.611       -1510.301          23.000                                                                                                                                  
C35                   -562640.901           0.027          21.000                                                                                                                                  
> 2022  1 25  4  4 11.0000000  0 23                     
G 3                   -171282.817          -0.025          16.000                                                                  
G16                   -143851.145       -3292.809          17.000                                                                  
G26                   -490317.553       -1110.483          22.000                                                                  
G29                     18303.092          64.707          27.000                                                                  
G31                     58991.300         213.837          28.000                                                                  
G32                    724536.708        1684.261          20.000                                                                  
R 1                                                        17.000  
R 2                                                        21.000  
R12                                                        28.000  
R21                                                        30.000  
R22                                                        15.000  
E 2                    284162.620         726.680          25.000                      105513.487         539.111          16.000  
E 7                   -115789.659       -2650.844          13.000                                                                  
E 8                    -79314.289        -721.538          22.000                     -125314.577        -541.522          18.000  
E25                    438492.045        2271.938          14.000                                                                  
E30                   -627281.607       -1546.988          20.000                                                                  
J 2                    225291.573         522.829          25.000                      123430.654         389.272          15.000  
C 6                   -207689.370        -536.119          23.000                                                                                                                                  
C21                    117972.573        3224.542          15.000                                                                                                                                  
C24                    -69327.384        -839.817          28.000                                                                                                                                  
C26                    403342.490          -0.009          22.000                                                                                                                                  
C33                   -154858.575       -1507.701          25.000                                                                                                                                  
C35                   -569998.019       -1412.287          23.000                                                                                                                                  
> 2022  1 25  4  4 12.0000000  0 23                     
G 3                   -176916.381          -0.025          17.000                                                                  
G16                   -161161.830       -3294.808          16.000                                                                  
G26                   -496155.773       -1110.939          22.000                                                                  
G29                     18657.672          70.498          25.000                                                                  
G31                     60107.487         211.908          22.000                                                                  
G32                    733385.860        1684.038          20.000                                                                  
R 1                                                        20.000  
R 2                                                        18.000  
R12                                                        24.000  
R21                                                        19.000  
R22                                                        15.000  
E 2                    287982.904         728.491          24.000                      107622.158         535.519          14.000  
E 7                   -129717.830       -2649.820          18.000                                                                  
E 8                    -83107.164        -720.899          25.000                     -127437.637        -541.393          17.000  
E25                    450451.206        2277.413          14.000                                                                  
E30                   -635414.551       -1548.534          17.000                                                                  
J 2                    228033.272         521.876          27.000                      124957.697         389.808          17.000  
C 6                   -210480.202        -536.022          24.000                                                                                                                                  
C21                    134759.944        3229.107          15.000                                                                                                                                  
C24                    -73714.753        -842.640          28.000                                                                                                                                  
C26                    408904.376        1067.933          25.000                                                                                                                                  
C33                   -162733.553       -1512.981          24.000                                                                                                                                  
C35                   -577351.440       -1412.311          20.000                                                                                                                                  
> 2022  1 25  4  4 13.0000000  0 24                     
G 3                   -182548.766       -1072.643          16.000                                                                  
G16                   -178471.483       -3293.749          18.000                                                                  
G26                   -501994.831       -1110.444          19.000                                                                  
G29                     19037.102          68.701          25.000                                                                  
G31                     61225.650         209.596          23.000                                                                  
G32                    742229.019        1681.738          18.000                                                                  
R 1                                                        26.000  
R 2                                                        19.000  
R 3                                                        17.000  
R12                                                        24.000  
R21                                                        21.000  
R22                                                        15.000  
E 2                    291798.150         725.906          24.000                      109722.331         534.703          17.000  
E 7                   -143644.126       -2650.252          18.000                                                                  
E 8                    -86901.165        -719.972          22.000                     -129563.952        -541.164          17.000  
E25                    462417.786        2277.455          15.000                                                                  
E30                   -643563.193       -1550.408          17.000                                                                  
J 2                    230771.975         520.984          29.000                      126484.809         389.076          20.000  
C 6                   -213272.951        -538.713          22.000                                                                                                                                  
C21                    151582.154        3229.825          17.000                                                                                                                                  
C24                    -78095.657        -839.086          24.000                                                                                                                                  
C26                    414448.184        1064.346          23.000                                                                                                                                  
C33                   -170620.756       -1514.671          23.000                                                                                                                                  
C35                   -584701.465       -1413.463          25.000                                                                                                                                  
> 2022  1 25  4  4 14.0000000  0 24                     
G 3                   -188188.028       -1074.686          15.000                                                                  
G16                   -195778.769       -3292.452          20.000                                                                  
G26                   -507835.956       -1111.237          22.000                                                                  
G29                     19431.169          76.370          27.000                                                                  
G31                     62325.255         208.743          21.000                                                                  
G32                    751067.976        1682.818          17.000                                                                  
R 1                                                        28.000  
R 2                                                        17.000  
R 3                                                        16.000  
R12                                                        22.000  
R21                                                        17.000  
R22                                                        14.000  
E 2                    295611.560         727.492          24.000                      111821.895         538.871          17.000  
E 7                   -157570.516       -2650.420          27.000                                                                  
E 8                    -90689.781        -719.079          24.000                     -131690.806        -540.404          18.000  
E25                    474386.916        2278.532          13.000                                                                  
E30                   -651720.816       -1553.728          17.000                                                                  
J 2                    233511.386         523.198          29.000                      128015.543         391.277          21.000  
C 6                   -216074.224        -536.363          21.000                                                                                                                                  
C21                    168405.152        3231.689          12.000                                                                                                                                  
C24                    -82472.571        -841.471          19.000                                                                                                                                  
C26                    420001.950        1068.805          26.000                                                                                                                                  
C33                   -178507.790       -1512.959          23.000                                                                                                                                  
C35                   -592060.702       -1411.672          22.000                                                                                                                                  
> 2022  1 25  4  4 15.0000000  0 24                     
G 3                   -193830.713       -1072.964          14.000                                                                  
G16                   -213068.315       -3288.867          17.000                                                                  
G26                   -513674.371       -1111.842          19.000                                                                  
G29                     19846.827          77.272          23.000                                                                  
G31                     63429.198         210.003          23.000                                                                  
G32                    759913.655        1683.323          17.000                                                                  
R 1                                                        31.000  
R 2                                                        16.000  
R 3                                                        16.000  
R12                                                        30.000  
R21                                                        17.000  
R22                                                        13.000  
E 2                    299429.053         727.662          25.000                      113936.983         538.604          17.000  
E 7                   -171503.512       -2651.785          26.000                                                                  
E 8                    -94469.888        -718.957          21.000                     -133812.076        -538.958          17.000  
E25                    486362.422        2279.564          13.000                                                                  
E30                   -659882.809       -1552.504          18.000                                                                  
J 2                    236252.700         521.276          30.000                      129548.076         389.947          21.000  
C 6                   -218860.572        -533.737          20.000                                                                                                                                  
C21                    185225.443          -0.013          14.000                                                                                                                                  
C24                    -86862.297        -844.437          19.000                                                                                                                                  
C26                    425569.055        1069.262          27.000                                                                                                                                  
C33                   -186381.204       -1511.018          25.000                                                                                                                                  
C35                   -599414.815           0.027          22.000                                                                                                                                  
> 2022  1 25  4  4 16.0000000  0 23                     
G 3                   -199473.841          -0.025          14.000                                                                  
G16                   -230361.395       -3289.852          19.000                                                                  
G26                   -519513.972       -1109.323          21.000                                                                  
G29                     20253.627          74.815          25.000                                                                  
G31                     64543.497         212.335          26.000                                                                  
G32                    768761.084        1684.631          17.000                                                                  
R 1                                                        33.000  
R 2                                                        17.000  
R 3                                                        16.000  
R12                                                        23.000  
R21                                                        17.000  
R22                                                        13.000  
E 2                    303248.548         728.319          23.000                      116051.204         539.707          18.000  
E 7                   -185434.530       -2647.477          20.000                                                                  
E 8                    -98251.417        -718.513          25.000                     -135927.349        -538.841          18.000  
E25                    498340.997        2279.106          14.000                                                                  
E30                   -668027.729       -1550.380          20.000                                                                  
J 2                    238995.824         522.411          30.000                      131078.232         389.175          21.000  
C 6                   -221631.988        -532.228          23.000                                                                                                                                  
C21                    202036.454          -0.013          14.000                                                                                                                                  
C24                    -91267.593           0.001          20.000                                                                                                                                  
C26                    431128.517        1066.129          29.000                                                                                                                                  
C33                   -194249.635       -1509.320          23.000                                                                                                                                  
> 2022  1 25  4  4 17.0000000  0 23                     
G 3                   -205121.987          -0.025          15.000                                                                  
G16                   -247658.090       -3293.157          20.000                                                                  
G26                   -525332.382       -1105.523          18.000                                                                  
G29                     20664.362          78.009          24.000                                                                  
G31                     65665.731         216.283          24.000                                                                  
G32                    777615.167        1688.327          20.000                                                                  
R 1                                                        32.000  
R 2                                                        17.000  
R 3                                                        17.000  
R12                                                        24.000  
R21                                                        16.000  
R22                                                        15.000  
E 2                    307068.268         727.880          21.000                      118173.028         542.003          18.000  
E 7                   -199350.026       -2647.891          19.000                                                                  
E 8                   -102030.892        -720.583          22.000                     -138034.182        -536.203          19.000  
E25                    510319.797        2280.268          16.000                                                                  
E30                   -676178.953       -1552.030          19.000                                                                  
J 2                    241732.274         520.457          28.000                      132604.902         390.139          25.000  
C 6                   -224405.432        -533.900          22.000                                                                                                                                  
C21                    218855.264          -0.013          16.000                                                                                                                                  
C24                    -95661.940           0.001          21.000                                                                                                                                  
C26                    436683.335        1067.224          28.000                                                                                                                                  
C33                   -202108.757       -1508.465          28.000                                                                                                                                  
> 2022  1 25  4  4 18.0000000  0 22                     
G 3                   -210775.532          -0.025          16.000                                                                  
G16                   -264948.399       -3288.544          26.000                                                                  
G26                   -531153.022       -1108.097          22.000                                                                  
G29                     21074.790          79.382          22.000                                                                  
G31                     66798.028         216.027          23.000                                                                  
G32                    786485.533        1689.267          19.000                                                                  
R 1                                                        27.000  
R 2                                                        16.000  
R 3                                                        17.000  
R12                                                        24.000  
R21                                                        16.000  
R22                                                        14.000  
E 2                    310889.072         727.908          24.000                      120298.190         541.879          17.000  
E 7                   -213272.214       -2650.753          19.000                                                                  
E 8                   -105816.445        -716.599          20.000                     -140142.178        -537.392          17.000  
E25                    522306.017        2281.316          15.000                                                                  
E30                   -684334.866       -1552.062          19.000                                                                  
J 2                    244469.781         520.561          27.000                      134142.177         392.721          23.000  
C 6                   -227195.205        -536.592          20.000                                                                                                                                  
C21                    235678.909          -0.013          16.000                                                                                                                                  
C26                    442250.976        1069.490          28.000                                                                                                                                  
C33                   -209962.302       -1507.773          21.000                                                                                                                                  
> 2022  1 25  4  4 19.0000000  0 22                     
G 3                   -216434.374          -0.025          15.000                                                                  
G16                   -282233.790       -3290.569          26.000                                                                  
G26                   -536972.796       -1105.327          19.000                                                                  
G29                     21493.126          80.410          27.000                                                                  
G31                     67932.824         216.604          24.000                                                                  
G32                    795360.602        1690.525          18.000                                                                  
R 1                                                        31.000  
R 2                                                        17.000  
R 3                                                        16.000  
R12                                                        29.000  
R21                                                        17.000  
R22                                                        16.000  
E 2                    314712.694         727.977          24.000                      122423.841         543.532          18.000  
E 7                   -227210.999       -2654.775          19.000                                                                  
E 8                   -109579.362        -715.452          17.000                     -142249.369        -533.550          12.000  
E25                    534299.147        2282.593          16.000                                                                  
E30                   -692495.672       -1553.009          17.000                                                                  
J 2                    247211.906         523.404          33.000                      135670.629         389.930          24.000  
C 6                   -229975.081        -531.772          20.000                                                                                                                                  
C21                    252501.068          -0.013          15.000                                                                                                                                  
C26                    447817.065        1068.393          29.000                                                                                                                                  
C33                   -217808.544          -0.000          25.000                                                                                                                                  
