     3.03           OBSERVATION DATA    M: Mixed            RINEX VERSION / TYPE
RTKCONV 2.4.3 b34                       20211107 095352 UTC PGM / RUN BY / DATE 
format: RINEX                                               COMMENT             
log: E:\Dropbox\211106_campus_RUNING\left_hw\0geo++\best\BA0COMMENT             
                                                            MARKER NAME         
                                                            MARKER NUMBER       
                                                            MARKER TYPE         
                                                            OBSERVER / AGENCY   
                                                            REC # / TYPE / VERS 
                                                            ANT # / TYPE        
        0.0000        0.0000        0.0000                  APPROX POSITION XYZ 
        0.0000        0.0000        0.0000                  ANTENNA: DELTA H/E/N
G    8 C1C L1C D1C S1C C5Q L5Q D5Q S5Q                      SYS / # / OBS TYPES 
C    4 C2I L2I D2I S2I                                      SYS / # / OBS TYPES 
  2021    11    06    07    26   43.9999754     GPS         TIME OF FIRST OBS   
  2021    11    06    07    47   28.9996780     GPS         TIME OF LAST OBS    
G L1C                                                       SYS / PHASE SHIFT   
G L5Q  0.00000                                              SYS / PHASE SHIFT   
C L2I                                                       SYS / PHASE SHIFT   
  0                                                         GLONASS SLOT / FRQ #
                                                            GLONASS COD/PHS/BIS 
                                                            END OF HEADER       
> 2021 11 06 07 26 43.9999754  0 10                     
C07  37858140.854   197137294.3911       1070.144          24.000  
C09  37674430.135   196180674.2271       -299.379          17.000  
C16  37284076.971   194147765.2781       -157.283          24.000  
C20  25849451.797   134604844.1401       2650.475          16.000  
C23  22417139.038   116731915.1881      -1820.214          31.000  
C32  22209184.701   115648982.9341       1007.912          20.000  
C37  22637881.021   117881374.5281        843.821          33.000  
G23  22430663.875   117873961.8481      -3512.640          25.000                                                                  
G31  21196068.467   111386076.3231        425.502          37.000                                                                  
G32  21333681.300   112109234.5841        837.904          23.000                                                                  
> 2021 11 06 07 26 44.9999752  0 10                     
C07  37857875.838   197135912.591        1069.882          20.000  
C09  37674428.636   196180661.151        -299.318          18.000  
C16  37284047.291   194147611.241        -158.515          26.000  
C23  22417429.536   116733423.088       -1821.388          29.000  
C32  22208929.278   115647661.995        1009.582          22.000  
C37  22637657.975                         843.641          33.000  
G10  20443028.186   107428795.5641      -1681.364          31.000                                                                  
G23  22431273.652   117877159.178       -3514.637          24.000                                                                  
G31  21195928.164   111385336.821         424.142          36.000                                                                  
G32  21333463.351   112108082.261         836.509          23.000                                                                  
> 2021 11 06 07 26 45.9999749  0  9                     
C07  37857580.542   197134375.352        1068.652          21.000  
C09  37674399.556   196180492.476        -299.580          23.000  
C16  37283987.632   194147300.026        -156.501          30.000  
C23  22417690.056   116734776.861       -1822.973          28.000  
C32  22208645.675   115646184.179        1008.799          24.000  
C37  22637405.850   117878914.3881        842.063          35.000  
G26  23063939.467   121201799.9431       3280.096          18.000                                                                  
G31  21195759.381   111384440.851         423.974          37.000                                                                  
G32  21333215.122   112106773.815         835.200          30.000                                                                  
> 2021 11 06 07 26 50.9999739  0 11                     
C07  37856255.460   197127468.973        1069.369          25.000  
C09  37674392.061   196180435.664        -305.122          15.000  
C10  38597165.838   200985592.5021        958.616          16.000  
C16  37283844.032   194146526.405        -159.506          26.000  
C23  22419145.249   116742335.985       -1825.844          30.000  
C32  22207374.555   115639591.227        1006.031          22.000  
C37  22636300.215   117873149.897         840.772          33.000  
G10  20444563.423   107436905.3981      -1686.396          33.000    20444564.622    80228845.7791      -1259.251          29.000  
G23  22434889.449   117896224.2181      -3522.853          16.000                                                                  
G31  21195055.768   111380758.232         419.382          35.000                                                                  
G32  21332108.589   112100986.584         835.463          29.000                                                                  
> 2021 11 06 07 26 51.9999739  0  8                     
C07  37856050.402   197126398.734        1068.263          18.000  
C16  37283874.611   194146685.708        -158.887          27.000  
C23  22419494.507   116744161.320       -1826.031          23.000  
C32  22207180.889   115638585.647        1004.876          25.000  
C37  22636140.726   117872311.161         837.512          32.000  
G10  20444880.304   107438592.641       -1686.730          31.000    20444886.300    80230105.924       -1260.422          30.000  
G31  21194973.325   111380338.738         419.253          34.000                                                                  
G32  21331949.998   112100151.408         834.553          25.000                                                                  
> 2021 11 06 07 26 52.9999739  0  9                     
C07  37855849.541   197125330.093        1067.535          16.000  
C16  37283903.391   194146843.724        -157.785          30.000  
C23  22419843.465   116745987.103       -1826.722          23.000  
C32  22206988.722   115637581.019        1003.777          28.000  
C37  22635977.639   117871473.120         835.785          33.000  
G10  20445201.981   107440280.778       -1689.331          35.000    20445207.677    80231365.753       -1260.511          28.000  
G26  23059272.598   121177300.2511       3269.051          15.000                                                                  
G31  21194898.977   111379919.862         417.125          35.000                                                                  
G32  21331791.708   112099317.418         833.358          32.000                                                                  
> 2021 11 06 07 26 53.9999736  0  8                     
C09  37674474.804   196180875.7621       -300.744          19.000  
C16  37283843.432   194146533.008        -157.896          30.000  
C23  22420102.786   116747345.175       -1827.073          26.000  
C32  22206706.917   115636109.839        1001.710          24.000  
C37  22635726.413   117870167.403         836.821          33.000  
G10  20445436.119   107441497.014       -1691.050          35.000    20445439.117    80232275.173       -1262.027          29.000  
G23  22436804.823   117906308.8641      -3518.898          13.000                                                                  
G31  21194725.097   111379028.918         418.035          34.000                                                                  
> 2021 11 06 07 26 54.9999734  0  8                     
C07  37855291.327   197122415.4651       1066.894          27.000  
C09  37674471.506   196180864.079        -300.541          18.000  
C16  37283813.753   194146378.407        -158.202          30.000  
C32  22206455.091   115634796.640        1001.435          22.000  
C37  22635506.365   117869018.498         837.084          30.000  
G10  20445695.140   107442870.994       -1691.142          33.000    20445700.536    80233301.723       -1262.145          30.000  
G31  21194585.094   111378296.291         417.709          34.000                                                                  
G32  21331328.828   112096864.3771        832.106          31.000                                                                  
> 2021 11 06 07 26 55.9999731  0  8                     
C07  37854994.832   197120879.921        1067.463          25.000  
C16  37283753.495   194146068.365        -158.416          30.000  
C32  22206171.787   115633326.590        1001.776          25.000  
C37  22635256.638   117867714.103         834.806          31.000  
G10  20445926.879   107444088.772       -1690.135          29.000    20445932.575    80234211.895       -1264.157          31.000  
G23  22437984.507   117912555.8551      -3518.823          12.000                                                                  
G31  21194417.210   111377406.646         417.273          34.000                                                                  
G32  21331080.001   112095560.230         831.641          33.000                                                                  
> 2021 11 06 07 26 56.9999729  0  7                     
C07  37854728.617   197119499.493        1067.912          25.000  
C09  37674435.831   196180688.7511       -304.317          19.000  
C16  37283723.216   194145914.268        -158.147          30.000  
C32  22205917.563   115632013.508        1001.071          24.000  
C37  22635040.787   117866566.560         835.189          32.000  
G10  20446189.198   107445464.176       -1691.034          28.000    20446194.594    80235240.100       -1263.760          30.000  
G31  21194278.107   111376675.326         414.509          34.000                                                                  
> 2021 11 06 07 26 57.9999729  0  7                     
C07  37854521.760   197118431.416        1068.158          25.000  
C16  37283751.996   194146072.165        -157.699          26.000  
C32  22205726.895   115631013.011        1000.203          22.000  
C37  22634879.199   117865732.927         836.514          31.000  
G10                                                                  20446516.271    80236503.188       -1262.092          26.000  
G26  23055865.157   121159391.2931       3264.876          15.000                                                                  
G31  21194200.460   111376259.740         415.302          34.000                                                                  
> 2021 11 06 07 26 58.9999726  0  7                     
C07  37854225.565   197116895.135        1067.181          22.000  
C16  37283691.737   194145762.001        -158.958          20.000  
C32  22205445.390   115629546.677         997.960          23.000  
C37  22634628.273   117864428.367         835.508          23.000  
G10                                                                  20446747.711    80237412.152       -1260.859          22.000  
G31  21194031.977   111375372.488         414.258          34.000                                                                  
G32  21330458.231   112092278.3011        830.128          22.000                                                                  
> 2021 11 06 07 26 59.9999724  0  6                     
C07  37853961.448   197115516.393        1065.877          24.000  
C16  37283662.957   194145609.782        -161.047          23.000  
C37  22634407.326   117863281.290         833.231          29.000  
G10  20447008.531   107449757.2821      -1694.511          27.000    20447011.229    80238441.183       -1266.638          22.000  
G31  21193890.775   111374643.520         413.745          36.000                                                                  
G32  21330241.481   112091134.007         829.154          23.000                                                                  
> 2021 11 06 07 27 00.9999721  0  7                     
C07  37853668.251   197113982.527        1064.480          26.000  
C32  22204912.359   115626768.1461        998.864          24.000  
C37  22634157.599   117861980.139         831.951          32.000  
G10                                                                  20447245.666    80239355.230       -1267.728          23.000  
G26  23053759.414   121148318.7851       3278.100          14.000                                                                  
G31  21193724.989   111373757.813         413.147          37.000                                                                  
G32  21329994.752   112089831.691         829.329          21.000                                                                  
> 2021 11 06 07 27 01.9999721  0  8                     
C07  37853463.493   197112918.636        1062.882          24.000  
C16  37283636.875   194145462.9791       -160.279          19.000  
C32  22204721.091   115625769.958         997.824          26.000  
C37  22633998.409   117861149.292         829.409          27.000  
G10  20447560.748   107452675.7541      -1697.391          23.000    20447569.442    80240623.454       -1268.146          24.000  
G25  20974885.189                       -1597.638          22.000                                                                  
G31  21193642.547   111373345.800         411.148          36.000                                                                  
G32  21329835.262   112089001.445         829.890          23.000                                                                  
> 2021 11 06 07 27 02.9999718  0  8                     
C07  37853169.996   197111388.609        1061.103          26.000  
C16  37283578.116   194145155.479        -159.693          21.000  
C32  22204438.987   115624303.526         997.625          26.000  
C37  22633749.281   117859851.302         829.825          27.000  
G10  20447795.186   107453901.010       -1697.591          30.000    20447802.081    80241539.388       -1268.432          25.000  
G25  20974795.251                       -1597.638          21.000                                                                  
G26  23052428.336   121141305.2311       3265.423          17.000                                                                  
G31  21193477.361   111372461.757         410.495          34.000                                                                  
> 2021 11 06 07 27 03.9999716  0  9                     
C07  37852905.579   197110013.919        1063.183          25.000  
C16  37283547.837   194145002.084        -157.023          24.000  
C20  25838131.634   134545936.9601       2644.505          30.000  
C32  22204187.461   115622994.611         996.775          25.000  
C37  22633529.234   117858709.805         829.092          31.000  
G10  20448059.603   107455285.571       -1700.307          24.000    20448064.699    80242572.986       -1269.752          26.000  
G25  20975342.972                       -1599.739          23.000                                                                  
G31  21193339.456   111371735.505         412.056          36.000                                                                  
G32  21329374.182   112086549.4271        829.869          16.000                                                                  
> 2021 11 06 07 27 06.9999711  0  8                     
C07  37852145.605   197106040.966        1063.694          26.000  
C20  25836462.989   134537222.427        2644.372          29.000  
C32  22203464.661   115619231.595         991.403          23.000  
C37  22632900.569   117855443.332         828.031          30.000  
G10  20448888.529   107459606.213       -1703.401          25.000    20448886.730    80245798.212       -1272.079          25.000  
G26  23049738.898   121127146.9561       3268.174          16.000                                                                  
G31  21192955.122   111369719.151         408.946          36.000                                                                  
G32  21328752.712   112083277.378         826.259          26.000                                                                  
> 2021 11 06 07 27 07.9999708  0  8                     
C07  37851851.808   197104509.675        1063.435          27.000  
C16  37283434.515   194144388.5751       -162.143          16.000  
C20  25835866.102   134534109.854        2643.877          27.000  
C37  22632652.041   117854147.207         827.948          32.000  
G10  20449123.566   107460837.589       -1703.513          28.000    20449119.369    80246716.361       -1271.390          25.000  
G25  20976326.891   110231341.3631      -1603.586          23.000                                                                  
G31  21192787.239   111368838.135         410.179          37.000                                                                  
G32  21328502.985   112081978.111         826.346          26.000                                                                  
> 2021 11 06 07 27 08.9999706  0  9                     
C07  37851587.691   197103133.528        1064.320          25.000  
C16  37283403.337   194144238.408        -161.897          18.000  
C20  25835298.895   134531154.002        2643.511          27.000  
C32  22202931.330   115616465.2891        993.470          27.000  
C37  22632431.094   117853006.406         829.034          26.000  
G10  20449387.683   107462225.873       -1703.806          25.000    20449381.088    80247752.992       -1272.074          22.000  
G26  23048349.959   121119824.3341       3265.883          16.000                                                                  
G31  21192648.135   111368114.597         408.232          34.000                                                                  
G32  21328286.235   112080836.717         825.932          26.000                                                                  
> 2021 11 06 07 27 09.9999706  0 10                     
C07  37851382.633   197102069.289        1063.831          32.000  
C10  38592694.434   200962288.8721        954.862          29.000  
C16  37283433.316   194144400.833        -162.526          27.000  
C32  22202741.262   115615472.279         992.837          28.000  
C37  22632272.204   117852178.051         827.442          33.000  
G10                                                                  20449704.864    80249026.799       -1275.780          25.000  
G25  20976874.612   110234235.3771      -1604.385          24.000                                                                  
G26  23047729.089   121116560.677        3261.976          28.000                                                                  
G31  21192577.984   111367706.683         408.520          32.000                                                                  
G32  21328127.345   112080011.178         825.477          30.000                                                                  
> 2021 11 06 07 27 10.9999703  0 10                     
C07  37851088.836   197100537.702        1062.766          32.000  
C10  38592420.123   200960866.050         953.461          29.000  
C16  37283374.857   194144097.424        -165.870          22.000  
C20  25834194.459   134525402.2781       2641.738          16.000  
C32  22202463.354   115614010.398         993.463          28.000  
C37  22632023.976   117850883.157         825.773          32.000  
G10                                                                  20449940.201    80249948.174       -1274.119          31.000  
G25  20977085.966   110235367.621       -1606.133          20.000                                                                  
G26  23047019.480   121112827.400        3259.430          28.000                                                                  
G32  21327877.618   112078713.467         824.631          26.000                                                                  
> 2021 11 06 07 27 11.9999703  0 10                     
C07  37850884.678   197099476.229        1061.031          30.000  
C10  38592236.651   200959913.331         952.599          29.000  
C16  37283405.136   194144262.389        -164.404          21.000  
C20  25833685.712   134522759.935        2643.136          26.000  
C32  22202274.485   115613018.477         991.074          27.000  
C37  22631868.084   117850058.358         823.889          31.000  
G10  20450256.482   107466867.2521      -1705.817          32.000    20450264.876    80251222.780       -1275.577          30.000  
G25  20977390.555   110236975.128       -1608.960          24.000                                                                  
G26  23046403.107   121109568.415        3257.693          26.000                                                                  
G32  21327719.327   112077888.338         825.651          28.000                                                                  
> 2021 11 06 07 27 12.9999700  0 10                     
C07  37850590.282   197097947.517        1060.509          30.000  
C10  38591963.839   200958492.039         952.804          30.000  
C16  37283346.376   194143957.735        -163.798          24.000  
C20  25833085.827   134519648.651        2642.533          30.000  
C32  22201994.179   115611559.220         990.523          27.000  
C37  22631620.455                         823.069          33.000  
G10  20450490.620   107468100.975       -1706.921          33.000                                                                  
G26  23045693.498   121105836.982        3259.384          22.000                                                                  
G31  21192158.274   111365540.8731        404.031          35.000                                                                  
G32  21327471.998   112076590.077         825.479          29.000                                                                  
> 2021 11 06 07 27 13.9999698  0 11                     
C07  37850326.764   197096574.196        1061.483          24.000  
C10  38591721.607   200957227.820         951.369          29.000  
C16  37283316.997   194143808.348        -161.960          23.000  
C20  25832517.121   134516694.330        2642.094          31.000  
C32  22201743.853   115610256.894         989.712          29.000  
C37  22631405.504   117847650.7791        824.790          32.000  
G10  20450752.639   107469490.213       -1704.677          34.000                                                                  
G23  22449097.813   117970756.0731      -3532.695          24.000                                                                  
G26  23045012.670   121102261.308        3261.075          16.000                                                                  
G31  21192023.967                         404.964          33.000                                                                  
G32  21327254.049   112075449.629         824.626          26.000                                                                  
> 2021 11 06 07 27 14.9999695  0  8                     
C07  37850032.668   197095044.040        1061.889          20.000  
C10  38591446.697   200955806.953         953.734          25.000  
C20  25831920.234   134513583.222        2642.753          24.000  
C32  22201463.547   115608799.155         988.220          29.000  
C37  22631156.976   117846359.661         820.599          31.000  
G10  20450986.776   107470723.842       -1707.381          28.000                                                                  
G31  21191858.482   111363960.6161        404.088          37.000                                                                  
G32  21327005.222   112074152.644         824.070          29.000                                                                  
> 2021 11 06 07 27 15.9999693  0 12                     
C07  37849766.752   197093670.108        1062.127          25.000  
C10  38591203.266   200954540.965         953.318          19.000  
C16  37283227.958   194143352.1371       -161.649          21.000  
C20  25831352.127   134510628.475        2642.419          29.000  
C23  22426558.217   116780973.6881      -1842.253          27.000  
C32  22201213.220   115607498.897         987.721          30.000  
C37  22630939.327   117845226.447         821.094          32.000  
G10  20451252.393   107472117.065       -1710.033          26.000                                                                  
G23  22450298.482   117977033.5191      -3532.044          18.000                                                                  
G26  23043621.033   121094954.1751       3257.668          20.000                                                                  
G31  21191718.778   111363242.456         403.459          38.000                                                                  
G32  21326786.673   112073013.621         823.380          26.000                                                                  
> 2021 11 06 07 27 16.9999693  0 10                     
C07  37849562.893   197092608.191        1061.388          26.000  
C10  38591020.393   200953589.490         950.792          25.000  
C16  37283257.938   194143513.909        -162.359          20.000  
C20  25830843.679   134507986.464        2641.620          29.000  
C23  22426913.771   116782815.940       -1842.376          28.000  
C32  22201024.351   115606511.533         987.051          33.000  
C37  22630781.336   117844405.334         820.637          31.000  
G23  22450973.614   117980570.823       -3535.060          18.000                                                                  
G26  23043002.561   121091697.345        3256.095          26.000                                                                  
G31  21191639.034   111362840.416         402.799          36.000                                                                  
> 2021 11 06 07 27 17.9999690  0 11                     
C07  37849272.394   197091079.752        1059.442          26.000  
C10  38590747.581   200952169.766         951.390          25.000  
C16  37283197.979   194143209.332        -164.316          22.000  
C20  25830247.392   134504877.613        2639.823          31.000  
C23  22427180.586   116784190.183       -1842.904          29.000  
C32  22200746.143   115605056.049         986.933          34.000  
C37  22630533.408   117843116.455         820.514          33.000  
G25  20978833.156   110244579.2821      -1608.253          17.000                                                                  
G26  23042294.451   121087969.920        3254.595          28.000                                                                  
G31  21191478.645   111361966.506         400.549          35.000                                                                  
G32  21326387.049   112070895.3131        823.210          29.000                                                                  
> 2021 11 06 07 27 18.9999688  0 11                     
C07  37849010.975   197089708.941        1057.036          25.000  
C10  38590505.349   200950906.288         951.284          28.000  
C16  37283168.899   194143061.011        -164.007          27.000  
C20  25829679.285   134501924.852        2640.150          26.000  
C23  22427476.481   116785720.439       -1842.519          30.000  
C32  22200499.114   115603757.957         984.685          34.000  
C37  22630318.157                         818.207          34.000  
G10  20452088.814   107476464.8191      -1713.901          34.000                                                                  
G26  23041616.021   121084400.213        3254.471          29.000                                                                  
G31  21191343.138   111361251.273         399.361          37.000                                                                  
G32  21326168.201   112069756.944         822.563          26.000                                                                  
> 2021 11 06 07 27 19.9999685  0 11                     
C07  37848717.178   197088183.825        1057.146          24.000  
C10  38590233.737   200949487.803         948.641          28.000  
C16  37283111.639   194142756.457        -164.757          27.000  
C23  22427740.598   116787094.893       -1842.838          27.000  
C32  22200219.408                         983.713          34.000  
C37  22630070.228   117840719.1931        817.116          35.000  
G10  20452328.048                       -1715.058          34.000                                                                  
G25  20979294.237   110247010.5681      -1610.257          18.000                                                                  
G26  23040907.612   121080673.798        3252.521          28.000                                                                  
G31  21191179.152   111360379.646         399.123          38.000                                                                  
G32  21325921.472   112068461.951         821.195          23.000                                                                  
> 2021 11 06 07 27 20.9999683  0 10                     
C07  37848452.162   197086813.928        1057.599          25.000  
C10  38589991.505   200948227.226         949.163          29.000  
C16  37283085.557   194142609.202        -165.373          26.000  
C23  22428036.194   116788626.119       -1844.403          29.000  
C32  22199972.379   115601071.3711        983.153          33.000  
C37  22629856.476                         815.888          34.000  
G10  20452595.463   107479109.5011      -1716.669          34.000                                                                  
G26  23040230.081   121077106.689        3252.388          27.000                                                                  
G31  21191043.046   111359666.036         397.736          38.000                                                                  
G32  21325705.621   112067325.827         820.568          28.000                                                                  
> 2021 11 06 07 27 21.9999683  0 12                     
C07  37848248.003   197085757.154        1056.495          24.000  
C10  38589809.531   200947278.299         948.631          29.000  
C16  37283118.534   194142774.005        -165.669          27.000  
C20  25828002.546   134493223.6711       2641.135          21.000  
C23  22428391.148   116790470.116       -1844.966          29.000  
C32  22199784.409   115600087.684         982.312          33.000  
C37  22629699.985   117838772.8971        816.988          33.000  
G10  20452921.037   107480825.723       -1716.424          34.000                                                                  
G25  20979853.350   110249921.3221      -1613.754          18.000                                                                  
G26  23039609.510   121073853.849        3252.603          28.000                                                                  
G31  21190967.498   111359267.988         396.596          38.000                                                                  
G32  21325549.729   112066505.474         820.234          27.000                                                                  
> 2021 11 06 07 27 22.9999680  0 11                     
C10  38589537.319   200945861.513         947.867          29.000  
C16  37283060.974   194142470.458        -164.138          27.000  
C20  25827405.359   134490114.371        2640.754          21.000  
C23  22428657.364   116791847.101       -1845.424          27.000  
C32  22199506.501   115598636.381         981.786          33.000  
C37  22629448.759   117837488.765         815.643          34.000  
G10  20453158.773   107482070.274       -1718.546          35.000                                                                  
G25  20980073.697   110251064.294       -1617.753          19.000                                                                  
G26  23038899.901   121070129.494        3251.238          27.000                                                                  
G31  21190802.613   111358398.050         397.507          39.000                                                                  
G32  21325303.899   112065212.492         819.791          28.000                                                                  
> 2021 11 06 07 27 23.9999677  0 12                     
C07  37847656.812   197082706.4711       1056.342          23.000  
C10  38589265.108   200944445.260         947.814          30.000  
C16  37283003.114   194142165.940        -164.382          27.000  
C20  25826807.573   134487006.478        2638.483          21.000  
C23  22428921.481   116793224.201       -1846.372          28.000  
C32  22199224.996   115597185.608         982.732          33.000  
C37  22629204.728   117836205.272         814.228          33.000  
G10  20453393.211   107483315.659       -1717.179          34.000                                                                  
G25  20980291.047   110252210.707       -1621.410          19.000                                                                  
G26  23038189.993   121066405.130        3251.575          27.000                                                                  
G31  21190636.228   111357528.638         395.677          38.000                                                                  
G32  21325058.669   112063920.275         819.339          28.000                                                                  
> 2021 11 06 07 27 24.9999675  0 11                     
C07  37847392.995   197081338.061        1055.180          23.000  
C10  38589022.576   200943184.612         948.395          30.000  
C16  37282975.833   194142017.919        -165.315          27.000  
C23  22429213.778   116794758.196       -1846.962          25.000  
C32  22198974.070   115595891.755         982.722          32.000  
C37  22628988.877   117835078.743         814.159          33.000  
G10  20453659.126   107484719.641       -1718.852          34.000    20453664.523    80264556.9331      -1283.393          27.000  
G25  20980540.474   110253516.911       -1620.316          19.000                                                                  
G26  23037509.464   121062838.196        3251.892          27.000                                                                  
G31  21190500.422   111356817.663         395.513          38.000                                                                  
G32  21324843.118   112062785.438         819.232          29.000    21324849.414    83683288.4261        612.111          29.000  
> 2021 11 06 07 27 25.9999672  0 10                     
C07  37847100.398   197079814.881        1054.500          24.000  
C10  38588751.263   200941768.183         948.153          29.000  
C16  37282917.673   194141713.891        -164.490          25.000  
C32  22198697.661   115594442.515         980.523          32.000  
C37  22628740.649   117833796.848         813.164          33.000  
G10  20453899.260   107485967.121       -1720.516          33.000    20453901.958    80265488.805       -1285.935          27.000  
G23  22456399.858   118009088.2891      -3539.084          24.000                                                                  
G26  23036801.054   121059113.984        3251.349          27.000                                                                  
G31  21190336.136   111355949.843         394.664          38.000                                                                  
G32  21324598.188   112061494.336         817.759          29.000    21324603.584    83682323.649         611.277          30.000  
> 2021 11 06 07 27 26.9999672  0 11                     
C07  37846898.637   197078760.873        1053.681          24.000  
C10  38588568.990   200940820.183         947.932          30.000  
C16  37282948.852   194141879.930        -166.774          25.000  
C20  25825132.932   134478308.8001       2639.776          22.000  
C32  22198508.193   115593462.239         982.113          32.000  
C37  22628583.558   117832983.953         813.991          33.000  
G10  20454226.634   107487688.017       -1719.505          34.000    20454229.931    80266774.743       -1285.573          27.000  
G23  22457070.494   118012626.739       -3538.697          24.000                                                                  
G26  23036181.084   121055863.224        3250.142          27.000                                                                  
G31  21190259.089   111355555.306         395.115          38.000                                                                  
G32  21324443.495   112060677.038         816.927          29.000    21324447.692    83681712.502         611.430          30.000  
> 2021 11 06 07 27 27.9999670  0 11                     
C07  37846636.619   197077394.689        1054.042          25.000  
C10  38588326.757   200939560.253         947.352          30.000  
C16  37282921.570   194141734.092        -167.046          23.000  
C20  25824565.425   134475357.276        2637.955          23.000  
C32  22198262.363   115592170.363         979.433          32.000  
C37  22628367.407   117831859.507         812.792          33.000  
G10  20454497.946   107489094.798       -1722.335          33.000    20454497.646    80267825.411       -1286.445          28.000  
G23  22457683.869   118015850.306       -3538.113          25.000                                                                  
G26  23035502.354   121052298.359        3248.459          27.000                                                                  
G31  21190125.082   111354846.335         393.434          38.000                                                                  
G32  21324229.743   112059545.091         816.033          29.000    21324232.441    83680866.616         611.095          30.000  
> 2021 11 06 07 27 28.9999670  0 11                     
C07  37846434.559   197076341.715        1052.962          25.000  
C10  38588146.282   200938612.927         946.534          30.000  
C16  37282955.447   194141901.644        -168.694          24.000  
C20  25824060.275   134472719.205        2638.227          21.000  
C32  22198073.793   115591191.501         979.540          31.000  
C37  22628214.213   117831048.131         810.111          33.000  
G10                                                                  20454825.619    80269112.513       -1287.452          28.000  
G23  22458356.603   118019388.154       -3537.294          24.000                                                                  
G26  23034882.982   121049049.338        3249.013          28.000                                                                  
G31  21190048.335   111354453.227         393.300          37.000                                                                  
G32  21324076.849   112058729.658         815.295          29.000    21324076.849    83680255.856         610.105          30.000  
> 2021 11 06 07 27 29.9999667  0 11                     
C07  37846141.961   197074819.380        1053.424          25.000  
C10  38587876.169   200937198.147         946.347          31.000  
C16  37282899.386   194141601.687        -168.345          26.000  
C20  25823466.686   134469613.033        2636.728          23.000  
C32  22197793.188   115589745.136         979.588          32.000  
C37  22627964.186   117829769.236         810.003          33.000  
G10  20455054.361   107492069.0021      -1724.370          32.000    20455063.954    80270046.619       -1287.288          27.000  
G23  22458940.899   118022454.185       -3539.893          25.000                                                                  
G26  23034173.673   121045327.525        3249.032          27.000                                                                  
G31  21189883.749   111353588.346         390.830          37.000                                                                  
G32  21323834.017   112057441.130         814.990          29.000    21323831.918    83679294.334         607.958          29.000  
> 2021 11 06 07 27 30.9999665  0 11                     
C07  37845880.842   197073454.434        1052.593          26.000  
C10  38587635.736   200935939.821         945.754          30.000  
C16  37282872.704   194141458.000        -169.219          24.000  
C20  25822900.078   134466664.964        2635.124          23.000  
C32  22197543.760   115588455.646         977.025          31.000  
C37  22627748.636   117828647.307         810.484          32.000  
G10  20455317.279   107493478.922       -1724.596          32.000    20455331.369    80271100.273       -1290.535          27.000  
G23  22459555.173   118025680.175       -3542.495          26.000                                                                  
G26  23033495.843   121041763.210        3248.695          28.000                                                                  
G31  21189748.542   111352881.808         391.211          36.000                                                                  
G32  21323619.365   112056310.362         815.508          29.000    21323616.967    83678451.113         607.277          30.000  
> 2021 11 06 07 27 31.9999662  0 10                     
C07  37845588.844   197071933.369        1054.555          26.000  
C10  38587365.023   200934525.332         946.191          30.000  
C16  37282815.744   194141158.173        -168.022          25.000  
C32  22197267.052   115587010.697         975.980          32.000  
C37  22627505.504   117827369.887         808.391          32.000  
G10  20455558.312   107494732.189       -1727.319          32.000    20455570.303    80272037.550       -1289.906          29.000  
G23  22460139.469   118028750.818       -3543.844          26.000                                                                  
G26  23032788.033   121038042.233        3247.693          28.000                                                                  
G31  21189586.055   111352018.319         390.937          36.000                                                                  
G32  21323374.135   112055022.131         815.875          28.000    21323372.037    83677489.521         610.494          30.000  
> 2021 11 06 07 27 32.9999662  0 11                     
C07  37845389.182   197070879.910        1052.868          25.000  
C10  38587183.349   200933580.269         944.314          30.000  
C16  37282849.920   194141326.555        -169.395          25.000  
C20  25821803.737   134460930.8311       2633.513          23.000  
C32  22197080.581   115586034.804         977.861          31.000  
C37  22627348.712   117826561.575         808.000          32.000  
G10  20455889.882   107496459.072       -1726.979          31.000    20455899.176    80273327.971       -1288.082          27.000  
G23  22460812.503   118032295.480       -3544.310          25.000                                                                  
G26  23032171.060   121034795.478        3245.701          28.000                                                                  
G31  21189509.008   111351628.238         388.630          36.000                                                                  
G32  21323217.943   112054206.591         814.933          28.000    21323216.145    83676880.326         609.522          30.000  
> 2021 11 06 07 27 33.9999660  0 12                     
C03  36377814.863   189428827.8961       -326.648          28.000  
C07  37845127.164   197069514.943        1052.131          26.000  
C10  38586942.316   200932323.301         945.359          31.000  
C16  37282820.840   194141183.994        -169.433          25.000  
C20  25821236.830   134457984.608        2633.547          22.000  
C32  22196833.552   115584747.232         973.220          32.000  
C37  22627130.164   117825441.650         805.666          32.000  
G10  20456160.295   107497871.717       -1728.077          32.000    20456167.190    80274381.097       -1289.319          27.000  
G23  22461424.679   118035524.946       -3544.638          26.000                                                                  
G26  23031495.927   121031234.381        3246.389          28.000                                                                  
G31  21189376.500   111350923.630         388.475          36.000                                                                  
G32  21323003.892   112053076.556         814.822          29.000    21323001.193    83676036.206         607.295          30.000  
> 2021 11 06 07 27 34.9999657  0 11                     
C07  37844835.466   197067994.597        1051.569          25.000  
C10  38586671.303   200930909.701         945.335          31.000  
C16  37282763.580   194140884.702        -168.262          25.000  
C20  25820641.442   134454883.095        2632.577          24.000  
C32  22196557.743   115583304.256         976.626          31.000  
C37  22626886.432   117824166.408         807.727          32.000  
G10  20456399.529   107499127.755       -1727.595          31.000    20456405.825    80275317.092       -1289.215          28.000  
G23  22462008.375   118038597.051       -3544.506          26.000                                                                  
G26  23030788.117   121027515.014        3245.443          28.000                                                                  
G31  21189212.813   111350062.234         388.590          37.000                                                                  
G32  21322759.561   112051789.080         814.287          28.000    21322756.563    83675075.572         607.804          30.000  
> 2021 11 06 07 27 35.9999654  0 11                     
C07  37844544.667   197066475.699        1051.093          26.000  
C10  38586399.392   200929496.563         943.680          31.000  
C16  37282705.120   194140584.479        -168.485          26.000  
C20  25820046.953   134451782.760        2631.738          22.000  
C32  22196279.535   115581861.975         975.690          31.000  
C37  22626644.800   117822891.852         805.973          32.000  
G10  20456637.864   107500384.802       -1729.848          32.000    20456645.359    80276255.135       -1292.956          28.000  
G23  22462594.170   118041668.959       -3545.381          25.000                                                                  
G26  23030082.106   121023796.973        3246.127          29.000                                                                  
G31  21189047.328   111349201.523         388.010          37.000                                                                  
G32  21322514.630   112050502.197         814.614          27.000    21322511.632    83674113.497         608.791          30.000  
> 2021 11 06 07 27 36.9999652  0 12                     
C07  37844284.147   197065111.923        1051.923          25.000  
C10  38586157.759   200928240.874         942.892          30.000  
C16  37282676.940   194140440.741        -168.430          27.000  
C20  25819482.744   134448838.204        2632.386          21.000  
C32  22196031.007   115580576.486         972.957          31.000  
C37  22626427.150   117821774.207         806.037          32.000  
G10  20456910.675   107501800.317       -1730.760          33.000    20456915.172    80277312.980       -1292.124          27.000  
G23  22463207.845   118044899.406       -3546.025          26.000                                                                  
G25  20983557.885   110269385.7501      -1636.188          16.000                                                                  
G26  23029406.074   121020236.493        3245.240          29.000                                                                  
G31  21188913.620   111348499.081         386.711          36.000                                                                  
G32  21322298.480   112049373.074         812.794          26.000    21322296.381    83673269.459         608.283          30.000  
> 2021 11 06 07 27 37.9999649  0 12                     
C07  37843993.948   197063591.506        1051.830          27.000  
C10  38585886.447   200926829.680         942.059          31.000  
C16  37282618.480   194140140.531        -168.563          27.000  
C20  25818885.857   134445738.123        2631.225          22.000  
C32  22195756.997   115579135.666         972.264          31.000  
C37  22626185.818   117820501.158         804.427          32.000  
G10  20457145.413   107503059.340       -1731.407          32.000    20457154.706    80278252.084       -1292.350          27.000  
G23  22463793.339   118047972.577       -3546.777          26.000                                                                  
G25  20983778.532   110270547.156       -1633.757          16.000                                                                  
G26  23028699.163   121016518.931        3244.681          28.000                                                                  
G31  21188749.634   111347639.867         386.682          36.000                                                                  
G32  21322052.650   112048087.901         811.414          27.000    21322052.051    83672309.859         606.547          30.000  
> 2021 11 06 07 27 38.9999649  0 11                     
C07  37843792.488   197062540.127        1051.025          25.000  
C10  38585704.473   200925887.292         942.842          30.000  
C16  37282649.659   194140309.134        -168.439          26.000  
C20  25818381.307   134443105.816        2632.293          22.000  
C32  22195571.725   115578163.833         971.265          31.000  
C37  22626030.525   117819697.090         802.713          32.000  
G10  20457476.983   107504791.832       -1733.428          32.000    20457484.778    80279545.079       -1293.028          28.000  
G23  22464467.873   118051519.833       -3547.547          25.000                                                                  
G26  23028081.591   121013274.555        3243.888          29.000                                                                  
G31  21188677.684   111347253.859         386.635          36.000                                                                  
G32  21321895.859   112047276.092         812.235          28.000    21321897.358    83671703.640         606.875          30.000  
> 2021 11 06 07 27 39.9999647  0 12                     
C07  37843530.469   197061176.329        1051.313          25.000  
C09  37674515.276   196181060.3091       -315.235          22.000  
C10  38585463.440   200924632.293         942.210          30.000  
C16  37282619.380   194140164.573        -167.224          27.000  
C20  25817814.699   134440161.326        2631.919          22.000  
C32  22195326.195   115576880.391         970.419          31.000  
C37  22625816.773   117818581.542         802.597          32.000  
G10  20457748.595   107506210.191       -1734.980          33.000    20457755.191    80280603.165       -1294.365          28.000  
G23  22465080.948   118054752.447       -3547.887          25.000                                                                  
G26  23027404.360   121009715.642        3243.498          28.000                                                                  
G31  21188545.175   111346553.493         384.036          36.000                                                                  
G32  21321681.207   112046148.848         812.188          27.000    21321683.006    83670861.874         605.772          30.000  
> 2021 11 06 07 27 40.9999644  0 11                     
C07  37843239.670   197059656.977        1050.688          26.000  
C09  37674485.896   196180906.261        -312.274          21.000  
C10  38585192.727   200923222.215         940.607          30.000  
C16  37282560.620   194139863.454        -167.071          26.000  
C32  22195047.688   115575441.657         970.866          31.000  
C37  22625574.840   117817310.689         802.459          32.000  
G10  20457992.926   107507472.048       -1733.511          33.000    20457995.624    80281545.039       -1295.958          28.000  
G23  22465664.644   118057827.756       -3547.384          25.000                                                                  
G26  23026698.348   121005999.835        3242.786          29.000                                                                  
G31  21188385.086   111345696.337         382.522          36.000                                                                  
G32  21321435.677   112044864.494         812.067          29.000    21321438.975    83669903.379         605.504          31.000  
> 2021 11 06 07 27 41.9999642  0 12                     
C07  37842978.251   197058294.481        1049.815          26.000  
C09  37674484.997   196180906.411        -312.299          20.000  
C10  38584951.394   200921968.572         942.111          30.000  
C16  37282533.339   194139718.511        -167.100          25.000  
C32  22194804.856   115574159.663         967.953          31.000  
C37  22625357.491   117816196.649         800.288          33.000  
G10  20458265.737   107508892.362       -1736.217          33.000    20458266.337    80282605.785       -1295.263          27.000  
G23  22466277.420   118061061.104       -3549.557          25.000                                                                  
G25  20984818.812   110275986.8471      -1641.128          17.000                                                                  
G26  23026021.717   121002442.288        3242.127          28.000                                                                  
G31  21188250.479   111344997.462         382.574          36.000                                                                  
G32  21321221.625   112043737.270         812.084          29.000    21321224.324    83669062.155         605.790          30.000  
> 2021 11 06 07 27 42.9999639  0 12                     
C07  37842687.153   197056777.411        1048.532          26.000  
C09  37674456.516   196180751.343        -314.378          22.000  
C10  38584680.082   200920558.567         941.468          31.000  
C16  37282476.678   194139418.793        -170.130          26.000  
C20  25816051.919   134431014.3661       2633.555          23.000  
C32  22194526.049   115572722.341         969.699          31.000  
C37  22625117.057   117814927.293         801.664          33.000  
G10  20458501.374   107510156.148       -1736.992          33.000    20458506.471    80283548.397       -1295.347          28.000  
G23  22466859.617   118064138.056       -3549.637          24.000                                                                  
G26  23025313.307   120998727.747        3241.395          28.000                                                                  
G31  21188086.193   111344141.765         382.504          36.000                                                                  
G32  21320977.894   112042453.373         810.621          29.000    21320979.993    83668103.089         605.977          29.000  
> 2021 11 06 07 27 43.9999636  0 11                     
C07  37842396.354   197055261.059        1047.629          26.000  
C09  37674428.036   196180597.253        -314.360          21.000  
C10  38584409.069   200919148.595         940.253          31.000  
C16  37282418.819   194139120.681        -171.015          27.000  
C32  22194252.639   115571285.797         967.591          30.000  
C37  22624877.223   117813658.779         799.873          33.000  
G10  20458741.208   107511421.058       -1737.908          33.000    20458746.305    80284492.551       -1298.997          28.000  
G23  22467448.109   118067215.559       -3551.386          23.000                                                                  
G26  23024605.797   120995013.838        3241.022          28.000                                                                  
G31  21187924.605   111343286.862         382.447          36.000                                                                  
G32  21320732.964   112041170.870         808.953          27.000    21320735.662    83667144.527         605.774          30.000  
> 2021 11 06 07 27 44.9999636  0 12                     
C07  37842195.193   197054212.696        1048.536          26.000  
C09  37674490.693   196180910.804        -313.418          22.000  
C10  38584229.194   200918208.343         939.834          30.000  
C16  37282449.697   194139292.574        -171.399          26.000  
C20  25814950.781   134425281.4351       2629.809          24.000  
C32  22194064.669   115570318.270         967.570          30.000  
C37  22624720.132   117812859.239         799.274          33.000  
G10  20459072.479   107513159.463       -1738.364          33.000    20459077.875    80285791.343       -1298.220          28.000  
G23  22468124.441   118070767.418       -3551.521          22.000                                                                  
G26  23023989.124   120991773.052        3240.228          28.000                                                                  
G31  21187852.955   111342905.262         381.026          36.000                                                                  
G32  21320577.671   112040362.057         808.417          29.000    21320581.269    83666539.495         604.682          30.000  
> 2021 11 06 07 27 45.9999636  0 12                     
C07  37841993.733   197053164.710        1047.511          25.000  
C09  37674551.850   196181223.279        -310.998          21.000  
C10  38584049.618   200917268.729         938.914          30.000  
C16  37282482.075   194139464.096        -171.609          26.000  
C32  22193879.097   115569351.475         964.324          31.000  
C37  22624569.636   117812060.529         798.144          34.000  
G10  20459401.651   107514898.853       -1740.231          32.000    20459408.546    80287090.220       -1298.260          27.000  
G23  22468801.372   118074319.641       -3553.096          21.000                                                                  
G25  20985909.457   110281608.3791      -1641.239          20.000                                                                  
G26  23023372.151   120988532.863        3239.969          28.000                                                                  
G31  21187779.805   111342524.423         379.533          36.000                                                                  
G32  21320422.978   112039553.929         807.298          28.000    21320428.075    83665935.502         603.936          30.000  
> 2021 11 06 07 27 46.9999634  0 12                     
C07  37841733.513   197051805.387        1046.754          26.000  
C09  37674550.352   196181221.401        -310.439          21.000  
C10  38583809.185   200916017.405         938.962          30.000  
C16  37282452.695   194139323.466        -171.620          25.000  
C32  22193637.764   115568073.272         965.732          30.000  
C37  22624355.884   117810950.471         796.715          34.000  
G10  20459673.863   107516324.286       -1740.062          32.000    20459679.559    80288154.490       -1300.362          27.000  
G23  22469417.146   118077556.376       -3552.461          22.000                                                                  
G25  20986163.082   110282934.364       -1641.138          20.000                                                                  
G26  23022693.421   120984978.074        3239.278          27.000                                                                  
G31  21187651.194   111341829.336         380.516          36.000                                                                  
G32  21320206.528   112038431.210         808.318          28.000    21320214.323    83665096.318         604.262          30.000  
> 2021 11 06 07 27 47.9999631  0 11                     
C07  37841443.614   197050290.291        1046.983          26.000  
C09  37674520.672   196181064.327        -311.046          21.000  
C10  38583539.072   200914610.284         938.504          30.000  
C16  37282396.334   194139026.749        -171.987          25.000  
C32  22193358.658   115566639.637         965.279          31.000  
C37  22624114.551   117809685.038         797.136          34.000  
G10  20459914.296   107517593.116       -1741.295          32.000    20459920.592    80289101.207       -1300.332          27.000  
G23  22470000.542   118080636.659       -3552.595          22.000                                                                  
G26  23021985.911   120981266.338        3238.815          27.000                                                                  
G31  21187485.409   111340977.463         378.287          36.000                                                                  
G32  21319961.898   112037150.079         808.222          28.000    21319970.591    83664139.273         603.621          30.000  
> 2021 11 06 07 27 48.9999629  0 11                     
C07  37841182.195   197048932.481        1044.435          25.000  
C09  37674522.471   196181063.624        -311.288          21.000  
C10  38583299.238   200913359.692         937.956          31.000  
C16  37282369.353   194138885.907        -170.702          26.000  
C20  25812716.428   134413664.7731       2629.875          24.000  
C32  22193114.027   115565363.363         963.200          31.000  
C37  22623901.699   117808576.863         795.521          34.000  
G10  20460184.409   107519020.944       -1742.823          33.000    20460191.904    80290166.437       -1300.658          27.000  
G26  23021308.979   120977712.846        3238.271          27.000                                                                  
G31  21187354.100   111340284.230         377.488          36.000                                                                  
G32  21319748.445   112036026.749         807.880          28.000    21319756.540    83663300.542         602.499          30.000  
> 2021 11 06 07 27 49.9999626  0 10                     
C07  37840891.996   197047420.364        1042.788          26.000  
C10  38583028.525   200911953.382         937.560          31.000  
C16  37282312.692   194138588.825        -171.231          27.000  
C32  22192837.318   115563932.015         962.852          31.000  
C37  22623660.066   117807313.797         794.736          35.000  
G10  20460427.841   107520292.581       -1743.949          32.000    20460433.237    80291114.476       -1302.511          28.000  
G23  22471203.010   118086953.0031      -3553.208          17.000                                                                  
G26  23020600.870   120974003.125        3236.538          27.000                                                                  
G31  21187190.413   111339434.617         377.490          36.000                                                                  
G32  21319504.714   112034746.210         807.150          28.000    21319513.108    83662345.872         601.452          30.000  
> 2021 11 06 07 27 50.9999626  0 11                     
C07  37840693.533   197046377.635        1042.423          26.000  
C09  37674548.253   196181220.1691       -312.696          19.000  
C10  38582848.050   200911015.783         937.224          30.000  
C16  37282346.569   194138760.240        -171.720          27.000  
C20  25811620.987   134407939.0201       2626.325          25.000  
C32  22192654.745   115562969.234         963.398          31.000  
C37  22623507.472   117806519.284         794.991          34.000  
G10  20460758.811   107522037.357       -1746.170          32.000    20460765.107    80292417.114       -1303.678          28.000  
G26  23019982.398   120970766.242        3237.392          26.000                                                                  
G31  21187118.463   111339057.901         377.563          36.000                                                                  
G32  21319351.820   112033940.290         805.620          28.000    21319359.914    83661744.718         602.068          30.000  
> 2021 11 06 07 27 51.9999624  0 13                     
C07  37840432.114   197045021.518        1044.843          25.000  
C09  37674547.354   196181222.580        -315.534          22.000  
C10  38582607.916   200909766.066         937.989          30.000  
C16  37282319.887   194138620.665        -173.554          27.000  
C20  25811057.976   134405000.235        2626.077          25.000  
C23  22437300.080   116836909.0521      -1862.617          29.000  
C32  22192405.317   115561694.950         962.047          31.000  
C37  22623294.319   117805413.259         792.596          35.000  
G10  20461029.524   107523467.961       -1745.752          32.000    20461037.918    80293484.888       -1302.866          28.000  
G25  20987441.097   110289594.4601      -1647.606          18.000                                                                  
G26  23019307.265   120967214.121        3236.574          26.000                                                                  
G31  21186985.955   111338366.729         376.288          36.000                                                                  
G32  21319138.368   112032819.760         805.079          27.000    21319146.762    83660908.064         602.097          30.000  
> 2021 11 06 07 27 52.9999621  0 13                     
C07  37840141.315   197043509.342        1043.460          26.000  
C09  37674517.075   196181070.801        -316.198          22.000  
C10  38582336.604   200908360.292         937.113          30.000  
C16  37282262.027   194138325.391        -172.612          27.000  
C20  25810464.088   134401905.960        2625.052          24.000  
C23  22437566.596   116838304.023       -1864.426          30.000  
C32  22192132.506   115560265.238         960.979          31.000  
C37  22623052.687   117804151.922         792.038          34.000  
G10  20461271.756   107524741.974       -1746.455          32.000    20461280.151    80294435.655       -1303.730          28.000  
G25  20987666.841   110290770.296       -1648.728          16.000                                                                  
G26  23018601.854   120963504.909        3236.351          27.000                                                                  
G31  21186826.765   111337518.796         375.952          36.000                                                                  
G32  21318895.536   112031541.581         805.668          29.000    21318903.330    83659953.476         600.756          30.000  
> 2021 11 06 07 27 53.9999619  0 13                     
C07  37839880.796   197042152.933        1044.285          26.000  
C09  37674516.475   196181075.132        -315.440          22.000  
C10  38582096.470   200907111.038         936.362          31.000  
C16  37282236.245   194138185.774        -173.165          27.000  
C20  25809901.677   134398967.860        2626.885          24.000  
C23  22437863.990   116839856.298       -1864.424          29.000  
C32  22191892.373   115558992.432         960.856          31.000  
C37  22622839.234   117803047.413         792.708          35.000  
G10  20461545.767   107526174.612       -1749.474          32.000    20461552.962    80295505.443       -1305.447          27.000  
G25  20987922.564   110292104.190       -1649.085          16.000                                                                  
G26  23017925.522   120959953.343        3235.884          26.000                                                                  
G31  21186695.156   111336829.135         373.644          36.000                                                                  
G32  21318683.283   112030421.384         803.392          28.000    21318690.178    83659117.691         600.280          30.000  
> 2021 11 06 07 27 54.9999616  0 14                     
C07  37839590.297   197040640.260        1044.760          27.000  
C09  37674486.496   196180922.797        -316.393          21.000  
C10  38581826.357   200905706.262         936.310          30.000  
C16  37282179.284   194137890.334        -173.697          26.000  
C20  25809311.086   134395872.681        2627.151          26.000  
C23  22438131.705   116841253.153       -1866.406          30.000  
C32  22191617.763   115557564.271         960.990          30.000  
C37  22622599.400   117801787.682         789.675          35.000  
G10  20461785.001   107527450.765       -1749.915          31.000    20461795.494    80296458.884       -1306.781          28.000  
G23  22474273.184   118103156.5821      -3558.346          15.000                                                                  
G25  20988152.205   110293277.986       -1644.441          15.000                                                                  
G26  23017219.511   120956244.829        3235.258          26.000                                                                  
G31  21186533.268   111335982.802         375.496          36.000                                                                  
G32  21318441.650   112029145.443         802.376          28.000    21318447.046    83658164.371         600.942          30.000  
> 2021 11 06 07 27 55.9999613  0 13                     
C07  37839299.798   197039127.162        1043.360          26.000  
C10  38581555.945   200904302.055         935.182          30.000  
C16  37282122.923   194137595.916        -173.574          25.000  
C20  25808717.796   134392777.593        2626.413          25.000  
C23  22438400.019   116842651.435       -1867.894          29.000  
C32  22191341.354   115556136.910         958.771          30.000  
C37  22622358.667   117800528.743         790.117          35.000  
G10  20462025.135   107528727.881       -1749.946          31.000    20462039.225    80297412.715       -1307.201          28.000  
G23  22474857.780   118106245.522       -3563.717          13.000                                                                  
G25  20988380.047   110294448.517       -1641.609          13.000                                                                  
G26  23016516.197   120952537.067        3235.501          25.000                                                                  
G31  21186370.481   111335137.146         372.960          35.000                                                                  
G32  21318199.717   112027869.847         803.008          29.000    21318203.915    83657211.033         600.049          30.000  
> 2021 11 06 07 27 56.9999613  0 11                     
C07  37839098.038   197038084.185        1042.744          26.000  
C10  38581376.669   200903367.055         934.474          31.000  
C16  37282157.100   194137769.747        -174.336          29.000  
C20  25808214.145   134390151.863        2625.865          26.000  
C23  22438757.971   116844519.239       -1868.479          29.000  
C32  22191159.080   115555178.513         957.190          33.000  
C37  22622205.473   117799738.684         787.979          33.000  
G10  20462362.401   107530478.646       -1751.834          32.000    20462371.395    80298719.609       -1306.977          28.000  
G26  23015902.822   120949302.066        3234.729          27.000                                                                  
G31  21186296.132   111334764.578         371.875          35.000                                                                  
G32  21318047.723   112027066.204         803.667          29.000    21318050.721    83656611.075         600.661          30.000  
> 2021 11 06 07 27 57.9999611  0 12                     
C06  36835129.970   191810022.8541       -231.172          28.000  
C07  37838837.218   197036729.519        1042.290          25.000  
C09  37674510.179   196181097.2941       -318.024          22.000  
C10  38581135.636   200902120.933         933.193          31.000  
C16  37282130.718   194137632.334        -175.320          31.000  
C20  25807649.336   134387213.945        2626.443          26.000  
C23  22439056.265   116846075.448       -1868.925          34.000  
C32  22190916.848   115553908.946         958.588          32.000  
C37  22621993.820   117798637.684         787.893          35.000  
G10  20462634.013   107531915.581       -1753.058          35.000    20462644.506    80299791.593       -1307.811          28.000  
G26  23015226.790   120945753.223        3232.470          26.000                                                                  
G32  21317835.470   112025947.505         803.566          33.000    21317837.868    83655777.061         596.270          26.000  
> 2021 11 06 07 27 58.9999608  0 13                     
C06  36835082.303   191809785.510        -230.799          29.000  
C07  37838544.321   197035219.704        1040.965          23.000  
C09  37674479.301   196180947.933        -318.164          23.000  
C10  38580864.923   200900718.704         933.974          29.000  
C16  37282074.657   194137339.844        -178.497          32.000  
C20  25807050.351   134384118.759        2626.164          24.000  
C23  22439324.279   116847475.847       -1868.983          34.000  
C32  22190643.137   115552483.738         954.750          34.000  
C37  22621753.686   117797381.066         786.433          37.000  
G10  20462877.745   107533195.913       -1754.971          33.000    20462888.537    80300746.793       -1308.811          29.000  
G26  23014522.278   120942047.880        3232.574          23.000                                                                  
G31  21186014.927   111333234.8671        368.336          34.000                                                                  
G32                                                                  21317595.636    83654827.322         597.450          23.000  
> 2021 11 06 07 27 59.9999606  0 14                     
C06  36835066.414   191809703.578        -229.224          28.000  
C07  37838281.403   197033866.425        1040.855          28.000  
C09  37674479.600   196180953.735        -318.053          24.000  
C10  38580626.288   200899472.148         934.624          31.000  
C16  37282044.378   194137204.791        -176.441          27.000  
C20  25806487.041   134381180.817        2624.900          24.000  
C23  22439624.072   116849031.965       -1867.830          32.000  
C32  22190399.706   115551215.547         956.281          34.000  
C37  22621542.332   117796281.273         787.029          35.000  
G10  20463153.853   107534634.485       -1751.750          33.000    20463163.147    80301821.247       -1310.332          30.000  
G23  22477372.139   118119393.4791      -3561.739          26.000                                                                  
G26  23013846.246   120938500.521        3231.840          25.000                                                                  
G31  21185881.519   111332549.814         371.616          36.000                                                                  
G32  21317380.684   112023555.9411        801.195          29.000    21317383.383    83653994.923         597.055          27.000  
> 2021 11 06 07 28 00.9999603  0 13                     
C06  36835020.246   191809462.927        -227.338          24.000  
C07  37837991.204   197032357.792        1040.047          29.000  
C09  37674450.820   196180801.674        -315.325          24.000  
C10  38580357.075   200898069.648         933.240          31.000  
C16  37281988.017   194136912.662        -175.893          27.000  
C20  25805892.852   134378086.569        2625.256          27.000  
C23  22439891.486   116850432.606       -1870.052          30.000  
C32  22190125.995   115549792.091         955.491          36.000  
C37  22621301.899   117795026.595         785.508          37.000  
G10  20463399.383   107535917.006       -1755.925          33.000    20463407.478    80302778.887       -1311.012          30.000  
G26  23013141.134   120934796.380        3231.193          26.000                                                                  
G31  21185721.730   111331708.172         368.709          35.000                                                                  
G32  21317140.850   112022282.031         801.891          24.000    21317140.251    83653044.396         599.116          27.000  
> 2021 11 06 07 28 01.9999601  0 14                     
C06  36835004.057   191809378.987        -229.195          30.000  
C07  37837730.984   197031005.948        1039.933          27.000  
C09  37674449.022   196180804.777        -315.975          25.000  
C10  38580118.140   200896823.980         933.254          31.000  
C16  37281961.035   194136776.112        -175.848          29.000  
C20  25805328.643   134375149.617        2624.151          25.000  
C23  22440190.080   116851990.871       -1871.303          36.000  
C32  22189883.164   115548525.907         954.668          30.000  
C37  22621085.748   117793928.990         784.884          35.000  
G10  20463675.192   107537358.304       -1756.259          34.000    20463682.088    80303855.899       -1314.061          26.000  
G23  22478586.598   118125730.5811      -3563.986          28.000                                                                  
G25  20989886.804   110302469.7491      -1656.483          20.000                                                                  
G31  21185596.117   111331025.181         370.056          36.000                                                                  
G32  21316928.597   112021165.134         801.425          27.000    21316927.098    83652209.465         602.172          26.000  
> 2021 11 06 07 28 02.9999601  0 14                     
C06  36835046.628   191809608.518        -230.180          30.000  
C07  37837528.324   197029965.500        1042.239          26.000  
C09  37674507.481   196181121.260        -317.377          27.000  
C10  38579939.164   200895891.028         932.158          29.000  
C16  37281994.912   194136951.395        -175.872          32.000  
C20  25804824.392   134372526.249        2621.989          29.000  
C23  22440548.032   116853862.438       -1872.280          36.000  
C32  22189696.393   115547572.734         953.247          27.000  
C37  22620935.552   117793144.561         784.327          38.000  
G10  20464006.463   107539115.848       -1758.694          33.000    20464016.056    80305169.238       -1312.985          26.000  
G23  22479267.727   118129294.563       -3563.945          29.000                                                                  
G26  23011852.926   120928019.9241       3229.295          23.000                                                                  
G31  21185523.867   111330658.324         366.118          33.000                                                                  
G32                                                                  21316774.504    83651607.009         603.283          18.000  
> 2021 11 06 07 28 03.9999601  0 15                     
C06  36835088.899   191809839.047        -230.089          28.000  
C07  37837327.463   197028923.911        1040.701          27.000  
C09  37674568.639   196181439.259        -318.389          26.000  
C10  38579759.888   200894959.383         931.354          29.000  
C16  37282028.789   194137127.290        -175.950          32.000  
C20  25804319.841   134369904.529        2621.570          27.000  
C23  22440907.183   116855734.792       -1872.094          35.000  
C32  22189514.119   115546620.481         952.256          26.000  
C37  22620785.056   117792360.627         783.871          38.000  
G10  20464341.631   107540874.066       -1758.354          32.000    20464348.526    80306482.436       -1313.185          22.000  
G12  23447237.915   123216066.7431      -3113.225          27.000                                                                  
G23  22479944.658   118132857.835       -3563.700          27.000                                                                  
G26  23011236.253   120924790.743        3228.710          23.000                                                                  
G31  21185449.518   111330291.763         366.904          30.000                                                                  
G32  21316622.210   112019564.0301        800.267          37.000    21316621.910    83651002.559         604.396          18.000  
> 2021 11 06 07 28 04.9999598  0 16                     
C06  36835042.431   191809600.944        -230.677          29.000  
C07  37837036.964   197027415.661        1039.523          28.000  
C09  37674539.859   196181289.609        -318.776          27.000  
C10  38579489.475   200893559.394         932.313          27.000  
C16  37281978.723   194136834.690        -175.701          31.000  
C20  25803726.552   134366814.492        2621.372          27.000  
C23  22441179.395                       -1873.535          34.000  
C32  22189241.907   115545199.841         953.038          26.000  
C37  22620546.122   117791109.009         782.871          38.000  
G10  20464582.664   107542160.553       -1761.273          31.000    20464593.757    80307443.676       -1314.086          23.000  
G12  23447736.470   123218707.477       -3113.760          28.000                                                                  
G23  22480531.652   118135948.738       -3563.711          28.000                                                                  
G25  20990731.619   110306977.8231      -1662.679          20.000                                                                  
G26  23010532.940   120921089.161        3228.736          22.000                                                                  
G31  21185287.031   111329453.228         365.180          30.000                                                                  
G32  21316375.780                         799.427          37.000    21316380.577    83650048.736         600.316          16.000  
> 2021 11 06 07 28 05.9999596  0 15                     
C06  36835026.542   191809519.498        -231.064          30.000  
C07  37836775.845   197026065.099        1037.039          26.000  
C09  37674541.658   196181296.487        -319.316          28.000  
C10  38579249.941   200892315.914         930.399          29.000  
C16  37281953.241                        -177.183          32.000  
C20  25803161.443   134363880.015        2622.951          28.000  
C23  22441479.787   116858670.4961      -1873.240          35.000  
C32  22188997.876   115543934.326         952.869          26.000  
C37  22620332.670   117790014.431         780.247          38.000  
G10  20464858.173   107543605.799       -1761.559          31.000    20464868.366    80308520.825       -1312.788          26.000  
G12  23448266.503   123221506.469       -3114.656          28.000                                                                  
G23  22481149.224   118139197.452       -3564.708          28.000                                                                  
G26  23009859.306   120917545.709        3227.778          21.000                                                                  
G31  21185156.321   111328773.138         364.608          29.000                                                                  
G32  21316161.728   112017196.8071        798.797          37.000    21316168.923    83649215.044         597.710          16.000  
> 2021 11 06 07 28 06.9999593  0 14                     
C06  36834980.973   191809282.275        -232.492          30.000  
C07  37836488.644   197024560.724        1035.219          25.000  
C09  37674514.976   196181147.057        -319.323          26.000  
C10  38578981.027   200890917.141         930.363          30.000  
C16  37281894.182   194136622.3801       -178.654          32.000  
C20  25802567.554   134360788.878        2622.215          28.000  
C23  22441755.896   116860076.182       -1874.717          38.000  
C32  22188724.466   115542513.550         951.718          28.000  
C37  22620090.437   117788764.341         785.336          32.000  
G10  20465106.701   107544894.365       -1761.664          32.000    20465113.896    80309481.849       -1315.147          28.000  
G12  23448765.657   123224148.999       -3115.746          24.000                                                                  
G26  23009150.297   120913845.749        3227.547          23.000                                                                  
G31  21185000.429   111327936.402         363.774          32.000                                                                  
G32  21315920.995   112015925.854         797.877          37.000    21315926.991    83648264.687         596.681          17.000  
> 2021 11 06 07 28 07.9999590  0 14                     
C06  36834934.805   191809046.402        -232.202          28.000  
C07  37836199.944   197023056.945        1035.751          27.000  
C09  37674486.196   196180999.498        -320.582          25.000  
C10  38578711.814   200889518.034         930.125          29.000  
C16  37281836.322   194136331.745        -177.302          31.000  
C20  25801976.064   134357699.849        2619.986          23.000  
C23  22442025.109   116861482.639       -1876.041          37.000  
C32  22188451.655   115541093.964         950.446          32.000  
C37  22619850.603   117787514.026         781.476          27.000  
G10  20465356.129   107546183.756       -1763.280          34.000    20465359.426    80310444.530       -1314.903          30.000  
G25  20991440.028   110310711.0261      -1665.327          21.000                                                                  
G26  23008444.885   120910145.856        3226.038          21.000                                                                  
G31  21184841.240   111327100.372         362.470          37.000                                                                  
G32  21315678.763   112014655.602         799.402          39.000    21315684.759    83647315.485         595.847          26.000  
> 2021 11 06 07 28 08.9999588  0 14                     
C06  36834918.017   191808966.273        -230.549          25.000  
C07  37835943.321   197021708.817        1036.193          30.000  
C09  37674488.894   196181007.834        -321.202          24.000  
C10  38578474.078   200888275.601         929.905          31.000  
C16  37281814.437   194136197.396        -178.995          33.000  
C20  25801415.452   134354767.638        2620.015          28.000  
C23  22442317.707   116863045.941       -1876.503          35.000  
C32  22188209.422   115539832.048         948.980          34.000  
C37  22619641.948   117786420.678         780.514          31.000  
G10  20465635.236   107547631.887       -1762.870          35.000    20465635.236    80311524.472       -1316.007          30.000  
G23  22482942.283   118148636.9581      -3569.116          25.000                                                                  
G25  20991695.152   110312061.964       -1665.972          25.000                                                                  
G31  21184713.528   111326422.466         362.759          34.000                                                                  
G32  21315461.413   112013543.384         797.560          32.000    21315472.805    83646484.740         594.997          31.000  
> 2021 11 06 07 28 09.9999588  0 15                     
C06  36834960.288   191809196.588        -231.064          23.000  
C07  37835746.658   197020672.948        1036.001          29.000  
C09  37674550.651   196181328.495        -320.638          23.000  
C10  38578295.102   200887345.595         929.571          32.000  
C16  37281847.414   194136375.278        -177.497          35.000  
C20  25800914.798   134352147.339        2620.586          31.000  
C23  22442680.156   116864921.923       -1876.723          35.000  
C32  22188027.748   115538883.251         948.091          34.000  
C37  22619494.450   117785640.710         779.605          33.000  
G10  20465968.005   107549396.316       -1765.831          36.000    20465971.603    80312840.917       -1317.398          30.000  
G12  23448615.761   123223361.2891      -3110.228          23.000                                                                  
G23  22483620.713   118152206.398       -3569.279          29.000                                                                  
G25  20992008.135   110313728.148       -1666.630          18.000                                                                  
G31  21184646.075   111326060.333         362.139          33.000                                                                  
G32  21315310.917   112012746.337         798.973          33.000    21315321.410    83645889.855         594.677          29.000  
> 2021 11 06 07 28 10.9999585  0 15                     
C06  36834915.918   191808959.791        -231.815          31.000  
C07  37835456.758   197019168.482        1036.205          26.000  
C09  37674522.171   196181179.669        -320.098          25.000  
C10  38578027.088   200885947.915         929.256          31.000  
C16  37281787.156   194136085.039        -177.000          33.000  
C20  25800321.209   134349057.770        2621.512          27.000  
C23  22442955.365   116866330.220       -1878.456          36.000  
C32  22187758.235                         943.581          33.000  
C37  22619253.117   117784392.692         779.650          31.000  
G10                                                                  20466218.032    80313805.495       -1317.869          30.000  
G12  23450897.781                       -3118.835          26.000                                                                  
G23  22484211.005   118155303.000       -3569.104          28.000                                                                  
G26  23006457.261   120899681.7751       3224.149          19.000                                                                  
G31  21184484.487   111325226.269         360.230          36.000                                                                  
G32  21315075.880   112011477.169         795.146          33.000    21315080.377    83644942.242         594.569          28.000  
> 2021 11 06 07 28 11.9999583  0 13                     
C06  36834901.229   191808879.884        -232.594          31.000  
C07  37835198.937   197017819.262        1036.076          25.000  
C09  37674523.070   196181188.099        -322.135          26.000  
C10  38577790.252   200884706.681         928.988          31.000  
C16  37281761.973   194135951.363        -180.193          31.000  
C20  25799756.700   134346123.889        2621.305          26.000  
C23  22443257.556   116867895.337       -1877.687          38.000  
C32  22187514.803                         945.507          31.000  
C37  22619041.164   117783301.726         778.040          29.000  
G10  20466476.153   107552139.9051      -1766.374          32.000    20466495.040    80314888.867       -1319.025          28.000  
G12  23451432.011                       -3118.962          26.000                                                                  
G31  21184357.674   111324550.596         360.754          37.000                                                                  
G32  21314863.627   112010366.202         794.946          37.000    21314868.723    83644112.559         593.851          25.000  
> 2021 11 06 07 28 12.9999580  0 14                     
C06  36834857.459   191808644.661        -233.646          31.000  
C07  37834909.937   197016315.336        1034.267          24.000  
C09  37674494.290   196181041.691        -320.847          26.000  
C10  38577522.837   200883310.034         927.871          30.000  
C16  37281707.711   194135661.738        -179.527          32.000  
C20  25799162.212   134343034.712        2620.579          26.000  
C23  22443527.070   116869304.876       -1878.925          38.000  
C32  22187242.292   115534805.4901        945.911          31.000  
C37  22618801.330   117782056.886         775.514          30.000  
G10  20466728.878   107553434.272       -1767.210          31.000    20466741.470    80315855.108       -1318.879          28.000  
G12  23451342.074                       -3118.962          27.000                                                                  
G26  23005077.616   120892446.7201       3223.139          20.000                                                                  
G31  21184200.283   111323718.007         359.110          36.000                                                                  
G32  21314621.994   112009098.025         795.231          38.000    21314627.690    83643165.745         594.476          24.000  
> 2021 11 06 07 28 13.9999578  0 15                     
C06  36834844.268   191808566.572        -234.308          31.000  
C07  37834653.015   197014968.831        1033.648          26.000  
C09  37674496.689   196181049.600        -319.725          25.000  
C10  38577285.401   200882069.822         927.730          30.000  
C16  37281683.128   194135528.517        -178.894          32.000  
C20  25798598.902   134340101.385        2621.848          25.000  
C23  22443828.061   116870871.258       -1878.790          39.000  
C32  22186999.160   115533547.885         945.828          31.000  
C37  22618590.576   117780969.356         774.878          30.000  
G10  20467000.191   107554887.319       -1768.906          31.000    20467017.878    80316939.900       -1321.071          28.000  
G12  23452469.893                       -3121.707          27.000                                                                  
G25  20992974.966   110318821.9331      -1666.950          18.000                                                                  
G26  23004404.882   120888908.162        3223.157          21.000                                                                  
G31  21184071.672   111323043.734         358.240          36.000                                                                  
G32  21314410.641   112007987.883         795.692          38.000    21314416.936    83642336.980         593.223          24.000  
> 2021 11 06 07 28 14.9999575  0 15                     
C06  36834799.899   191808332.694        -234.301          31.000  
C07  37834364.015   197013467.163        1032.967          25.000  
C09  37674466.709   196180902.048        -321.938          26.000  
C10  38577017.686   200880673.946         927.242          30.000  
C16  37281628.865   194135239.557        -178.369          32.000  
C20  25798006.212   134337011.795        2621.001          24.000  
C23  22444099.373   116872282.294       -1881.397          38.000  
C32  22186730.246   115532134.988         943.960          31.000  
C37  22618350.742   117779726.299         774.470          31.000  
G10  20467251.417   107556183.866       -1769.853          31.000    20467264.008    80317908.194       -1320.298          28.000  
G12  23452975.043                       -3122.484          27.000                                                                  
G23  22486633.627   118168009.9241      -3572.678          28.000                                                                  
G26  23003700.669   120885212.428        3222.732          22.000                                                                  
G31  21183912.782   111322212.789         359.639          36.000                                                                  
G32  21314169.907   112006720.894         793.235          38.000                                                                  
> 2021 11 06 07 28 15.9999572  0 16                     
C06  36834755.529   191808098.540        -234.278          31.000  
C07  37834076.214   197011965.312        1033.941          25.000  
C09  37674440.028   196180755.349        -321.989          25.000  
C10  38576749.972   200879278.491         926.832          30.000  
C16  37281572.804   194134950.790        -178.703          32.000  
C20  25797412.923   134333922.974        2619.151          25.000  
C23  22444369.187   116873693.887       -1880.408          38.000  
C32  22186460.733   115530722.715         944.301          31.000  
C37  22618112.107   117778483.544         773.716          31.000  
G10  20467499.045   107557481.334       -1771.510          31.000    20467510.737    80318876.513       -1323.225          28.000  
G12  23453480.793   123248865.4371      -3123.184          27.000                                                                  
G23  22487223.319   118171110.346       -3573.736          28.000                                                                  
G25  20993430.351   110321213.1931      -1671.168          17.000                                                                  
G26  23003000.054   120881516.945        3222.603          22.000                                                                  
G31  21183754.192   111321382.521         358.180          36.000                                                                  
G32  21313927.375   112005454.217         793.638          38.000                                                                  
> 2021 11 06 07 28 16.9999572  0 15                     
C06  36834801.398   191808333.483        -235.077          31.000  
C07  37833878.351   197010931.607        1033.407          25.000  
C09  37674501.186   196181077.199        -322.228          24.000  
C10  38576572.195   200878351.751         926.322          30.000  
C16  37281606.681   194135130.502        -178.794          32.000  
C20  25796909.271   134331304.825        2617.136          25.000  
C23  22444729.237   116875574.375       -1880.716          38.000  
C32  22186279.658   115529779.528         942.308          31.000  
C37  22617963.110   117777710.439         772.875          30.000  
G10  20467833.614   107559252.338       -1771.573          32.000    20467847.404    80320198.763       -1321.820          28.000  
G12  23454074.682   123251989.052       -3123.890          26.000                                                                  
G23  22487905.347   118174684.663       -3574.343          28.000                                                                  
G26  23002389.677   120878294.637        3221.965          25.000                                                                  
G31  21183684.640   111321025.483         357.801          36.000                                                                  
G32  21313778.978   112004660.602         793.161          37.000                                                                  
> 2021 11 06 07 28 17.9999570  0 15                     
C06  36834781.611                        -233.917          31.000  
C07  37833617.532   197009585.334        1034.223          25.000  
C09  37674502.385   196181087.146        -322.022          26.000  
C10  38576334.160   200877112.809         926.876          30.000  
C16  37281580.599   194134998.223        -179.135          33.000  
C23  22445032.028   116877143.227       -1881.491          38.000  
C32  22186038.325   115528524.633         941.287          30.000  
C37  22617755.354   117776625.300         772.381          31.000  
G10  20468115.718   107560709.140       -1774.156          31.000    20468124.712    80321286.155       -1323.376          27.000  
G12  23454611.310   123254798.022       -3124.987          27.000                                                                  
G23  22488525.618   118177943.451       -3573.788          27.000                                                                  
G25  20994006.552   110324242.0001      -1673.570          19.000                                                                  
G26  23001717.243   120874756.354        3224.002          24.000                                                                  
G31  21183558.128   111320354.059         355.496          36.000                                                                  
G32  21313567.324   112003552.280         792.752          37.000                                                                  
> 2021 11 06 07 28 18.9999567  0 13                     
C06  36834743.837   191808139.5321       -234.809          30.000  
C07  37833329.131   197008084.389        1030.866          24.000  
C09  37674471.806   196180940.173        -321.690          25.000  
C10  38576066.145   200875718.042         925.502          30.000  
C16  37281525.437   194134710.235        -181.536          33.000  
C23  22445303.640   116878556.668       -1883.140          38.000  
C32  22185767.313   115527114.475         941.516          31.000  
C37  22617515.820   117775384.083         773.015          30.000  
G10  20468360.349   107562009.499       -1774.033          31.000    20468372.041    80322257.456       -1324.568          28.000  
G12  23455117.060   123257450.060       -3124.359          27.000                                                                  
G26  23001014.829   120871060.763        3222.265          24.000                                                                  
G31  21183398.938   111319525.884         354.813          35.000                                                                  
G32  21313325.392   112002287.008         792.994          37.000                                                                  
> 2021 11 06 07 28 19.9999565  0 15                     
C06  36834731.246   191808061.870        -236.211          30.000  
C07  37833071.610   197006740.768        1031.929          24.000  
C09  37674473.005   196180950.113        -322.204          24.000  
C10  38575828.410   200874480.388         926.005          30.000  
C16  37281499.655   194134578.147        -181.156          32.000  
C20  25795183.966   134322358.3451       2616.829          22.000  
C23  22445604.931   116880126.594       -1883.095          38.000  
C32  22185522.682   115525861.108         943.141          32.000  
C37  22617306.864   117774299.285         772.669          29.000  
G10  20468635.259   107563468.446       -1773.627          33.000    20468649.649    80323345.936       -1324.038          28.000  
G12  23455649.492   123260260.034       -3125.361          23.000                                                                  
G23  22489737.079   118184302.4311      -3573.825          28.000                                                                  
G26  23000343.893   120867525.267        3219.354          25.000                                                                  
G31  21183274.224   111318855.913         355.655          36.000                                                                  
G32  21313114.338   112001179.371         792.736          36.000                                                                  
> 2021 11 06 07 28 20.9999565  0 15                     
C06  36834772.018   191808296.716        -234.201          29.000  
C07  37832874.046   197005708.415        1033.671          24.000  
C09  37674535.362   196181273.140        -322.816          26.000  
C10  38575650.933   200873554.027         926.597          30.000  
C16  37281536.529   194134758.664        -179.668          31.000  
C23  22445966.181   116882009.355       -1882.886          38.000  
C32  22185342.207   115524920.274         942.378          31.000  
C37  22617159.366   117773526.674         771.434          28.000  
G10  20468976.422   107565242.784       -1774.291          31.000    20468987.515    80324670.577       -1326.489          28.000  
G12  23456243.081   123263385.393       -3127.270          23.000                                                                  
G23  22490420.606   118187876.463       -3575.320          26.000                                                                  
G25  20994823.786   110328482.6201      -1676.676          21.000                                                                  
G26  22999733.216   120864305.349        3219.203          26.000                                                                  
G31  21183205.572   111318501.443         356.159          36.000                                                                  
G32  21312965.641   112000387.038         795.473          38.000                                                                  
> 2021 11 06 07 28 21.9999562  0 15                     
C06  36834724.951   191808063.360        -235.752          26.000  
C07  37832583.547   197004206.633        1033.346          27.000  
C09  37674511.079   196181127.504        -323.719          23.000  
C10  38575381.719   200872159.165         926.380          31.000  
C16  37281483.766   194134470.996        -180.774          31.000  
C20  25794085.226   134316659.6521       2615.718          16.000  
C23  22446237.493   116883424.299       -1884.158          35.000  
C32  22185073.293   115523511.863         939.067          35.000  
C37  22616917.134   117772286.992         769.729          26.000  
G10  20469228.248   107566545.599       -1775.112          34.000    20469235.743    80325644.125       -1326.792          28.000  
G23  22491011.797   118190979.781       -3576.676          29.000                                                                  
G25  20995054.326   110329686.992       -1677.961          22.000                                                                  
G26  22999029.603   120860613.806        3218.473          25.000                                                                  
G31  21183045.783   111317674.949         354.980          35.000                                                                  
G32  21312725.507   111999120.647         792.621          32.000                                                                  
> 2021 11 06 07 28 22.9999560  0 16                     
C06  36834709.361   191807986.694        -235.836          28.000  
C07  37832326.325   197002861.391        1032.771          24.000  
C09  37674513.777   196181137.796        -321.197          25.000  
C10  38575143.684   200870920.696         926.126          31.000  
C16  37281458.883   194134339.771        -181.883          32.000  
C20  25793521.017   134313731.187        2616.502          17.000  
C23  22446539.984   116884996.126       -1884.710          37.000  
C32  22184833.759   115522260.406         938.372          34.000  
C37  22616708.179   117771204.498         770.010          27.000  
G10  20469508.254   107568007.076       -1777.643          34.000    20469513.051    80326734.515       -1325.620          28.000  
G12  23457283.061   123268851.9811      -3126.958          26.000                                                                  
G23  22491631.767   118194241.920       -3577.964          28.000                                                                  
G25  20995317.244   110331050.500       -1678.493          22.000                                                                  
G26  22998357.169   120857081.008        3218.062          25.000                                                                  
G31  21182920.769   111317006.946         353.851          35.000                                                                  
G32  21312516.252   111998013.415         791.445          27.000                                                                  
> 2021 11 06 07 28 23.9999560  0 13                     
C06  36834753.431   191808222.384        -236.087          28.000  
C07  37832127.863   197001828.209        1032.504          25.000  
C09  37674577.033   196181459.957        -323.886          24.000  
C10  38574964.708   200869994.895         924.860          30.000  
C16  37281489.162   194134521.240        -182.751          34.000  
C23  22446899.735   116886881.147       -1883.717          36.000  
C32  22184658.081   115521322.147         938.272          32.000  
C37  22616560.981   117770434.714         769.673          29.000  
G10  20469853.615   107569785.043       -1778.889          33.000    20469852.116    80328061.209       -1327.377          25.000  
G12  23457878.149   123271979.916       -3128.120          26.000                                                                  
G26  22997743.493   120853863.164        3217.040          25.000                                                                  
G31  21182850.917   111316654.282         349.562          35.000                                                                  
G32  21312366.955   111997222.140         790.575          31.000                                                                  
> 2021 11 06 07 28 24.9999557  0 14                     
C06  36834707.563   191807991.163        -238.029          24.000  
C07  37831841.261   197000326.060        1033.795          25.000  
C09  37674548.853   196181316.262        -324.695          20.000  
C10  38574697.892   200868601.640         924.599          26.000  
C16  37281437.898   194134234.568        -182.278          31.000  
C23  22447174.944   116888299.064       -1889.329          32.000  
C32  22184387.068   115519915.424         938.651          26.000  
C37  22616324.145   117769197.323         769.074          27.000  
G10  20470098.546   107571090.163       -1778.392          29.000    20470100.944    80329035.740       -1327.560          21.000  
G12  23458381.500   123274635.824       -3128.987          22.000                                                                  
G23  22492901.988   118200923.4421      -3576.667          20.000                                                                  
G25  20995871.860   110333943.3401      -1685.583          21.000                                                                  
G31  21182695.025   111315830.805         350.386          30.000                                                                  
G32  21312126.522   111995959.770         789.452          31.000                                                                  
> 2021 11 06 07 28 25.9999555  0 13                     
C06  36834692.573   191807916.481        -236.088          25.000  
C07  37831581.941   196998980.864        1032.609          27.000  
C09  37674551.850   196181328.428        -324.208          25.000  
C10  38574459.857   200867364.631         925.249          28.000  
C20  25791871.859   134305098.3831       2617.123          25.000  
C23  22447476.535   116889872.848       -1885.580          32.000  
C32  22184146.935   115518663.848         938.742          27.000  
C37  22616117.887   117768116.434         768.736          30.000  
G10                                                                  20470378.852    80330128.643       -1329.497          20.000  
G12  23458916.030   123277448.936       -3126.156          17.000                                                                  
G26  22996371.044   120846637.2731       3219.708          26.000                                                                  
G31  21182568.513   111315164.673         351.309          28.000                                                                  
G32  21311917.566   111994854.218         791.077          31.000                                                                  
> 2021 11 06 07 28 26.9999552  0 13                     
C09  37674525.769   196181184.675        -324.878          17.000  
C10  38574191.543   200865970.908         925.025          31.000  
C16  37281356.654   194133825.3951       -187.877          14.000  
C20  25791283.966   134302013.675        2615.234          26.000  
C23  22447746.948   116891290.681       -1886.235          28.000  
C32  22183876.522   115517257.358         936.699          27.000  
C37  22615881.651   117766881.117         766.211          25.000  
G10  20470617.486   107573861.1201      -1779.452          27.000    20470627.080    80331102.593       -1326.957          20.000  
G12  23459419.382   123280101.095       -3121.652          14.000                                                                  
G25  20996355.426   110336523.5041      -1684.076          20.000                                                                  
G26  22995667.730   120842945.061        3219.205          24.000                                                                  
G31  21182411.722   111314340.726         350.909          37.000                                                                  
G32  21311678.632   111993591.007         790.181          33.000                                                                  
> 2021 11 06 07 28 27.9999549  0 14                     
C06  36834602.935   191807452.6601       -235.811          22.000  
C07  37831004.840   196995983.1741       1029.071          20.000  
C10  38573923.828   200864578.103         923.909          28.000  
C16  37281299.993   194133544.205        -187.181          14.000  
C20  25790694.873   134298930.392        2614.700          26.000  
C23  22448017.361   116892709.028       -1887.124          29.000  
C32  22183606.409   115515853.398         933.772          26.000  
C37  22615645.414   117765647.323         764.849          24.000  
G10  20470864.216   107575168.221       -1780.305          28.000    20470876.207    80332077.500       -1328.469          19.000  
G12  23459923.033   123282750.482       -3121.646          13.000                                                                  
G23  22494701.942   118210388.2201      -3571.953          15.000                                                                  
G26  22994967.116   120839254.829        3216.274          23.000                                                                  
G31  21182254.330   111313517.287         350.640          34.000                                                                  
G32  21311438.798   111992328.510         789.080          34.000                                                                  
> 2021 11 06 07 28 28.9999547  0 13                     
C07  37830749.417   196994642.489        1027.672          25.000  
C10  38573686.992   200863342.017         923.654          29.000  
C16  37281273.911   194133417.364        -183.904          17.000  
C20  25790136.360   134296002.952        2615.368          27.000  
C23  22448318.053   116894282.722       -1884.874          27.000  
C32  22183368.074   115514606.679         934.793          31.000  
C37  22615439.157   117764570.251         764.376          29.000  
G10  20471140.624   107576633.727       -1781.207          30.000    20471155.314    80333172.098       -1331.876          28.000  
G12  23460456.364   123285558.621       -3124.319          14.000                                                                  
G25  20996843.788   110339106.0071      -1685.544          20.000                                                                  
G26  22994292.882   120835723.924        3215.981          26.000                                                                  
G31  21182131.715                         348.962          34.000                                                                  
G32  21311232.841                         788.289          34.000                                                                  
> 2021 11 06 07 28 29.9999544  0 15                     
C06  36834546.274   191807144.3691       -237.969          16.000  
C07  37830465.214   196993146.125        1028.644          25.000  
C09  37674476.003   196180904.1111       -318.890          18.000  
C10  38573421.076   200861949.879         923.916          31.000  
C16  37281218.450   194133131.827        -182.438          30.000  
C20  25789546.369   134292919.642        2615.330          30.000  
C23  22448591.464   116895699.754       -1886.543          24.000  
C32  22183099.160   115513203.483         934.702          33.000  
C37  22615203.221   117763337.826         764.237          32.000  
G10  20471388.852   107577944.112       -1784.067          32.000    20471405.041    80334151.309       -1331.942          28.000  
G12  23460959.416   123288209.401       -3124.488          14.000                                                                  
G25  20997073.429   110340318.288       -1685.346          24.000                                                                  
G26  22993588.970   120832035.148        3215.744          25.000                                                                  
G31  21181981.519   111312032.0681        347.937          36.000                                                                  
G32  21310990.308   111990022.6651        786.194          32.000                                                                  
> 2021 11 06 07 28 30.9999542  0 13                     
C06  36834530.985   191807071.443        -240.082          15.000  
C07  37830208.292   196991805.592        1028.702          26.000  
C10  38573185.439   200860714.372         923.094          32.000  
C16  37281193.567   194133001.795        -182.167          29.000  
C20  25788985.457   134289992.259        2614.506          29.000  
C23  22448893.055   116897273.804       -1887.783          25.000  
C32  22182860.225   115511957.074         933.788          33.000  
C37  22614997.863   117762261.077         763.897          32.000  
G10  20471670.957   107579413.277       -1784.279          31.000    20471683.848    80335247.225       -1331.643          28.000  
G25  20997333.049   110341689.365       -1686.837          24.000                                                                  
G26  22992916.835   120828504.652        3214.968          24.000                                                                  
G31  21181854.707   111311368.978         348.168          36.000                                                                  
G32  21310780.454   111988919.250         788.834          32.000                                                                  
> 2021 11 06 07 28 31.9999542  0 11                     
C07  37830013.127   196990776.959        1028.334          25.000  
C10  38573012.459                         924.341          31.000  
C16  37281228.942   194133183.259        -181.251          30.000  
C20  25788483.604   134287378.067        2613.757          29.000  
C23  22449257.303   116899161.742       -1889.210          26.000  
C32  22182680.350   115511023.094         932.509          33.000  
C37  22614856.661   117761498.036         763.225          32.000  
G10  20472010.922   107581196.534       -1783.774          31.000    20472022.913    80336578.661       -1330.356          27.000  
G26  22992303.160   120825290.951        3213.475          25.000                                                                  
G31  21181787.853   111311021.560         347.493          35.000                                                                  
G32  21310633.555   111988131.307         789.492          31.000                                                                  
> 2021 11 06 07 28 32.9999539  0 15                     
C06  36834535.182   191807087.6941       -248.528          13.000  
C07  37829724.727   196989280.174        1028.026          25.000  
C09  37674514.976   196181088.5021       -323.076          18.000  
C10  38572744.445   200858406.7491        921.757          31.000  
C16  37281174.380   194132896.089        -181.234          30.000  
C20  25787892.414   134284296.352        2612.676          29.000  
C23  22449526.816   116900582.865       -1890.757          25.000  
C32  22182409.338                         932.041          34.000  
C37  22614624.921                         764.061          32.000  
G10  20472260.349   107582508.121       -1785.262          32.000    20472273.240    80337557.356       -1331.933          27.000  
G23  22497786.506   118226711.6391      -3584.621          18.000                                                                  
G25  20997887.965   110344590.4481      -1688.708          25.000                                                                  
G26  22991599.247   120821604.470        3213.835          25.000                                                                  
G31  21181630.163   111310202.161         346.265          36.000                                                                  
G32  21310390.424   111986871.117         786.219          30.000                                                                  
> 2021 11 06 07 28 33.9999537  0 14                     
C07  37829466.305   196987940.519        1028.401          24.000  
C10  38572513.005   200857172.190         923.329          31.000  
C16  37281149.797   194132765.149        -181.681          30.000  
C20  25787329.703   134281371.393        2612.973          29.000  
C23  22449830.206   116902161.562       -1890.284          26.000  
C32  22182171.602   115508381.6121        931.670          34.000  
C37  22614417.165   117759211.0701        763.389          33.000  
G10  20472545.452   107583978.174       -1786.587          31.000    20472552.647    80338655.035       -1333.762          28.000  
G12  23463138.907   123299626.4601      -3134.636          18.000                                                                  
G23  22498407.676   118229980.928       -3584.351          19.000                                                                  
G25  20998148.784   110345963.218       -1687.537          25.000                                                                  
G26  22990927.412   120818075.412        3213.778          25.000                                                                  
G31  21181504.550   111309541.007         346.621          37.000                                                                  
G32  21310184.166   111985768.847         787.210          31.000                                                                  
> 2021 11 06 07 28 34.9999534  0 12                     
C07  37829179.704   196986443.780        1028.620          24.000  
C10  38572241.693   200855781.814         921.268          31.000  
C16  37281095.235   194132478.648        -182.578          31.000  
C20  25786738.213   134278289.321        2614.342          29.000  
C23  22450102.118   116903584.527       -1893.038          26.000  
C32  22181900.590   115506981.513         931.325          33.000  
C37  22614178.530   117757980.773         762.399          32.000  
G10  20472795.778   107585292.678       -1788.519          32.000    20472802.973    80339636.910       -1336.590          28.000  
G25  20998379.324   110347178.445       -1688.325          25.000                                                                  
G26  22990224.998   120814389.219        3213.563          25.000                                                                  
G31  21181347.758   111308722.992         344.218          37.000                                                                  
G32  21309944.033   111984509.463         786.513          30.000                                                                  
> 2021 11 06 07 28 35.9999532  0 14                     
C07  37828920.683   196985102.789        1028.622          25.000  
C09  37674490.693   196180966.8481       -326.746          16.000  
C10  38572002.458   200854547.872         920.588          32.000  
C16  37281070.652   194132349.190        -183.048          30.000  
C20  25786176.102   134275363.316        2613.609          29.000  
C23  22450405.208   116905164.484       -1891.973          25.000  
C32  22181663.454   115505738.083         929.511          33.000  
C37  22613973.772   117756907.063         758.741          32.000  
G10  20473074.585                       -1788.873          32.000    20473083.579    80340737.101       -1335.974          29.000  
G23  22499610.744   118236362.3241      -3584.589          19.000                                                                  
G25  20998640.444   110348552.853       -1690.601          25.000                                                                  
G26  22989552.264   120810860.924        3212.873          25.000                                                                  
G31  21181223.344   111308063.071         343.636          36.000                                                                  
G32  21309731.780   111983408.025         785.758          30.000                                                                  
> 2021 11 06 07 28 36.9999532  0 13                     
C07  37828724.619   196984074.782        1026.875          25.000  
C10  38571827.380   200853626.470         920.165          31.000  
C16  37281105.728   194132532.213        -183.409          29.000  
C20  25785672.750   134272750.595        2611.988          29.000  
C23  22450765.858   116907056.466       -1890.942          21.000  
C32  22181485.677   115504807.602         930.015          33.000  
C37  22613827.173   117756146.445         760.188          32.000  
G10  20473416.948   107588521.2011      -1789.748          32.000    20473423.844    80342074.010       -1337.997          28.000  
G23  22500289.774   118239947.462       -3585.189          19.000                                                                  
G25  20998962.421   110350244.613       -1692.847          24.000                                                                  
G26  22988939.788   120807648.122        3212.571          25.000                                                                  
G31  21181157.690   111307718.957         343.434          37.000                                                                  
G32  21309578.886   111982622.084         785.126          32.000    21309579.485    83623340.6481        587.133          31.000  
> 2021 11 06 07 28 37.9999529  0 14                     
C07  37828438.917   196982579.475        1026.922          26.000  
C09  37674523.970   196181145.8291       -323.377          17.000  
C10  38571559.965   200852237.040         921.540          31.000  
C16  37281051.165   194132247.307        -183.034          30.000  
C20  25785080.360   134269669.504        2612.215          28.000  
C23  22451039.869   116908479.789       -1891.435          24.000  
C32  22181214.665   115503409.423         929.117          33.000  
C37  22613592.136   117754918.106         759.061          32.000  
G10  20473671.472   107589838.340       -1793.219          31.000    20473674.770    80343058.539       -1336.877          28.000  
G23  22500881.864   118243059.991       -3585.660          19.000                                                                  
G25  20999194.160   110351465.268       -1694.329          23.000                                                                  
G26  22988238.574   120803963.359        3212.067          26.000                                                                  
G31  21181002.397   111306902.869         343.493          37.000                                                                  
G32                                                                  21309339.651    83622401.261         586.245          30.000  
> 2021 11 06 07 28 38.9999526  0 14                     
C07  37828150.516   196981084.638        1026.566          26.000  
C09  37674495.190   196181001.034        -323.219          17.000  
C10  38571292.250   200850847.619         920.651          32.000  
C16  37280997.502   194131962.741        -184.105          31.000  
C20  25784488.270   134266588.873        2612.110          29.000  
C23  22451315.378   116909903.679       -1892.513          26.000  
C32  22180946.950   115502011.632         928.799          33.000  
C37  22613353.501                         761.039          32.000  
G10                                                                  20473925.696    80344042.665       -1337.225          28.000  
G23  22501472.155   118246173.218       -3586.527          19.000                                                                  
G25  20999423.801   110352687.095       -1694.638          24.000                                                                  
G26  22987539.158   120800278.988        3211.296          26.000                                                                  
G31  21180847.105   111306087.178         342.643          37.000                                                                  
G32  21309102.216   111980105.8011        786.343          30.000    21309100.117    83621461.913         586.520          30.000  
> 2021 11 06 07 28 39.9999524  0 14                     
C07  37827892.395   196979746.237        1025.540          26.000  
C09  37674497.288   196181010.816        -320.377          18.000  
C10  38571056.014   200849614.775         920.471          31.000  
C16  37280972.620   194131834.342        -183.961          29.000  
C20  25783925.560   134263664.664        2612.032          29.000  
C23  22451618.768   116911483.765       -1891.698          22.000  
C32  22180707.416   115500770.632         927.906          33.000  
C37  22613149.043   117752619.6251        758.185          32.000  
G10  20474198.507   107592632.4421      -1790.286          33.000    20474206.302    80345144.851       -1337.442          28.000  
G23  22502097.822   118249445.015       -3586.925          19.000                                                                  
G25  20999684.621   110354067.820       -1696.243          24.000                                                                  
G26  22986870.021   120796752.663        3210.692          25.000                                                                  
G31  21180722.391   111305429.685         342.674          37.000                                                                  
G32  21308899.256   111979005.752         785.253          31.000    21308891.162    83620640.477         585.235          31.000  
> 2021 11 06 07 28 40.9999524  0 11                     
C07  37827696.031   196978720.662        1026.156          26.000  
C10  38570877.037   200848694.305         919.901          30.000  
C16  37281010.394   194132018.394        -184.286          30.000  
C20  25783424.007   134261052.798        2611.652          30.000  
C23  22451983.315   116913375.645       -1892.592          26.000  
C32  22180530.538   115499842.549         927.284          33.000  
C37  22613003.044   117751861.508         756.674          32.000  
G10  20474540.870   107594424.770       -1792.554          34.000    20474547.166    80346482.384       -1337.353          27.000  
G26  22986261.143   120793541.949        3210.445          22.000                                                                  
G31  21180656.137   111305088.019         342.204          37.000                                                                  
G32  21308751.159   111978221.177         786.939          32.000    21308741.865    83620055.107         585.334          31.000  
> 2021 11 06 07 28 41.9999521  0 14                     
C03  36378095.469   189430290.5661       -350.386          29.000  
C07  37827409.130   196977226.594        1025.096          27.000  
C10  38570611.721   200847305.983         921.051          31.000  
C16  37280955.831   194131734.474        -184.645          31.000  
C20  25782832.217   134257972.502        2611.908          29.000  
C23  22452256.127   116914800.440       -1892.848          25.000  
C32  22180261.924   115498446.815         929.302          31.000  
C37  22612766.208   117750635.772         756.766          32.000  
G10  20474792.096   107595745.389       -1795.026          34.000    20474798.392    80347468.247       -1339.828          28.000  
G23  22503377.636   118256146.5951      -3587.257          20.000                                                                  
G25  21000238.338   110356989.4711      -1698.856          25.000                                                                  
G26  22985559.628   120789858.827        3210.285          26.000                                                                  
G31  21180500.245   111304274.370         340.668          36.000                                                                  
G32  21308512.224   111976964.376         784.230          31.000    21308502.631    83619117.051         584.465          31.000  
> 2021 11 06 07 28 42.9999519  0 13                     
C07  37827151.908   196975889.113        1025.071          26.000  
C10  38570371.887   200846073.721         920.181          32.000  
C16  37280932.747   194131606.207        -184.090          29.000  
C20  25782270.406   134255047.661        2612.931          29.000  
C23  22452557.118   116916383.027       -1896.596          18.000  
C32  22180020.591   115497207.545         926.593          32.000  
C37  22612561.150   117749566.449         758.236          32.000  
G10  20475078.098   107597224.153       -1793.142          33.000    20475079.897    80348574.023       -1342.856          28.000  
G23  22504000.605   118259419.176       -3587.686          20.000                                                                  
G25  21000501.555   110358374.372       -1701.209          22.000                                                                  
G26  22984888.093   120786333.531        3209.972          25.000                                                                  
G31  21180379.728   111303618.675         340.495          37.000                                                                  
G32  21308293.076   111975865.261         784.726          31.000    21308293.076    83618297.064         584.706          30.000  
> 2021 11 06 07 28 43.9999516  0 14                     
C07  37826864.407   196974394.962        1026.076          30.000  
C09  37674505.083   196181053.8351       -324.979          19.000  
C10  38570105.372   200844684.863         920.258          32.000  
C16  37280877.585   194131321.383        -183.110          27.000  
C20  25781679.215   134251967.008        2611.655          28.000  
C23  22452833.227   116917811.373       -1896.718          29.000  
C32  22179754.975   115495813.053         928.689          26.000  
C37  22612325.213   117748341.099         757.529          32.000  
G10  20475328.125   107598545.391       -1793.181          33.000    20475331.423    80349563.515       -1341.720          22.000  
G12  23468505.792   123327708.4961      -3137.387          19.000                                                                  
G23  22504596.892   118262534.685       -3588.097          19.000                                                                  
G26  22984188.078   120782650.784        3210.260          27.000                                                                  
G31  21180218.740   111302805.249         338.817          36.000                                                                  
G32  21308048.745   111974608.936         784.636          32.000    21308052.043    83617358.096         586.727          29.000  
> 2021 11 06 07 28 44.9999514  0 10                     
C07  37826606.285   196973056.845        1025.871          33.000  
C09  37674508.081   196181066.627        -324.751          26.000  
C10  38569865.238   200843453.301         920.528          32.000  
C20  25781118.303   134249043.339        2611.055          28.000  
C23  22453139.015   116919395.611       -1896.422          32.000  
C32  22179517.540   115494572.939         926.990          30.000  
C37  22612122.553   117747273.084         755.960          30.000  
G10  20475607.832   107600025.952       -1796.335          32.000    20475612.628    80350669.564       -1341.787          28.000  
G26  22983518.941   120779125.969        3209.226          28.000                                                                  
G32  21307838.291   111973510.093         783.314          35.000    21307843.387    83616535.994         586.591          21.000  
> 2021 11 06 07 28 45.9999511  0 13                     
C07  37826319.084   196971562.700        1025.550          34.000  
C09  37674481.699   196180923.254        -325.146          25.000  
C10  38569603.219   200842065.988         917.156          31.000  
C16  37280799.040   194130905.6121       -182.468          22.000  
C20  25780527.712   134245964.058        2610.637          29.000  
C23  22453415.424   116920824.072       -1896.846          32.000  
C32  22179250.125   115493178.069         926.277          30.000  
C37  22611886.617   117746049.506         757.132          30.000  
G10  20475860.257   107601349.891       -1798.053          37.000    20475864.754    80351659.002       -1341.948          26.000  
G12  23469548.769   123333199.5311      -3142.264          24.000                                                                  
G26  22982820.724   120775443.932        3209.187          27.000                                                                  
G31  21179935.436   111301336.1651        339.478          27.000                                                                  
G32  21307599.356   111972254.168         783.226          28.000    21307603.253    83615596.417         587.561          24.000  
> 2021 11 06 07 28 46.9999508  0 12                     
C07  37826031.883   196970069.428        1024.670          30.000  
C09  37674454.418   196180780.092        -325.641          23.000  
C10  38569336.704   200840679.693         921.029          31.000  
C16  37280744.478   194130620.852        -184.574          23.000  
C20  25779935.622   134242884.328        2610.993          28.000  
C23  22453688.835   116922250.516       -1895.580          30.000  
C32  22178983.309   115491783.805         925.088          30.000  
C37  22611651.280   117744826.713         754.389          28.000  
G10  20476113.582   107602675.512       -1802.070          36.000    20476115.680    80352645.438       -1337.520          24.000  
G26  22982118.610   120771763.924        3206.995          23.000                                                                  
G31  21179781.642   111300525.146         337.845          28.000                                                                  
G32  21307360.421   111970998.495         782.890          32.000    21307365.518    83614657.042         584.220          23.000  
> 2021 11 06 07 28 47.9999506  0 15                     
C03  36378044.804   189430043.2801       -348.410          28.000  
C07  37825774.361   196968731.716        1025.382          27.000  
C09  37674458.015   196180793.848        -325.858          23.000  
C10  38569101.067   200839448.268         916.044          30.000  
C16  37280716.597   194130492.969        -185.435          26.000  
C20  25779373.511   134239961.957        2610.021          26.000  
C23  22453994.323   116923835.251       -1897.778          31.000  
C32  22178744.974   115490547.072         924.299          28.000  
C37  22611445.322   117743759.994         753.803          28.000  
G10  20476396.286   107604158.529       -1799.417          34.000    20476396.885    80353748.674       -1338.909          26.000  
G12  23470591.148   123338697.7601      -3145.185          20.000                                                                  
G25  21001722.310   110364811.9891      -1695.666          17.000                                                                  
G26  22981450.073   120768241.172        3207.770          24.000                                                                  
G31  21179658.128   111299872.895         336.717          34.000                                                                  
G32  21307153.265   111969901.361         782.268          32.000    21307158.061    83613838.244         583.051          25.000  
> 2021 11 06 07 28 48.9999506  0 13                     
C07  37825576.798   196967707.545        1022.701          29.000  
C09  37674522.171   196181120.962        -327.844          23.000  
C10  38568922.091   200838530.763         917.974          33.000  
C16  37280752.872   194130678.871        -186.113          23.000  
C20  25778872.258   134237352.258        2610.045          26.000  
C23  22454359.770   116925733.614       -1898.840          29.000  
C32  22178565.998   115489623.582         922.386          31.000  
C37  22611300.522   117743006.765         752.083          31.000  
G10  20476733.552   107605958.378       -1801.364          32.000    20476740.448    80355089.817       -1343.853          29.000  
G12  23471189.833   123341842.794       -3145.690          20.000                                                                  
G26  22980839.996   120765034.446        3205.413          26.000                                                                  
G31  21179598.169   111299536.283         336.097          36.000                                                                  
G32  21307013.861   111969119.600         781.386          33.000    21307009.964    83613255.098         582.950          31.000  
> 2021 11 06 07 28 49.9999503  0 13                     
C07  37825294.693   196966217.214        1022.439          25.000  
C09  37674494.890   196180981.641        -330.418          20.000  
C10  38568657.374   200837144.540         918.193          31.000  
C16  37280698.310   194130396.967        -186.282          32.000  
C20  25778280.768   134234274.450        2609.163          26.000  
C23  22454634.680   116927164.368       -1899.870          32.000  
C32  22178300.382   115488233.150         921.530          34.000  
C37  22611064.286   117741787.259         750.717          29.000  
G10  20476988.976   107607286.102       -1800.602          34.000    20476994.372    80356081.920       -1346.401          30.000  
G23  22508332.006   118282030.3421      -3593.500          27.000                                                                  
G26  22980141.779   120761355.744        3205.984          28.000                                                                  
G31  21179446.175                         331.413          35.000                                                                  
G32  21306773.727   111967865.081         781.790          30.000    21306771.929    83612319.558         582.193          32.000  
> 2021 11 06 07 28 50.9999501  0 14                     
C03  36378094.869   189430309.0531       -349.551          27.000  
C07  37825038.071   196964881.802        1023.254          27.000  
C09  37674499.687   196180999.446        -327.906          21.000  
C10  38568422.936   200835915.253         917.246          30.000  
C16  37280676.725   194130271.302        -188.170          30.000  
C20  25777718.657   134231353.783        2607.807          25.000  
C23  22454941.667   116928752.451       -1900.552          27.000  
C32  22178064.146   115487000.066         919.606          29.000  
C37  22610860.427   117740724.637         749.858          33.000  
G10  20477275.577   107608772.492       -1800.815          37.000    20477277.975    80357192.385       -1346.549          27.000  
G25  21002547.939   110369119.9021      -1701.606          17.000                                                                  
G26  22979472.342   120757834.363        3206.392          29.000                                                                  
G31  21179324.459                         334.716          36.000                                                                  
G32  21306565.372   111966768.469         780.853          27.000    21306562.973    83611501.006         583.823          32.000  
> 2021 11 06 07 28 51.9999498  0 14                     
C07  37824751.469   196963390.613        1023.433          27.000  
C10  38568154.922   200834529.947         914.212          30.000  
C16  37280624.561   194129989.722        -185.508          23.000  
C20  25777124.468   134228277.073        2608.823          27.000  
C23  22455218.076   116930185.122       -1901.731          26.000  
C32  22177796.731   115485612.007         920.176          30.000  
C37  22610627.189   117739506.677         749.383          34.000  
G10  20477527.103   107610102.225       -1803.915          35.000    20477531.300    80358185.904       -1346.571          29.000  
G12  23472748.754   123350017.8671      -3144.352          15.000                                                                  
G23  22509544.367   118288430.8411      -3592.796          17.000                                                                  
G25  21002780.578   110370345.943       -1696.754          16.000                                                                  
G26  22978771.428   120754155.506        3205.718          28.000                                                                  
G31  21179167.068   111297283.6761        333.580          35.000                                                                  
G32  21306327.636   111965515.310         780.174          36.000    21306324.339                         582.448          33.000  
> 2021 11 06 07 28 52.9999496  0 14                     
C07  37824494.547   196962055.049        1023.271          24.000  
C09  37674473.904   196180872.6791       -325.539          25.000  
C10  38567919.285   200833302.994         914.447          29.000  
C16  37280600.577   194129862.860        -184.971          25.000  
C20  25776562.057   134225355.211        2609.832          27.000  
C23  22455525.663   116931775.034       -1901.841          26.000  
C32  22177560.494   115484379.435         920.280          34.000  
C37  22610423.629   117738447.067         747.684          31.000  
G10  20477807.709   107611590.914       -1803.764          35.000    20477814.304    80359296.976       -1346.434          29.000  
G23  22510167.036   118291708.329       -3593.715          20.000                                                                  
G25  21003044.695   110371729.178       -1701.492          15.000                                                                  
G26  22978099.892   120750635.713        3203.357          27.000                                                                  
G31  21179041.754   111296635.516         334.180          37.000                                                                  
G32  21306114.784   111964419.894         781.887          34.000    21306116.582    83609773.8771        584.512          32.000  
> 2021 11 06 07 28 53.9999496  0 13                     
C07  37824297.883   196961032.214        1022.830          25.000  
C09  37674534.463   196181198.389        -326.370          24.000  
C10  38567744.206   200832388.352         913.927          24.000  
C16  37280635.353   194130048.398        -186.256          28.000  
C20  25776061.704   134222745.938        2608.804          27.000  
C23  22455889.911   116933676.671       -1901.609          34.000  
C32  22177383.917   115483459.235         920.080          37.000  
C37  22610282.727   117737698.042         749.432          29.000  
G10  20478154.569   107613395.249       -1802.137          33.000    20478156.967    80360643.959       -1347.779          27.000  
G25  21003369.370   110373432.641       -1704.910          17.000                                                                  
G26  22977489.815   120747431.291        3204.016          20.000                                                                  
G31  21178976.400   111296302.006         332.626          37.000                                                                  
G32  21305960.690                         779.561          32.000    21305967.885    83609191.568         582.386          30.000  
> 2021 11 06 07 28 54.9999493  0 11                     
C07  37824008.284   196959541.679        1022.156          24.000  
C09  37674506.882   196181056.228        -327.336          24.000  
C16  37280579.592   194129765.823        -185.872          32.000  
C20  25775472.012   134219669.093        2608.045          31.000  
C23  22456163.322   116935110.027       -1901.905          39.000  
C32  22177117.701   115482071.679         918.813          35.000  
C37  22610049.788   117736479.776         750.062          33.000  
G10  20478414.489   107614727.486       -1803.148          32.000    20478410.891    80361638.630       -1348.196          28.000  
G26  22976787.701   120743754.779        3204.597          20.000                                                                  
G31  21178825.005   111295496.519         332.580          35.000                                                                  
G32  21305719.957   111962326.8741        779.575          36.000    21305729.550    83608256.758         581.328          27.000  
> 2021 11 06 07 28 55.9999491  0 12                     
C07  37823754.660   196958207.222        1022.092          26.000  
C09  37674511.378   196181072.407        -328.981          28.000  
C10  38567244.452   200829782.1151        914.486          24.000  
C16  37280550.212   194129639.740        -187.314          32.000  
C20  25774912.300   134216749.028        2607.366          32.000  
C23  22456467.611   116936699.972       -1902.370          37.000  
C32  22176880.865   115480841.157         917.571          30.000  
C37  22609846.229   117735417.034         749.345          33.000  
G10  20478694.795   107616217.915       -1804.301          31.000    20478694.495    80362750.925       -1347.642          27.000  
G23  22512072.217   118301697.4031      -3589.915          18.000                                                                  
G31  21178706.886   111294849.648         330.360          35.000                                                                  
G32  21305514.599                         778.010          35.000    21305522.394    83607441.547         578.536          25.000  
> 2021 11 06 07 28 56.9999488  0 15                     
C03  36378101.165   189430329.3181       -352.934          28.000  
C07  37823469.557   196956716.896        1021.168          25.000  
C09  37674486.196   196180933.605        -330.656          24.000  
C10  38566978.536   200828398.317         916.541          25.000  
C16  37280495.350   194129358.693        -186.873          33.000  
C20  25774323.507   134213673.712        2607.312          28.000  
C23  22456744.919                       -1903.524          37.000  
C32  22176612.850   115479455.251         917.758          29.000  
C37  22609613.590   117734200.839         746.562          30.000  
G10  20478945.721   107617551.655       -1809.564          31.000    20478947.819    80363746.213       -1348.762          29.000  
G12  23475449.584   123364190.7221      -3150.843          17.000                                                                  
G25  21004111.356   110377296.5351      -1710.904          18.000                                                                  
G26  22975410.454   120736558.4921       3204.181          25.000                                                                  
G31  21178552.793   111294045.195         332.095          36.000                                                                  
G32  21305275.665   111959982.8501        777.863          37.000    21305284.359    83606510.209         578.917          25.000  
> 2021 11 06 07 28 57.9999488  0 13                     
C06  36834149.949   191805169.9411       -241.535          27.000  
C07  37823273.792   196955696.288        1020.764          30.000  
C09  37674551.251   196181264.567        -331.271          21.000  
C10  38566802.258   200827481.824         916.090          32.000  
C16  37280535.223   194129545.231        -186.678          35.000  
C23  22457110.366   116940066.2111      -1903.381          38.000  
C32  22176436.273   115478537.457         917.245          30.000  
C37  22609466.092                         746.501          30.000  
G10                                                                  20479291.082    80365094.829       -1348.854          23.000  
G12  23476049.769   123367342.173       -3152.692          17.000                                                                  
G25  21004440.229   110379008.298       -1712.675          28.000                                                                  
G31  21178493.434   111293714.571         330.414          35.000                                                                  
G32  21305128.766   111959204.796         777.116          38.000    21305134.163    83605930.451         580.505          28.000  
> 2021 11 06 07 28 58.9999485  0 13                     
C03  36378153.029   189430574.2841       -360.130          31.000  
C06  36834104.680   191804942.963        -241.741          26.000  
C07  37822987.491   196954206.920        1020.828          32.000  
C10  38566533.644   200826098.680         914.056          28.000  
C16  37280480.061   194129263.679        -185.771          35.000  
C20  25773237.359   134207992.5011       2607.509          20.000  
C23  22457386.175   116941501.614       -1904.262          35.000  
C32  22176171.856   115477152.176         916.364          30.000  
C37  22609234.053   117732208.6781        745.333          29.000  
G10  20479531.815   107620694.7091      -1808.143          28.000    20479545.606    80366092.677       -1352.469          23.000  
G25  21004677.364   110380249.142       -1714.392          27.000                                                                  
G31  21178341.439   111292911.870         331.254          35.000                                                                  
G32  21304891.930   111957954.521         778.706          40.000    21304894.029    83604997.417         579.046          20.000  
> 2021 11 06 07 28 59.9999483  0 11                     
C06  36834089.391   191804872.809        -242.418          23.000  
C07  37822731.168   196952874.426        1019.668          32.000  
C10  38566296.808   200824871.914         915.071          27.000  
C16  37280458.775                        -186.668          32.000  
C23  22457691.364   116943093.754       -1904.741          34.000  
C32  22175937.418   115475923.840         915.838          30.000  
C37  22609033.192   117731151.096         745.346          28.000  
G10  20479816.318   107622188.308       -1809.499          28.000    20479830.109    80367208.999       -1352.013          22.000  
G25  21004944.180   110381648.146       -1713.741          24.000                                                                  
G31  21178214.627   111292267.294         328.986          35.000                                                                  
G32  21304684.474   111956862.235         776.929          40.000                                                                  
> 2021 11 06 07 29 00.9999480  0 12                     
C03  36378146.133   189430516.8231       -362.289          31.000  
C06  36834043.522   191804646.029        -241.117          26.000  
C07  37822443.367   196951386.013        1019.090          32.000  
C10  38566030.293   200823486.953         916.879          25.000  
C16  37280403.614   194128850.6811       -188.158          34.000  
C23  22457965.974   116944530.277       -1906.500          36.000  
C32  22175672.701   115474540.939         913.569          31.000  
C37  22608799.953   117729938.298         744.105          29.000  
G10  20480072.641   107623526.096       -1811.090          29.000    20480084.033    80368208.335       -1351.989          21.000  
G25  21005180.716   110382890.294       -1714.993          26.000                                                                  
G31  21178062.632   111291465.795         328.072          36.000                                                                  
G32  21304447.038   111955612.689         776.077          39.000                                                                  
> 2021 11 06 07 29 01.9999478  0 13                     
C03  36378153.628   189430564.879        -359.670          32.000  
C06  36834028.233   191804575.249        -241.935          26.000  
C07  37822188.544   196950055.310        1019.295          31.000  
C10  38565792.557   200822258.831         915.240          26.000  
C16  37280377.532   194128726.331        -187.509          35.000  
C23  22458272.362   116946123.978       -1905.885          36.000  
C32  22175437.964   115473315.298         913.306          32.000  
C37  22608596.994   117728881.681         744.599          29.000  
G10  20480358.943   107625022.906       -1812.547          30.000    20480367.337    80369323.766       -1350.604          21.000  
G25  21005447.231   110384290.520       -1716.101          25.000                                                                  
G26  22972072.865   120718970.1621       3204.579          15.000                                                                  
G31  21177940.317   111290823.016         326.313          35.000                                                                  
G32  21304237.483   111954521.619         776.239          39.000                                                                  
> 2021 11 06 07 29 02.9999475  0 12                     
C06  36833983.864   191804349.216        -242.566          24.000  
C07  37821906.139                        1017.493          32.000  
C10  38565526.641   200820875.744         913.749          26.000  
C16  37280326.267   194128446.152        -187.737          34.000  
C23  22458546.372   116947562.268       -1906.671          35.000  
C32  22175174.146   115471932.694         913.905          32.000  
C37  22608364.955   117727669.339         743.087          29.000  
G10  20480615.865   107626363.071       -1813.323          30.000    20480623.060    80370321.847       -1350.037          22.000  
G25  21005685.866   110385534.440       -1717.626          25.000                                                                  
G26  22971369.552   120715289.717        3204.133          14.000                                                                  
G31  21177785.025   111290023.585         325.376          35.000                                                                  
G32  21303999.148   111953273.546         775.637          39.000                                                                  
> 2021 11 06 07 29 03.9999473  0 12                     
C06  36833968.574   191804278.887        -240.772          24.000  
C07  37821645.919   196947259.5801       1020.917          31.000  
C09  37674491.292   196180921.4181       -328.186          16.000  
C10  38565286.807   200819650.810         911.316          25.000  
C16  37280301.384   194128321.822        -188.097          34.000  
C23  22458850.661   116949156.768       -1904.459          35.000  
C32  22174938.210                         913.883          32.000  
C37  22608162.295   117726615.127         740.718          28.000  
G10  20480903.066   107627861.398       -1813.583          31.000    20480907.863    80371439.399       -1355.571          23.000  
G25  21005950.583   110386936.760       -1718.206          25.000                                                                  
G31  21177659.411   111289381.765         328.160          35.000                                                                  
G32  21303791.692   111952182.917         776.191          39.000                                                                  
> 2021 11 06 07 29 04.9999470  0 14                     
C03  36378117.653   189430389.8061       -356.459          32.000  
C06  36833923.006   191804050.399        -239.352          23.000  
C07  37821360.817   196945773.193        1018.465          30.000  
C09  37674462.512   196180780.333        -327.331          23.000  
C10  38565020.292   200818271.506         910.121          25.000  
C16  37280240.527   194128041.191        -188.397          35.000  
C23  22459127.669   116950595.280       -1908.130          36.000  
C32  22174671.095   115469341.1611        912.314          33.000  
C37  22607929.056   117725406.256         740.433          28.000  
G10  20481158.189   107629201.722       -1811.918          31.000    20481162.686    80372441.205       -1355.477          26.000  
G25  21006185.021   110388182.031       -1718.124          27.000                                                                  
G26  22970011.492   120708098.9191       3198.657          16.000                                                                  
G31  21177510.115   111288583.312         325.469          35.000                                                                  
G32  21303556.055   111950934.819         774.571          40.000                                                                  
> 2021 11 06 07 29 05.9999468  0 12                     
C06  36833911.913   191803978.192        -240.886          26.000  
C07  37821105.693   196944443.405        1017.741          27.000  
C09  37674463.711   196180796.195        -330.031          24.000  
C16  37280218.941   194127917.265        -188.474          31.000  
C23  22459436.755   116952190.850       -1908.784          39.000  
C32  22174429.762   115468117.007         911.550          33.000  
C37  22607726.397   117724353.815         740.347          32.000  
G10  20481442.093   107630700.297       -1814.512          29.000    20481449.288    80373561.211       -1356.346          30.000  
G12  23480274.144   123389445.9511      -3161.035          17.000                                                                  
G25  21006449.438   110389585.356       -1718.975          22.000                                                                  
G31  21177386.900   111287942.885         326.483          34.000                                                                  
G32  21303349.798   111949844.924         773.892          40.000                                                                  
> 2021 11 06 07 29 06.9999468  0 13                     
C06  36833959.880   191804220.237        -242.318          31.000  
C07  37820911.128   196943425.723        1018.008          26.000  
C09  37674525.769   196181126.276        -330.037          27.000  
C16  37280255.516   194128105.636        -188.999          30.000  
C23  22459802.502   116954099.163       -1910.137          35.000  
C32  22174254.083   115467205.598         910.554          35.000  
C37  22607583.995   117723613.275         740.623          32.000  
G10                                                                  20481796.148    80374917.484       -1356.758          29.000  
G23  22518891.896   118337616.3201      -3587.577          16.000                                                                  
G25  21006775.312   110391304.261       -1720.250          23.000                                                                  
G26  22968738.873   120701383.4321       3200.116          24.000                                                                  
G31  21177322.145   111287617.831         324.233          35.000                                                                  
G32  21303203.799   111949070.448         774.198          34.000                                                                  
> 2021 11 06 07 29 07.9999465  0 12                     
C06  36833918.209   191803994.419        -242.624          32.000  
C07  37820624.826   196941937.869        1019.775          20.000  
C09  37674498.787   196180987.919        -330.284          23.000  
C10  38564350.855   200814756.4521        913.089          20.000  
C16  37280196.757   194127825.493        -184.993          31.000  
C23  22460076.513   116955539.503       -1908.728          33.000  
C32  22173993.863   115465826.342         910.633          35.000  
C37  22607348.059   117722402.061         741.517          26.000  
G10                                                                  20482051.271    80375920.123       -1355.776          29.000  
G26  22968038.558   120697711.229        3198.847          26.000                                                                  
G31  21177173.148   111286820.653         323.599          32.000                                                                  
G32  21302963.365   111947823.377         774.365          37.000                                                                  
> 2021 11 06 07 29 08.9999462  0 12                     
C06  36833877.437   191803769.236        -243.648          30.000  
C07  37820337.625   196940451.451        1017.388          23.000  
C09  37674470.307   196180849.768        -330.119          23.000  
C10  38564086.438   200813374.922         913.266          25.000  
C16  37280142.794   194127546.090        -189.543          28.000  
C23  22460351.722   116956981.333       -1910.856          27.000  
C32  22173727.648   115464447.691         909.816          34.000  
C37  22607115.719   117721193.593         739.593          31.000  
G10  20482301.298   107635202.5341      -1816.067          33.000    20482306.994    80376923.901       -1357.396          29.000  
G26  22967343.039   120694040.651        3197.422          22.000                                                                  
G31  21177019.355   111286024.701         324.545          33.000                                                                  
G32  21302716.936   111946576.783         773.172          31.000                                                                  
> 2021 11 06 07 29 09.9999462  0 13                     
C06  36833923.006   191804012.517        -242.941          31.000  
C07  37820142.760   196939434.736        1016.158          28.000  
C09  37674531.764   196181180.040        -330.711          28.000  
C10  38563913.158   200812463.319         910.651          22.000  
C16  37280177.570   194127735.024        -188.726          24.000  
C23  22460718.968   116958891.909       -1910.522          30.000  
C32  22173549.571   115463537.900         908.911          34.000  
C37  22606973.618   117720454.884         738.225          32.000  
G10  20482643.061   107637018.905       -1816.917          31.000    20482653.254    80378281.617       -1358.598          29.000  
G23  22520778.789   118347470.8101      -3610.538          18.000                                                                  
G26  22966739.557   120690843.537        3196.671          25.000                                                                  
G31  21176954.000   111285701.228         323.548          33.000                                                                  
G32  21302577.532   111945803.166         773.257          30.000                                                                  
> 2021 11 06 07 29 10.9999460  0 13                     
C06  36833909.815   191803943.219        -242.717          32.000  
C07  37819888.836   196938107.219        1015.074          27.000  
C09  37674533.263   196181197.717        -329.099          27.000  
C10  38563681.419   200811241.010         910.597          23.000  
C16  37280154.786   194127610.750        -187.150          28.000  
C23  22461025.955   116960489.974       -1910.051          34.000  
C32  22173314.234   115462316.503         909.256          35.000  
C37  22606772.757   117719405.037         737.144          35.000  
G10  20482928.464   107638521.707       -1818.802          32.000    20482939.556    80379405.165       -1358.663          29.000  
G12  23483031.635   123403982.0681      -3161.834          18.000                                                                  
G23  22521408.054   118350770.452       -3618.092          16.000                                                                  
G31  21176831.984   111285063.407         321.693          32.000                                                                  
G32  21302373.973   111944714.708         773.279          36.000                                                                  
> 2021 11 06 07 29 11.9999457  0 13                     
C06  36833867.244   191803717.995        -244.014          31.000  
C07  37819604.333   196936623.956        1015.017          26.000  
C09  37674505.682   196181058.757        -328.987          26.000  
C10  38563417.602   200809862.510         910.154          26.000  
C16  37280101.123   194127329.783        -187.720          27.000  
C23  22461303.563   116961932.106       -1911.157          32.000  
C32  22173050.716   115460939.460         908.467          35.000  
C37  22606543.116   117718199.834         736.651          35.000  
G10                                                                  20483195.579    80380411.176       -1358.362          29.000  
G12  23483544.281   123406677.017       -3170.161          16.000                                                                  
G23  22522003.741   118353911.795       -3609.955          16.000                                                                  
G31  21176683.887   111284268.315         322.786          32.000                                                                  
G32  21302135.039   111943468.869         773.334          35.000                                                                  
> 2021 11 06 07 29 12.9999455  0 11                     
C06  36833856.152                        -242.846          31.000  
C07  37819351.907   196935295.829        1016.891          21.000  
C09  37674506.282   196181076.121        -331.515          17.000  
C10  38563183.763   200808639.723         910.182          27.000  
C16  37280080.437   194127205.813        -189.146          27.000  
C23  22461611.450   116963530.148       -1910.394          31.000  
C32  22172822.574   115459719.277         907.372          34.000  
C37  22606344.353                         736.039          34.000  
G10  20483479.182                       -1820.357          33.000    20483481.581    80381534.456       -1358.135          28.000  
G31  21176570.865   111283631.666         322.503          33.000                                                                  
G32                                                                  21301934.478    83593365.2821        578.322          32.000  
> 2021 11 06 07 29 13.9999452  0 12                     
C06  36833814.481   191803329.0101       -243.594          31.000  
C07  37819071.602   196933810.360        1017.298          22.000  
C09  37674477.502   196180940.090        -333.949          15.000  
C10  38562919.047   200807260.876         911.077          27.000  
C16  37280029.772   194126927.039        -189.388          26.000  
C23  22461889.358   116964972.954       -1911.464          31.000  
C32  22172558.757   115458343.498         906.637          34.000  
C37  22606110.515   117715961.9831        734.526          33.000  
G10  20483740.901   107642757.7571      -1820.723          33.000    20483737.903    80382541.195       -1361.303          28.000  
G23  22523231.092   118360338.7051      -3605.658          18.000                                                                  
G31  21176418.271   111282838.005         321.114          34.000                                                                  
G32  21301698.841   111941136.0491        773.765          32.000    21301696.742    83592435.652         575.216          31.000  
> 2021 11 06 07 29 14.9999450  0 10                     
C06  36833801.890   191803260.173        -242.821          32.000  
C09  37674481.399   196180962.198        -333.052          24.000  
C10  38562681.611   200806037.449         911.444          27.000  
C16  37280006.089   194126805.228        -191.115          25.000  
C23  22462198.743   116966572.508       -1912.435          31.000  
C32  22172324.019   115457124.222         907.755          33.000  
G10                                                                  20484025.105    80383667.249       -1361.997          30.000  
G26  22963344.108   120672966.5571       3195.222          19.000                                                                  
G31  21176295.656   111282202.296         319.944          34.000                                                                  
G32  21301492.584   111940048.422         773.542          30.000    21301488.087    83591623.705         576.133          31.000  
> 2021 11 06 07 29 15.9999447  0 11                     
C06  36833761.418   191803035.303        -243.340          32.000  
C07  37818528.677   196930995.3801       1015.425          24.000  
C09  37674457.116   196180827.240        -332.895          25.000  
C16  37279953.325   194126528.321        -192.080          24.000  
C23  22462474.852   116968017.310       -1913.708          28.000  
C32  22172061.102   115455749.392         906.230          34.000  
C37  22605682.412   117713711.5221        734.647          25.000  
G10  20484274.532   107645614.7201      -1824.195          33.000    20484281.427    80384676.421       -1361.350          29.000  
G23  22524463.538   118366760.7481      -3604.898          20.000                                                                  
G31  21176144.560   111281409.662         319.526          34.000                                                                  
G32  21301257.546   111938802.404         772.958          25.000    21301251.550    83590694.312         575.672          30.000  
> 2021 11 06 07 29 16.9999444  0 12                     
C06  36833716.449   191802810.520        -244.406          32.000  
C07  37818244.474   196929511.417        1016.050          26.000  
C09  37674430.135   196180691.537        -332.331          26.000  
C10  38562146.781   200803278.9151        910.704          26.000  
C16  37279900.562   194126250.572        -189.037          20.000  
C23  22462752.160   116969462.172       -1913.281          28.000  
C32  22171796.685   115454375.129         905.417          35.000  
C37  22605452.171   117712508.193         736.027          27.000  
G10  20484535.651   107646965.665       -1824.436          33.000    20484538.049    80385684.844       -1361.351          28.000  
G23  22525063.723   118369893.322       -3605.993          24.000                                                                  
G31  21175996.762   111280617.614         318.961          35.000                                                                  
G32  21301020.710   111937557.564         771.624          30.000    21301015.914    83589765.149         577.568          30.000  
> 2021 11 06 07 29 17.9999444  0 12                     
C06  36833763.816   191803054.178        -241.388          32.000  
C07  37818049.309   196928497.920        1012.865          25.000  
C09  37674495.789   196181023.903        -332.639          25.000  
C10  38561971.702   200802369.336         909.053          26.000  
C16  37279936.537   194126439.575        -189.114          20.000  
C23  22463119.406   116971375.119       -1912.468          27.000  
C32  22171621.606   115453469.868         905.589          34.000  
C37  22605310.369   117711771.408         736.470          27.000  
G10  20484880.412   107648790.147       -1825.581          33.000    20484884.310    80387046.745       -1362.769          28.000  
G23  22525751.747   118373499.454       -3606.398          24.000                                                                  
G31  21175935.905   111280298.788         318.315          35.000                                                                  
G32  21300874.112   111936786.225         770.855          30.000    21300868.116    83589189.261         575.598          31.000  
> 2021 11 06 07 29 18.9999442  0 12                     
C06  36833747.327   191802985.762        -244.864          32.000  
C07  37817792.987   196927173.211        1012.840          25.000  
C09  37674500.286   196181044.384        -332.037          26.000  
C10  38561736.965   200801147.423         910.405          25.000  
C16  37279913.753   194126316.352        -189.518          23.000  
C23  22463426.094   116972975.334       -1913.163          30.000  
C32  22171390.166   115452252.867         904.462          36.000  
C37  22605109.209   117710724.451         733.406          27.000  
G10                                                                  20485171.211    80388175.016       -1364.976          27.000  
G23  22526377.713   118376791.124       -3606.171          26.000                                                                  
G31  21175816.887   111279665.386         317.924          35.000                                                                  
G32  21300666.955   111935700.677         769.779          31.000    21300662.158    83588378.259         574.855          30.000  
> 2021 11 06 07 29 19.9999439  0 12                     
C06  36833704.157   191802761.173        -244.626          32.000  
C07  37817509.383   196925692.170        1013.395          24.000  
C09  37674475.403   196180907.869        -332.046          26.000  
C10  38561471.349   200799768.365         910.503          26.000  
C16  37279859.490   194126037.482        -188.689          25.000  
C23  22463704.601   116974420.691       -1914.420          31.000  
C32  22171125.149   115450880.277         903.425          35.000  
C37  22604878.368   117709523.288         731.735          28.000  
G10  20485420.039   107651653.5991      -1826.434          32.000    20485429.033    80389186.299       -1363.765          28.000  
G25  21010186.351   110409166.9781      -1732.870          21.000                                                                  
G31  21175662.494   111278874.983         316.474          35.000                                                                  
G32  21300430.719   111934458.478         769.660          30.000    21300425.622    83587449.779         574.012          30.000  
> 2021 11 06 07 29 20.9999437  0 14                     
C06  36833693.664   191802692.922        -243.077          32.000  
C07  37817252.461   196924366.891        1012.395          23.000  
C09  37674477.502   196180926.118        -330.122          21.000  
C10  38561236.611   200798545.360         910.278          26.000  
C16  37279835.207   194125913.961        -187.286          22.000  
C23  22464013.087   116976022.828       -1913.663          24.000  
C32  22170891.311   115449664.389         903.449          36.000  
C37  22604678.107   117708479.057         731.625          31.000  
G10                                                                  20485716.234    80390314.111       -1364.883          28.000  
G12  23488328.968   123432010.4911      -3157.548          16.000                                                                  
G23  22527604.464   118383217.8771      -3609.991          23.000                                                                  
G25  21010453.466   110410584.444       -1733.692          22.000                                                                  
G31  21175541.078   111278242.671         316.108          36.000                                                                  
G32                                                                  21300219.365    83586639.197         577.487          32.000  
> 2021 11 06 07 29 21.9999434  0 14                     
C06  36833653.193   191802468.571        -244.355          32.000  
C07  37816968.857   196922885.455        1013.582          24.000  
C09  37674452.020   196180788.375        -330.786          24.000  
C10  38560971.595   200797166.624         910.270          26.000  
C16  37279781.244   194125632.817        -188.243          14.000  
C20  25760193.689   134140179.9961       2602.976          25.000  
C23  22464289.196   116977468.783       -1914.477          20.000  
C32  22170628.094   115448292.909         903.414          35.000  
C37  22604448.166   117707278.972         731.482          30.000  
G10  20485963.563   107654519.8041      -1827.838          26.000    20485974.955    80391325.931       -1364.669          28.000  
G23  22528199.852   118386353.996       -3608.072          24.000                                                                  
G25  21010690.602   110411845.054       -1732.771          24.000                                                                  
G31  21175393.280   111277453.370         315.183          35.000                                                                  
G32  21299987.326   111932131.2221        770.125          33.000    21299983.129    83585711.144         573.503          30.000  
> 2021 11 06 07 29 22.9999432  0 12                     
C06  36833636.104   191802400.394        -244.435          32.000  
C07  37816714.034   196921559.783        1013.279          25.000  
C09  37674458.315   196180807.354        -332.027          25.000  
C10  38560736.857   200795944.461         909.681          27.000  
C20  25759635.176   134137264.895        2602.802          24.000  
C32  22170395.455   115447078.067         901.578          35.000  
C37  22604247.305   117706235.171         731.226          30.000  
G10                                                                  20486263.055    80392455.634       -1365.897          28.000  
G23  22528823.120   118389649.295       -3612.100          22.000                                                                  
G25  21010959.515   110413262.234       -1732.425          23.000                                                                  
G31  21175274.263   111276822.127         315.596          35.000                                                                  
G32  21299780.469   111931046.080         769.961          33.000    21299776.572    83584900.993         573.931          31.000  
> 2021 11 06 07 29 23.9999429  0 12                     
C06  36833592.335   191802176.301        -244.173          33.000  
C07  37816430.430   196920077.425        1015.032          24.000  
C09  37674433.432   196180672.824        -334.734          23.000  
C10  38560473.640   200794567.143         908.552          26.000  
C20  25759045.484   134134194.188        2602.024          22.000  
C32  22170132.237   115445707.741         902.401          35.000  
C37  22604017.065   117705035.615         730.572          31.000  
G10  20486504.688   107657388.5291      -1828.535          27.000    20486520.877    80393468.809       -1366.541          28.000  
G23  22529420.607   118392787.483       -3610.587          23.000                                                                  
G25  21011197.251   110414522.255       -1733.656          23.000                                                                  
G31  21175124.067   111276033.943         316.945          34.000                                                                  
G32  21299543.933                         769.547          33.000    21299540.035    83583973.456         574.753          30.000  
> 2021 11 06 07 29 24.9999427  0 12                     
C06  36833580.043   191802108.271        -245.321          32.000  
C07  37816175.606   196918751.590        1013.124          24.000  
C09  37674439.428   196180695.371        -333.977          25.000  
C10  38560238.902   200793348.467         905.681          26.000  
C20  25758485.472   134131279.973        2601.749          25.000  
C32  22169898.699   115444494.020         902.019          35.000  
C37  22603816.503   117703992.909         729.887          31.000  
G10  20486791.889   107658902.640       -1830.837          28.000    20486809.577    80394600.183       -1366.448          28.000  
G23  22530050.171   118396083.356       -3610.739          22.000                                                                  
G25  21011467.364   110415940.702       -1734.476          23.000                                                                  
G31  21175001.452   111275403.825         313.892          35.000                                                                  
G32  21299333.778   111928774.3721        768.674          33.000    21299333.778    83583163.681         574.514          31.000  
> 2021 11 06 07 29 25.9999427  0 11                     
C06  36833627.710   191802352.503        -244.255          32.000  
C07  37815982.540   196917739.599        1011.483          26.000  
C10  38560064.723   200792441.981         907.784          27.000  
C20  25757986.917   134128679.300        2599.794          25.000  
C32  22169728.117   115443592.973         900.971          35.000  
C37  22603676.201   117703263.353         728.995          32.000  
G10  20487141.447   107660733.528       -1831.112          28.000    20487158.235    80395967.175       -1366.795          28.000  
G23  22530735.796   118399693.454       -3608.889          23.000                                                                  
G25  21011795.337   110417675.690       -1735.607          24.000                                                                  
G31  21174938.795   111275089.271         313.043          34.000                                                                  
G32  21299186.280   111928005.261         768.439          34.000    21299187.479    83582589.357         573.322          31.000  
> 2021 11 06 07 29 26.9999424  0 12                     
C02                                      -187.803          30.000  
C06  36833580.043   191802128.614        -245.580          32.000  
C07  37815699.236   196916259.468        1012.631          24.000  
C10  38559800.606   200791065.324         909.769          28.000  
C20  25757399.623   134125611.268        2599.998          25.000  
C32  22169462.201   115442224.105         900.183          35.000  
C37  22603445.360   117702065.734         729.162          32.000  
G10  20487399.868   107662091.579       -1830.690          30.000    20487417.256    80396982.069       -1367.905          27.000  
G12  23491555.634   123448913.2101      -3170.121          18.000                                                                  
G25  21012035.171   110418940.792       -1739.784          24.000                                                                  
G31  21174793.995   111274302.559         314.093          35.000                                                                  
G32  21298952.442   111926763.914         768.850          35.000    21298950.643    83581662.487         573.171          30.000  
> 2021 11 06 07 29 27.9999424  0 13                     
C06  36833625.911   191802372.318        -239.323          28.000  
C07  37815502.273   196915246.681        1013.658          26.000  
C09  37674545.855   196181224.0441       -331.127          19.000  
C10  38559627.026   200790155.708         909.429          27.000  
C23  22466202.472   116987404.4581      -1920.869          26.000  
C32  22169287.122   115441324.129         897.582          34.000  
C37  22603303.858   117701336.786         728.626          30.000  
G10                                                                  20487766.215    80398350.231       -1368.417          29.000  
G23  22532024.304   118406441.9341      -3612.406          23.000                                                                  
G25  21012366.741   110420681.536       -1741.257          22.000                                                                  
G26  22954649.227   120627331.7241       3190.995          24.000                                                                  
G31  21174731.638   111273989.161         313.770          36.000                                                                  
G32  21298808.242   111925993.659         768.209          34.000    21298803.145    83581088.701         573.095          31.000  
> 2021 11 06 07 29 28.9999421  0 12                     
C06  36833582.741   191802148.033        -244.910          27.000  
C10  38559363.808   200788778.203         908.680          26.000  
C20  25756311.976   134119940.8611       2600.772          21.000  
C23  22466480.979   116988857.096       -1921.377          34.000  
C32  22169023.604   115439956.370         898.284          35.000  
C37  22603072.119   117700140.189         727.893          31.000  
G10                                                                  20488026.135    80399366.104       -1369.422          29.000  
G23  22532624.788   118409581.400       -3612.156          27.000                                                                  
G25  21012605.376   110421949.714       -1741.342          26.000                                                                  
G26  22953951.610   120623669.183        3188.330          24.000                                                                  
G31  21174585.040   111273203.558         312.510          37.000                                                                  
G32  21298573.804   111924752.654         768.711          31.000    21298566.909    83580161.994         573.493          30.000  
> 2021 11 06 07 29 29.9999419  0 14                     
C06  36833568.951   191802080.226        -244.074          27.000  
C07  37814961.747   196912440.1181       1012.694          26.000  
C09  37674522.171   196181106.0831       -331.135          22.000  
C10  38559129.970   200787557.383         908.114          27.000  
C20  25755751.065   134117028.049        2600.840          27.000  
C23  22466790.065   116990465.384       -1919.615          29.000  
C32  22168792.764   115438745.143         896.693          34.000  
C37  22602871.258   117699100.055         727.781          33.000  
G10  20488312.137                       -1834.096          38.000    20488315.135    80400500.200       -1369.470          28.000  
G23  22533252.554   118412879.467       -3612.934          24.000                                                                  
G25  21012874.590   110423375.753       -1740.826          23.000                                                                  
G26  22953284.272   120620166.228        3186.926          25.000                                                                  
G31  21174466.022   111272575.820         312.228          38.000                                                                  
G32  21298368.147   111923668.617         768.852          29.000    21298361.251    83579353.251         573.476          30.000  
> 2021 11 06 07 29 30.9999416  0 13                     
C06  36833525.481   191801856.544        -244.926          28.000  
C07  37814676.644   196910959.489        1011.858          26.000  
C09  37674496.389   196180969.733        -329.836          20.000  
C10  38558866.152   200786181.809         906.973          28.000  
C23  22467067.972   116991916.022       -1919.232          24.000  
C32  22168529.846   115437378.236         896.148          33.000  
C37  22602638.919   117697904.961         726.182          32.000  
G10  20488575.354   107668168.3041      -1835.676          36.000    20488573.855    80401516.511       -1369.512          29.000  
G23  22533853.038   118416019.390       -3611.709          27.000                                                                  
G25  21013111.725   110424642.899       -1738.778          22.000                                                                  
G26  22952586.955   120616505.441        3188.998          23.000                                                                  
G31  21174317.925   111271791.190         310.545          37.000                                                                  
G32  21298128.313   111922425.448         770.944          27.000    21298125.914    83578426.808         574.045          30.000  
> 2021 11 06 07 29 31.9999414  0 14                     
C06  36833513.189   191801789.221        -245.506          29.000  
C07  37814424.219   196909635.895        1010.784          23.000  
C09  37674496.988   196180987.741        -330.179          24.000  
C10  38558632.914   200784962.553         907.057          27.000  
C20  25754597.763   134111044.2511       2601.241          26.000  
C23  22467374.960   116993522.931       -1918.620          29.000  
C32  22168296.308   115436167.943         896.788          35.000  
C37  22602442.555                         726.835          35.000  
G10  20488865.853   107669688.242       -1834.866          37.000    20488863.455    80402651.181       -1371.047          29.000  
G12  23494274.152   123463216.9001      -3174.973          16.000                                                                  
G23  22534483.502   118419316.702       -3612.977          23.000                                                                  
G26  22951919.017   120613001.751        3188.742          22.000                                                                  
G31  21174199.806   111271164.452         311.847          37.000                                                                  
G32  21297920.257   111921339.677         769.602          26.000    21297919.357    83577618.346         572.556          30.000  
> 2021 11 06 07 29 32.9999411  0 13                     
C06  36833471.818   191801566.483        -246.038          27.000  
C07  37814140.016   196908157.413        1010.710          27.000  
C09  37674467.609   196180849.570        -331.337          26.000  
C10  38558369.097   200783586.585         907.711          27.000  
C20  25754009.270   134107975.010        2600.935          28.000  
C23  22467652.568   116994972.932       -1918.433          27.000  
C32  22168037.887   115434801.491         899.009          34.000  
C37  22602214.413   117695654.7251        724.868          34.000  
G10                                                                  20489122.176    80403668.995       -1370.547          26.000  
G25  21013626.469   110427332.4121      -1739.227          21.000                                                                  
G26  22951219.901   120609339.775        3189.610          21.000                                                                  
G31  21174051.109   111270380.621         311.690          38.000                                                                  
G32  21297684.920   111920098.236         767.942          28.000    21297683.121    83576691.769         576.182          30.000  
> 2021 11 06 07 29 33.9999409  0 15                     
C06  36833458.327   191801500.214        -246.929          20.000  
C07  37813884.293   196906833.565        1011.051          24.000  
C09  37674469.408   196180868.860        -330.778          21.000  
C10  38558134.659   200782366.695         906.339          26.000  
C16  37279470.959   194124019.3131       -189.134          28.000  
C20  25753450.157   134105062.310        2599.360          23.000  
C23  22467959.855   116996579.439       -1919.528          34.000  
C32  22167802.550   115433591.929         896.046          22.000  
C37  22602015.350   117694616.671         726.630          29.000  
G10  20489406.979   107672572.8931      -1838.055          30.000    20489411.176    80404803.344       -1369.364          18.000  
G23  22535708.454   118425754.4131      -3612.573          19.000                                                                  
G25  21013896.882   110428757.005       -1738.991          23.000                                                                  
G26  22950553.762   120605835.833        3188.840          18.000                                                                  
G31  21173929.693   111269755.076         307.943          35.000                                                                  
G32  21297479.562   111919015.579         767.178          31.000    21297475.365    83575881.064         576.167          24.000  
> 2021 11 06 07 29 34.9999406  0 12                     
C06  36833415.157   191801277.846        -244.955          25.000  
C07  37813599.790   196905353.175        1011.118          24.000  
C09  37674441.827   196180730.392        -329.219          25.000  
C16  37279416.097   194123739.981        -188.863          27.000  
C20  25752862.264   134101994.683        2599.363          23.000  
C23  22468237.163   116998030.888       -1920.100          33.000  
C32  22167540.231   115432227.077         897.352          29.000  
C37  22601787.808   117693421.450         726.616          28.000  
G10  20489664.800   107673938.039       -1837.576          29.000    20489670.496    80405821.534       -1372.045          25.000  
G23  22536309.538   118428894.483       -3613.289          20.000                                                                  
G31  21173781.896   111268971.803         310.087          34.000                                                                  
G32                                                                  21297238.229    83574954.037         574.398          21.000  
> 2021 11 06 07 29 35.9999404  0 15                     
C06  36833403.765   191801212.061        -248.841          19.000  
C07  37813346.465   196904029.960        1010.986          28.000  
C09  37674444.225   196180748.290        -330.955          32.000  
C10  38557637.303   200779774.2641        906.618          24.000  
C16  37279391.514   194123616.381        -188.497          33.000  
C20  25752307.049   134099083.216        2599.065          29.000  
C23  22468550.446   116999639.102       -1921.253          39.000  
C32  22167308.492   115431017.678         897.049          33.000  
C37  22601589.045   117692383.011         725.475          25.000  
G10  20489954.100   107675460.575       -1837.800          27.000    20489960.096    80406958.656       -1372.536          28.000  
G12  23496393.385   123474347.2871      -3175.853          17.000                                                                  
G25  21014412.825   110431450.5471      -1743.615          23.000                                                                  
G26  22949190.906   120598674.3821       3187.204          18.000                                                                  
G31  21173661.079   111268346.644         308.385          32.000                                                                  
G32  21297031.672                         766.062          38.000    21297032.871    83574143.746         575.260          20.000  
> 2021 11 06 07 29 36.9999401  0 14                     
C07  37813062.262   196902550.393        1011.286          29.000  
C09  37674416.944   196180611.635        -331.910          33.000  
C10  38557373.486   200778399.223         906.494          25.000  
C16  37279336.053   194123336.676        -189.348          32.000  
C20  25751719.755   134096015.662        2598.901          27.000  
C23  22468830.153                       -1920.567          39.000  
C32  22167047.073   115429652.385         896.483          33.000  
C37  22601359.105   117691189.536         725.434          29.000  
G10  20490212.521   107676826.128       -1838.725          30.000    20490220.016    80407977.814       -1371.414          27.000  
G23  22537526.695   118435334.0081      -3614.129          21.000                                                                  
G25  21014657.755   110432720.994       -1742.615          22.000                                                                  
G26  22948496.586   120595014.316        3187.787          18.000                                                                  
G31  21173514.481   111267564.487         310.645          38.000                                                                  
G32  21296795.136   111915417.3631        767.367          39.000    21296797.834    83573217.413         572.336          24.000  
> 2021 11 06 07 29 37.9999398  0 13                     
C06  36833322.222   191800768.6871       -246.146          25.000  
C07  37812778.958   196901070.681        1011.600          30.000  
C09  37674389.963   196180475.535        -332.266          28.000  
C10  38557108.469   200777023.330         908.127          24.000  
C16  37279280.591   194123057.107        -189.375          32.000  
C20  25751131.862   134092948.335        2598.847          30.000  
C23  22469108.660   117002547.4961      -1921.122          39.000  
C32  22166781.756   115428288.388         895.501          32.000  
C37  22601129.464   117689996.399         723.991          33.000  
G10  20490471.842   107678192.450       -1839.460          30.000    20490480.536    80408997.618       -1373.596          26.000  
G12  23497423.472   123479747.7301      -3173.914          18.000                                                                  
G31  21173365.784   111266782.719         307.797          38.000                                                                  
G32  21296560.698   111914178.262         766.556          40.000    21296562.796    83572292.271         572.948          22.000  
> 2021 11 06 07 29 38.9999398  0 14                     
C06  36833368.989   191801014.127        -245.430          24.000  
C07  37812583.793   196900059.197        1011.022          29.000  
C09  37674453.818   196180806.560        -330.427          28.000  
C10  38556935.789   200776114.214         909.939          19.000  
C16  37279315.967   194123246.447        -189.315          29.000  
C20  25750632.108   134090348.118        2600.394          21.000  
C23  22469477.105   117004469.228       -1922.825          38.000  
C32  22166610.275   115427392.984         895.015          33.000  
C37  22600990.360   117689272.994         722.218          32.000  
G10  20490822.299   107680032.191       -1840.084          27.000    20490830.693    80410371.548       -1375.288          28.000  
G12  23498026.954   123482922.168       -3170.002          18.000                                                                  
G23  22538804.410   118442090.0111      -3615.091          19.000                                                                  
G31  21173307.324   111266474.522         307.835          37.000                                                                  
G32  21296413.800   111913411.966         765.177          42.000    21296417.697    83571719.683         573.547          13.000  
> 2021 11 06 07 29 39.9999396  0 12                     
C07  37812327.470   196898735.894        1011.311          29.000  
C09  37674456.816   196180825.282        -331.462          31.000  
C16  37279291.384   194123123.588        -189.593          33.000  
C20  25750074.494   134087435.254        2601.055          29.000  
C23  22469786.191   117006079.636       -1922.726          39.000  
C32  22166383.632   115426185.655         893.017          33.000  
C37  22600791.298   117688238.502         722.020          25.000  
G10  20491111.898   107681557.635       -1840.725          29.000    20491120.892    80411510.598       -1374.174          27.000  
G23  22539433.975   118445390.438       -3615.639          23.000                                                                  
G26  22946517.057   120584661.1991       3188.494          20.000                                                                  
G31  21173187.407   111265851.599         308.148          37.000                                                                  
G32  21296207.542   111912331.082         765.380          40.000    21296213.238    83570911.987         571.641          16.000  
> 2021 11 06 07 29 40.9999393  0 15                     
C06  36833312.928   191800724.5421       -245.830          27.000  
C07  37812041.768   196897255.593        1011.681          25.000  
C09  37674431.334   196180689.230        -332.701          31.000  
C10  38556437.834   200773516.0271        908.910          21.000  
C16  37279236.522   194122845.338        -190.970          29.000  
C20  25749487.201   134084366.953        2599.858          27.000  
C23  22470064.098   117007534.451       -1923.218          38.000  
C32  22166119.815   115424823.922         893.537          34.000  
C37  22600564.655   117687047.434         722.310          24.000  
G10  20491371.818   107682926.100       -1841.492          31.000    20491380.213    80412531.228       -1374.167          26.000  
G23  22540034.459   118448533.838       -3616.457          19.000                                                                  
G25  21015755.595   110438441.1831      -1748.257          21.000                                                                  
G26  22945825.735   120581000.267        3188.130          19.000                                                                  
G31  21173036.912   111265071.665         307.196          39.000                                                                  
G32  21295977.901   111911092.876         766.694          38.000    21295977.302    83569987.438         571.600          26.000  
> 2021 11 06 07 29 41.9999393  0 12                     
C06  36833360.595   191800969.952        -245.300          30.000  
C09  37674498.487   196181021.811        -333.762          32.000  
C10  38556263.354   200772608.607         905.333          27.000  
C23  22470440.638   117009457.789       -1924.606          33.000  
C32  22165947.134                         891.693          34.000  
C37  22600425.851   117686326.025         721.314          26.000  
G10                                                                  20491729.771    80413906.932       -1376.376          27.000  
G12  23499695.599   123491647.9021      -3173.096          18.000                                                                  
G23  22540723.981   118452150.749       -3617.569          20.000                                                                  
G25  21016088.665   110440189.328       -1748.217          23.000                                                                  
G31  21172971.557   111264764.830         306.812          37.000                                                                  
G32  21295833.102   111910327.477         765.710          35.000    21295831.303    83569415.790         571.681          31.000  
> 2021 11 06 07 29 42.9999391  0 12                     
C06  36833348.603   191800902.877        -245.309          31.000  
C09  37674499.986                        -334.386          31.000  
C10  38556030.116   200771391.714         903.636          27.000  
C20  25748431.931   134078849.8121       2600.349          14.000  
C23  22470749.424   117011069.287       -1924.767          31.000  
C32  22165715.994   115422698.1741        893.121          34.000  
C37  22600228.288   117685293.087         719.931          25.000  
G10  20492024.766                       -1843.262          35.000    20492020.569    80415047.809       -1376.653          26.000  
G12  23500242.421   123494507.758       -3176.465          18.000                                                                  
G23  22541353.845   118455453.569       -3618.262          20.000                                                                  
G25  21016360.876   110441622.027       -1748.489          24.000                                                                  
G32  21295625.945   111909247.305         764.907          34.000    21295625.645    83568608.890         571.553          31.000  
> 2021 11 06 07 29 43.9999388  0 15                     
C06  36833304.834   191800679.150        -244.439          31.000  
C07  37811303.379   196893439.0171       1008.566          19.000  
C09  37674479.600   196180871.6511       -332.873          31.000  
C10  38555765.699   200770019.325         904.554          27.000  
C16  37279199.347   194122636.5921       -187.311          18.000  
C20  25747841.640   134075781.345        2598.933          16.000  
C23  22471032.428   117012525.258       -1924.960          32.000  
C32  22165456.674   115421337.737         891.741          34.000  
C37  22600000.145   117684104.542         720.537          25.000  
G10  20492286.785   107687687.9331      -1844.068          35.000    20492281.988    80416071.989       -1377.147          26.000  
G12  23500759.862   123497213.206       -3178.801          19.000                                                                  
G23  22541949.833   118458598.798       -3618.294          20.000                                                                  
G25  21016604.607   110442897.384       -1748.359          24.000                                                                  
G31  21172712.236   111263365.1981        304.956          35.000                                                                  
G32  21295389.409   111908009.931         764.839          34.000    21295389.708    83567684.593         571.169          31.000  
> 2021 11 06 07 29 44.9999386  0 16                     
C02                                     -1942.548          27.000  
C06  36833290.743   191800611.212        -244.560          30.000  
C07  37811048.256   196892117.468        1010.417          18.000  
C09  37674480.500   196180891.612        -333.232          31.000  
C10  38555532.460   200768802.780         903.983          28.000  
C20  25747281.328   134072869.986        2599.994          19.000  
C23  22471339.415   117014137.655       -1924.821          32.000  
C32  22165224.934   115420133.882         890.795          34.000  
C37  22599801.683   117683071.507         720.145          24.000  
G10  20492577.284   107689217.660       -1846.081          35.000    20492573.387    80417213.586       -1377.129          27.000  
G12  23501306.984   123500077.675       -3180.173          20.000                                                                  
G23  22542577.298   118461901.822       -3618.047          20.000                                                                  
G25  21016876.819   110444331.770       -1750.853          25.000                                                                  
G26  22943207.048   120567153.0001       3186.643          17.000                                                                  
G31  21172595.617   111262744.918         304.602          36.000                                                                  
G32  21295188.248   111906930.315         763.610          34.000    21295184.051    83566878.142         570.979          31.000  
> 2021 11 06 07 29 45.9999383  0 13                     
C06  36833246.674   191800387.275        -244.340          30.000  
C09  37674452.919   196180755.508        -332.424          32.000  
C10  38555268.643   200767430.087         905.358          28.000  
C16  37279122.001   194122231.4571       -188.066          19.000  
C23  22471621.520   117015594.386       -1926.020          33.000  
C32  22164964.414   115418774.465         892.301          34.000  
C37  22599572.941   117681882.517         721.135          25.000  
G10  20492835.705   107690590.604       -1845.430          35.000    20492834.506    80418237.840       -1378.100          27.000  
G12  23501824.426   123502785.088       -3180.019          20.000                                                                  
G23  22543177.183   118465047.387       -3618.628          20.000                                                                  
G25  21017122.949   110445610.679       -1752.947          24.000                                                                  
G31  21172447.220   111261967.580         303.958          36.000                                                                  
G32  21294950.513   111905693.453         763.343          34.000    21294948.714    83565954.415         570.613          31.000  
> 2021 11 06 07 29 46.9999380  0 13                     
C06  36833205.303   191800163.800        -245.423          30.000  
C09  37674427.736   196180619.466        -332.660          32.000  
C10  38555004.226   200766056.227         905.106          28.000  
C16  37279067.738   194121951.921        -188.491          20.000  
C20  25746103.743   134066733.1021       2601.141          19.000  
C23  22471898.528   117017051.562       -1925.458          33.000  
C32  22164704.494   115417415.529         889.523          34.000  
C37  22599345.099   117680693.687         718.949          26.000  
G10  20493094.126   107691964.298       -1846.443          35.000    20493095.325    80419262.157       -1377.386          26.000  
G12  23502341.268   123505492.499       -3180.773          20.000                                                                  
G25  21017368.179   110446890.546       -1753.032          26.000                                                                  
G31  21172300.022   111261190.787         303.872          36.000                                                                  
G32  21294715.475   111904456.775         763.813          34.000    21294713.676    83565030.464         570.789          30.000  
> 2021 11 06 07 29 47.9999378  0 13                     
C06  36833193.311   191800096.822        -245.485          30.000  
C09  37674429.535   196180639.583        -333.357          32.000  
C10  38554769.488   200764838.444         905.518          27.000  
C16  37279044.954   194121828.427        -190.115          20.000  
C23  22472209.113   117018665.280       -1926.930          33.000  
C32  22164470.956   115416213.242         888.450          34.000  
C37  22599149.334   117679663.028         718.908          24.000  
G10  20493389.422   107693496.330       -1848.138          34.000    20493387.023    80420405.663       -1379.854          26.000  
G23  22544400.336   118471499.1071      -3620.023          20.000                                                                  
G25  21017639.791   110448328.290       -1752.234          24.000                                                                  
G26  22941156.168   120556334.0351       3185.097          17.000                                                                  
G31  21172183.103   111260572.024         302.440          36.000                                                                  
G32  21294508.918   111903377.963         762.709          35.000    21294508.618    83564224.875         569.883          30.000  
> 2021 11 06 07 29 48.9999375  0 13                     
C06  36833150.740   191799873.458        -244.779          31.000  
C09  37674402.554   196180503.685        -332.205          32.000  
C10  38554505.671   200763465.127         904.415          28.000  
C16  37278991.291   194121549.679        -190.953          20.000  
C20  25744957.037   134060756.0291       2594.999          19.000  
C23  22472488.520   117020123.384       -1925.839          35.000  
C32  22164212.235   115414855.503         888.335          34.000  
C37  22598922.092   117678475.981         719.108          25.000  
G10  20493649.042   107694871.638       -1847.284          34.000    20493649.342    80421432.776       -1380.570          27.000  
G12  23503406.730   123511066.0461      -3180.422          20.000                                                                  
G25  21017882.323   110449608.536       -1753.208          24.000                                                                  
G31  21172038.003   111259796.367         303.248          37.000                                                                  
G32  21294277.179   111902141.984         763.415          35.000    21294273.281    83563301.449         570.689          31.000  
> 2021 11 06 07 29 49.9999373  0 11                     
C06  36833136.950   191799805.900        -244.989          30.000  
C09  37674408.550   196180523.821        -332.368          32.000  
C10  38554273.032   200762248.118         904.956          28.000  
C23  22472797.906   117021737.882       -1926.456          35.000  
C32  22163982.594   115413654.216         888.600          35.000  
C37  22598725.728   117677445.767         717.932          25.000  
G10  20493942.539   107696405.082       -1848.534          34.000    20493941.340    80422579.200       -1381.856          27.000  
G12  23503953.851   123513930.513       -3179.745          20.000                                                                  
G25  21018154.834   110451045.901       -1752.210          24.000                                                                  
G31  21171917.786   111259178.585         302.772          37.000                                                                  
G32  21294072.121   111901063.595         763.760          34.000    21294068.523    83562495.848         569.184          31.000  
> 2021 11 06 07 29 50.9999373  0 12                     
C06  36833184.617   191800051.230        -246.073          31.000  
C09  37674471.206   196180856.315        -333.181          31.000  
C10  38554098.253   200761343.005         905.011          29.000  
C16  37279006.581   194121624.2621       -194.977          20.000  
C20  25743899.070   134055250.3651       2597.998          16.000  
C23  22473165.451   117023665.119       -1925.823          34.000  
C32  22163810.813   115412765.725         889.280          35.000  
C37  22598586.324   117676728.485         715.781          23.000  
G10  20494295.994   107698254.515       -1848.867          34.000    20494293.296    80423959.995       -1380.941          27.000  
G25  21018488.503   110452799.172       -1754.479          23.000                                                                  
G31  21171860.826   111258876.529         302.463          37.000                                                                  
G32  21293927.920   111900300.639         763.065          34.000                                                                  
> 2021 11 06 07 29 51.9999370  0 13                     
C06  36833142.646   191799829.210        -246.482          30.000  
C09  37674449.621   196180720.465        -331.750          32.000  
C10  38553834.736   200759969.530         905.168          28.000  
C23  22473445.757   117025124.383       -1926.852          34.000  
C32  22163549.694   115411409.384         887.504          34.000  
C37  22598361.180   117675544.178         715.321          21.000  
G10  20494557.413   107699632.024       -1849.861          34.000    20494555.614    80424988.771       -1380.825          27.000  
G12  23505074.775   123519821.3471      -3181.403          20.000                                                                  
G23  22546910.798   118484713.0501      -3620.848          18.000                                                                  
G25  21018731.035   110454081.818       -1756.370          24.000                                                                  
G26  22938499.707   120542629.1531       3184.698          18.000                                                                  
G31  21171713.628   111258102.258         301.317          37.000                                                                  
G32  21293689.585   111899065.309         762.460          35.000                                                                  
> 2021 11 06 07 29 52.9999368  0 10                     
C06  36833130.954   191799763.566        -247.000          30.000  
C09  37674451.720   196180740.929        -331.484          31.000  
C10  38553600.897   200758752.206         905.048          28.000  
C23  22473755.743   117026740.338       -1927.939          35.000  
C32  22163320.053   115410209.782         887.195          34.000  
C37  22598162.717   117674516.575         715.095          23.000  
G10  20494846.113   107701167.975       -1851.294          34.000    20494847.612    80426135.246       -1382.408          27.000  
G25  21019007.744   110455523.341       -1756.665          23.000                                                                  
G31  21171597.308   111257486.180         301.415          37.000                                                                  
G32  21293481.829   111897987.893         763.488          34.000                                                                  
> 2021 11 06 07 29 53.9999365  0 13                     
C06  36833088.683   191799541.756        -246.637          30.000  
C09  37674426.237   196180605.134        -333.313          31.000  
C10  38553337.979   200757379.214         904.903          28.000  
C16  37278876.171   194120952.8461       -191.221          18.000  
C20  25742161.472   134046207.1681       2596.229          20.000  
C23  22474030.952   117028200.441       -1930.138          34.000  
C32  22163060.433   115408854.484         886.189          34.000  
C37  22597937.274   117673332.253         715.892          23.000  
G10  20495107.233   107702546.987       -1851.238          34.000    20495110.830    80427165.528       -1383.555          27.000  
G23  22548138.449   118491169.9521      -3622.997          19.000                                                                  
G25  21019253.873   110456807.566       -1758.759          24.000                                                                  
G31  21171448.311   111256712.937         300.738          37.000                                                                  
G32  21293249.190   111896753.007         761.787          34.000                                                                  
> 2021 11 06 07 29 54.9999363  0 11                     
C06  36833075.193   191799475.378        -245.667          30.000  
C09  37674429.835   196180625.355        -330.614          31.000  
C10  38553103.542   200756162.852         904.444          27.000  
C20  25741602.659   134043298.791        2596.064          21.000  
C23  22474342.736   117029817.000       -1928.068          33.000  
C32  22162827.794   115407655.667         884.702          35.000  
C37  22597743.008   117672305.435         713.994          21.000  
G10  20495401.629   107704084.181       -1852.902          34.000    20495403.727    80428315.172       -1385.766          26.000  
G23  22548771.011   118494477.957       -3624.371          19.000                                                                  
G31  21171330.193   111256097.644         300.118          37.000                                                                  
G32  21293044.732   111895675.876         761.441          35.000    21293043.233    83558474.0671        568.115          30.000  
> 2021 11 06 07 29 55.9999360  0 14                     
C06  36833032.922   191799253.233        -245.759          30.000  
C09  37674401.055   196180489.618        -332.063          31.000  
C10  38552839.125   200754789.884         904.302          27.000  
C16  37278800.324   194120554.8711       -189.089          18.000  
C20  25741014.466   134040233.256        2597.918          23.000  
C23  22474624.541   117031277.773       -1930.427          33.000  
C32  22162568.773   115406301.257         884.620          35.000  
C37  22597520.562   117671123.027         713.717          21.000  
G10  20495665.446   107705464.559       -1852.510          34.000    20495665.446    80429347.898       -1385.882          26.000  
G23  22549371.495   118497629.256       -3623.805          19.000                                                                  
G25  21019773.114   110459538.2411      -1759.522          22.000                                                                  
G26  22935784.787   120528325.3551       3180.205          18.000                                                                  
G31  21171184.194   111255325.259         299.324          37.000                                                                  
G32  21292810.894   111894441.381         762.249          35.000    21292809.095    83557553.184         567.609          30.000  
> 2021 11 06 07 29 56.9999357  0 12                     
C06  36832990.052   191799030.464        -246.036          30.000  
C09  37674374.673   196180353.878        -331.643          31.000  
C10  38552575.607   200753417.369         904.196          27.000  
C16  37278746.361   194120273.343        -186.614          19.000  
C20  25740426.274   134037167.200        2597.304          23.000  
C23  22474905.447   117032739.107       -1929.938          33.000  
C32  22162309.752   115404947.420         885.735          35.000  
C37  22597296.317   117669941.468         712.481          21.000  
G10  20495934.959   107706845.788       -1854.938          34.000    20495928.364    80430380.678       -1385.604          27.000  
G25  21020018.644   110460824.152       -1759.088          22.000                                                                  
G31  21171038.795   111254553.510         298.518          37.000                                                                  
G32  21292573.458   111893207.269         762.044          35.000    21292574.358    83556632.773         567.540          30.000  
> 2021 11 06 07 29 57.9999357  0 12                     
C06  36833035.320   191799276.389        -246.430          26.000  
C09  37674435.531   196180685.057        -331.830          28.000  
C10  38552400.528   200752512.118         905.450          27.000  
C20  25739929.817   134034570.175        2597.136          25.000  
C23  22475270.894   117034668.390       -1931.262          32.000  
C32  22162137.671   115404061.952         885.112          36.000  
C37  22597160.212   117669227.562         713.905          30.000  
G10  20496284.218   107708699.704       -1854.909          34.000    20496281.819    80431765.314       -1384.598          26.000  
G12  23508323.027   123536877.6581      -3189.779          18.000                                                                  
G23  22550666.898   118504402.6541      -3623.443          19.000                                                                  
G31  21170974.639   111254255.126         298.180          37.000                                                                  
G32  21292424.761   111892445.556         760.833          35.000    21292428.359    83556063.656         570.101          31.000  
> 2021 11 06 07 29 58.9999355  0 11                     
C06  36833023.329   191799210.684        -246.218          22.000  
C09  37674439.129   196180705.777        -333.296          31.000  
C10  38552166.690   200751294.240         905.437          24.000  
C20  25739371.304   134031660.624        2597.065          31.000  
C23  22475582.678   117036286.857       -1930.702          34.000  
C32  22161908.630   115402865.227         883.883          37.000  
G10  20496573.817   107710239.891       -1855.932          36.000    20496575.916    80432914.669       -1386.524          26.000  
G23  22551297.062   118507710.771       -3623.425          25.000                                                                  
G25  21020623.025   110464029.3121      -1760.949          21.000                                                                  
G31  21170855.322   111253641.537         296.577          34.000                                                                  
G32  21292220.003   111891369.648         761.416          39.000    21292221.202    83555256.938         570.514          25.000  
> 2021 11 06 07 29 59.9999352  0 11                     
C03  36378399.758   189431872.9951       -358.703          29.000  
C06  36832980.458   191798988.272        -244.850          27.000  
C09  37674412.747   196180569.356        -330.987          29.000  
C10  38551899.875   200749920.557         904.810          26.000  
C20  25738780.713   134028595.409        2596.052          30.000  
C23  22475862.684   117037749.804       -1933.003          37.000  
C32  22161650.808   115401512.797         884.266          35.000  
G10  20496836.435   107711623.447       -1855.482          35.000    20496838.534    80433948.588       -1387.260          24.000  
G25  21020869.455   110465317.249       -1760.757          24.000                                                                  
G31  21170709.922   111252870.272         298.934          33.000                                                                  
G32  21291984.066   111890136.344         759.751          43.000    21291985.565    83554334.092         569.015          23.000  
> 2021 11 06 07 30 00.9999350  0 11                     
C03  36378408.452   189431920.065        -360.064          31.000  
C06  36832967.567   191798921.314        -245.660          26.000  
C09  37674416.944   196180587.971        -331.069          24.000  
C10  38551667.236   200748703.209         905.293          28.000  
C20  25738222.799   134025686.884        2596.156          30.000  
C23  22476179.265   117039369.014       -1931.537          37.000  
C32  22161424.465   115400317.329         884.105          33.000  
C37  22596523.153   117665999.1951        710.199          32.000  
G10  20497125.735   107713165.099       -1855.954          33.000    20497131.131    80435100.651       -1386.752          20.000  
G12  23509919.721   123545341.7691      -3187.603          19.000                                                                  
G31  21170600.198   111252258.245         295.908          33.000                                                                  
> 2021 11 06 07 30 01.9999347  0 13                     
C03  36378388.066   189431811.658        -356.975          30.000  
C06  36832924.997   191798698.213        -244.170          25.000  
C09  37674391.462   196180451.138        -331.583          23.000  
C10  38551404.318   200747329.693         904.150          30.000  
C20  25737632.508   134022623.722        2594.883          27.000  
C23  22476458.671   117040833.376       -1932.732          29.000  
C32  22161164.845   115398966.074         882.108          28.000  
C37  22596295.910   117664820.736         710.299          30.000  
G10                                                                  20497394.649    80436136.091       -1388.854          19.000  
G25  21021391.094   110468049.3071      -1759.973          15.000                                                                  
G26  22931743.284   120507196.0531       3181.319          25.000                                                                  
G31  21170453.600   111251490.058         295.880          36.000                                                                  
G32  21291545.170   111887827.1031        759.223          31.000                                                                  
> 2021 11 06 07 30 02.9999347  0 11                     
C09  37674455.018   196180783.658        -334.485          21.000  
C10  38551231.338   200746425.887         903.037          29.000  
C20  25737134.553   134020027.606        2596.458          17.000  
C32  22160996.062   115398083.790         882.091          28.000  
C37  22596162.202   117664109.786         711.700          25.000  
G10                                                                  20497749.603    80437527.639       -1392.679          18.000  
G12  23511033.450   123551244.7421      -3186.955          19.000                                                                  
G25  21021726.861   110469810.027       -1761.450          20.000                                                                  
G26  22931133.507   120504017.641        3176.673          10.000                                                                  
G31  21170397.539   111251194.959         294.350          36.000                                                                  
G32  21291402.169   111887068.928         757.747          33.000                                                                  
> 2021 11 06 07 30 03.9999345  0 12                     
C06  36832953.777   191798873.9721       -245.667          20.000  
C07  37806147.848   196866572.0941       1004.444          23.000  
C09  37674459.514   196180806.336        -335.056          19.000  
C10  38550998.699   200745211.312         902.352          29.000  
C23  22477136.802   117044385.4341      -1932.218          19.000  
C32  22160767.020   115396889.671         881.811          28.000  
C37  22595968.237   117663086.229         710.830          26.000  
G10  20498045.498                       -1858.526          33.000    20498043.700    80438688.114       -1396.601          17.000  
G23  22554440.386   118524254.3411      -3627.123          19.000                                                                  
G25  21022001.771   110471259.031       -1765.523          21.000                                                                  
G31  21170282.119   111250584.457         298.655          36.000                                                                  
G32  21291199.209                         762.961          33.000                                                                  
> 2021 11 06 07 30 04.9999342  0 14                     
C06  36832911.206   191798651.451        -246.275          24.000  
C07  37805866.643   196865098.421        1005.761          24.000  
C09  37674434.632   196180672.373        -333.741          24.000  
C10  38550735.781   200743840.913         902.665          28.000  
C20  25735989.046   134014049.9411       2596.959          17.000  
C23  22477418.007   117045848.725       -1932.471          32.000  
C32  22160507.400   115395539.198         880.888          31.000  
C37  22595742.793   117661907.011         710.264          28.000  
G10  20498306.618   107719344.3101      -1868.310          33.000    20498308.716    80439727.680       -1390.891          28.000  
G23  22555036.973   118527410.483       -3629.555          19.000                                                                  
G25  21022246.701   110472550.727       -1764.640          26.000                                                                  
G26  22929779.044   120496876.7231       3178.242          13.000                                                                  
G31  21170136.420                         291.517          35.000                                                                  
G32  21290962.973   111884774.3411        757.700          35.000                                                                  
> 2021 11 06 07 30 05.9999340  0 12                     
C06  36832899.514   191798584.676        -245.302          26.000  
C09  37674440.927   196180694.979        -336.088          22.000  
C20  25735428.733   134011143.320        2594.101          25.000  
C23  22477730.991   117047469.971       -1933.498          32.000  
C32  22160277.159   115394346.474         880.685          32.000  
C37  22595544.330   117660884.866         709.414          26.000  
G10                                                                  20498603.412    80440883.514       -1392.685          26.000  
G12  23512639.738   123559712.8251      -3192.720          17.000                                                                  
G23  22555662.340   118530728.802       -3634.559          18.000                                                                  
G26  22929113.805   120493383.257        3178.463          15.000                                                                  
G31  21170022.798   111249209.6261        292.732          30.000                                                                  
G32  21290760.613   111883701.421         760.269          33.000                                                                  
> 2021 11 06 07 30 06.9999337  0 10                     
C07  37805332.413   196862305.8201       1005.995          16.000  
C09  37674416.944   196180562.229        -334.901          26.000  
C20  25734842.939   134008082.206        2592.615          24.000  
C23  22478017.292   117048935.788       -1934.581          36.000  
C32  22160012.742   115392998.710         876.604          31.000  
C37  22595317.087   117659707.576         707.338          23.000  
G10  20498863.032   107722283.2271      -1863.868          26.000    20498868.129    80441921.860       -1389.474          25.000  
G12  23513155.081   123562435.447       -3196.255          17.000                                                                  
G31  21169879.198   111248444.059         292.909          25.000                                                                  
G32  21290525.276                         757.638          36.000                                                                  
> 2021 11 06 07 30 07.9999334  0 10                     
C06  36832814.073   191798140.7181       -248.498          20.000  
C09  37674390.562   196180427.804        -332.974          24.000  
C20  25734255.046   134005020.799        2592.637          23.000  
C23  22478299.997                       -1935.274          37.000  
C32  22159752.822                         879.338          30.000  
C37  22595093.742   117658532.208         705.702          27.000  
G10  20499125.351   107723673.758       -1862.880          25.000    20499130.747    80442958.774       -1390.616          25.000  
G12  23513668.026   123565157.414       -3194.713          17.000                                                                  
G25  21023007.575   110476590.5381      -1770.919          16.000                                                                  
G32  21290290.838   111881234.1901        757.169          37.000                                                                  
> 2021 11 06 07 30 08.9999332  0  9                     
C09  37674393.260   196180448.686        -333.274          25.000  
C20  25733697.432   134002115.915        2592.677          28.000  
C23  22478611.781                       -1935.736          35.000  
C32  22159528.578                         877.312          30.000  
C37  22594898.877   117657515.003         704.346          28.000  
G10  20499417.049   107725221.878       -1863.773          24.000    20499424.843    80444114.465       -1390.969          25.000  
G23  22557497.070   118540361.9101      -3629.681          18.000                                                                  
G26  22927047.635   120482603.9361       3171.252          15.000                                                                  
G32  21290083.982   111880161.563         757.042          36.000                                                                  
> 2021 11 06 07 30 09.9999329  0 11                     
C09  37674366.879   196180313.866        -333.514          26.000  
C16  37278384.212   194118387.5071       -192.687          28.000  
C20  25733109.839   133999055.158        2591.506          27.000  
C23  22478894.785   117053496.6571      -1936.231          35.000  
C32  22159269.257   115389111.5031        878.802          30.000  
C37  22594671.934   117656343.234         702.683          26.000  
G10  20499676.669   107726613.279       -1864.811          25.000    20499690.160    80445153.428       -1391.969          25.000  
G12  23514735.587   123570763.1771      -3202.883          15.000                                                                  
G23  22558102.650   118543518.701       -3629.588          17.000                                                                  
G31  21169463.685   111246305.5241        292.121          23.000                                                                  
G32  21289854.041   111878931.758         756.637          34.000                                                                  
> 2021 11 06 07 30 10.9999327  0 11                     
C09  37674372.275   196180334.680        -333.953          24.000  
C16  37278361.427   194118268.056        -192.617          31.000  
C23  22479208.368   117055119.961       -1936.715          38.000  
C32  22159039.616   115387920.781         879.126          31.000  
C37  22594477.669   117655329.147         701.355          21.000  
G10                                                                  20499987.554    80446310.878       -1394.379          26.000  
G12  23515290.503   123573651.823       -3202.566          10.000                                                                  
G23  22558726.818   118546834.294       -3627.851          17.000                                                                  
G25  21023805.322   110480796.3891      -1766.977          18.000                                                                  
G31  21169345.867   111245698.118         292.503          26.000                                                                  
G32  21289645.685   111877858.737         756.876          36.000                                                                  
> 2021 11 06 07 30 11.9999324  0 11                     
C06  36832701.351   191797568.6891       -248.843          20.000  
C09  37674344.394   196180201.066        -334.508          23.000  
C16  37278308.364   194117991.576        -190.904          30.000  
C20  25731966.430   133993086.7921       2594.294          19.000  
C23  22479488.074   117056588.808       -1938.455          34.000  
C32  22158784.193   115386575.816         875.700          30.000  
C37  22594251.325   117654157.893         703.213          31.000  
G10  20500237.881   107729555.5451      -1866.045          29.000    20500252.870    80447351.549       -1393.055          29.000  
G23  22559326.403   118549991.106       -3630.071          17.000                                                                  
G31  21169198.969   111244933.576         290.959          26.000                                                                  
G32  21289412.147   111876627.961         756.111          35.000                                                                  
> 2021 11 06 07 30 12.9999324  0 14                     
C06  36832749.318   191797816.885        -247.715          26.000  
C07  37803788.782   196854256.9861       1002.570          25.000  
C09  37674408.250   196180535.255        -334.794          25.000  
C10  38548806.616   200733805.7731        903.990          18.000  
C16  37278343.440   194118181.965        -190.873          27.000  
C20  25731467.875   133990493.388        2593.109          24.000  
C23  22479860.416   117058526.281       -1934.618          33.000  
C32  22158616.309   115385700.635         876.188          27.000  
C37  22594115.819   117653454.394         703.444          30.000  
G10                                                                  20500606.925    80448743.584       -1390.405          21.000  
G12  23516421.920   123579582.5111      -3204.014          12.000                                                                  
G26  22924386.078   120468642.8581       3176.781          17.000                                                                  
G31  21169144.406   111244642.645         291.004          31.000                                                                  
G32  21289269.146   111875871.921         756.727          32.000    21289273.343    83543677.9271        565.884          30.000  
> 2021 11 06 07 30 13.9999322  0 15                     
C06  36832737.626   191797751.503        -246.691          25.000  
C07  37803537.855   196852942.725        1001.723          24.000  
C09  37674413.047   196180557.437        -334.625          23.000  
C10  38548574.577   200732590.946         902.672          26.000  
C16  37278320.955   194118060.989        -192.680          30.000  
C20  25730909.062   133987588.131        2593.902          31.000  
C23  22480171.601   117060152.577       -1937.117          28.000  
C32  22158388.467   115384511.494         877.362          27.000  
C37  22593919.755   117652438.404         704.479          29.000  
G10                                                                  20500902.521    80449901.744       -1396.757          19.000  
G12  23516971.140   123582471.376       -3201.735          10.000                                                                  
G25  21024665.127   110485312.0201      -1768.945          20.000                                                                  
G26  22923717.840   120465151.660        3175.650          24.000                                                                  
G31  21169033.783   111244038.333         287.687          31.000                                                                  
G32  21289068.884   111874801.604         755.379          33.000    21289070.083    83542877.812         564.376          25.000  
> 2021 11 06 07 30 14.9999319  0 13                     
C06  36832694.156   191797529.876        -246.948          14.000  
C07  37803254.851   196851471.598        1003.648          20.000  
C10  38548312.259   200731219.746         902.118          22.000  
C16  37278266.393   194117785.102        -192.402          22.000  
C20  25730321.169   133984525.943        2593.238          21.000  
C23  22480452.507   117061621.349       -1937.275          26.000  
C32  22158130.346   115383165.424         877.288          29.000  
C37  22593693.711   117651265.906         703.008          28.000  
G10  20501158.543   107734366.1131      -1867.859          28.000    20501168.736    80450945.565       -1396.836          21.000  
G23  22561252.570   118560093.2181      -3631.796          14.000                                                                  
G25  21024910.657   110486608.292       -1769.132          20.000                                                                  
G31  21168895.279   111243276.700         290.619          33.000                                                                  
G32  21288835.946   111873572.670         756.857          27.000    21288835.646    83541958.840         566.142          23.000  
> 2021 11 06 07 30 15.9999319  0 12                     
C06  36832743.322   191797776.695        -246.831          18.000  
C09  37674449.321   196180753.9201       -331.811          23.000  
C10  38548140.178   200730317.966         900.958          21.000  
C16  37278303.567   194117977.162        -191.876          27.000  
C20  25729820.816   133981933.485        2591.172          21.000  
C23  22480823.650   117063558.806       -1937.997          34.000  
C32  22157960.663   115382287.774         877.194          29.000  
C37  22593559.404   117650562.891         703.797          19.000  
G10  20501509.900   107736234.919       -1869.328          25.000    20501524.590    80452340.536       -1395.218          21.000  
G26  22922427.833   120458330.7321       3172.975          17.000                                                                  
G31  21168840.417   111242986.688         289.423          31.000                                                                  
G32  21288693.244   111872815.645         756.587          31.000    21288692.045    83541393.614         564.009          22.000  
> 2021 11 06 07 30 16.9999316  0 10                     
C06  36832700.452   191797555.240        -247.145          26.000  
C16  37278251.703   194117700.563        -192.735          28.000  
C20  25729232.623   133978873.514        2591.405          24.000  
C23  22481105.754   117065028.357       -1938.959          34.000  
C32  22157701.043   115380942.269         876.795          28.000  
C37  22593333.661   117649391.028         704.090          24.000  
G10                                                                  20501791.105    80453383.053       -1395.568          22.000  
G23  22562547.074   118566881.5531      -3628.415          16.000                                                                  
G31  21168695.017   111242225.401         287.949          29.000                                                                  
G32                                                                  21288458.507    83540476.871         563.289          23.000  
> 2021 11 06 07 30 17.9999314  0 11                     
C09  37674429.835   196180641.3261       -336.198          22.000  
C16  37278230.118   194117581.109        -192.867          29.000  
C20  25728675.009   133975968.808        2592.548          24.000  
C23  22481421.136   117066655.408       -1940.681          34.000  
C32  22157472.001   115379754.695         874.213          27.000  
C37  22593138.795   117648377.194         700.475          24.000  
G10  20502071.411   107739188.0871      -1871.188          27.000    20502086.401    80454545.809       -1400.833          20.000  
G12  23519165.021   123594043.6961      -3208.761          11.000                                                                  
G25  21025776.758   110491132.2211      -1771.196          15.000                                                                  
G31  21168578.698   111241622.618         287.580          31.000                                                                  
G32  21288252.250   111870513.3681        752.155          28.000    21288256.147    83539677.880         564.168          26.000  
> 2021 11 06 07 30 18.9999311  0 14                     
C06  36832648.288   191797271.6551       -248.223          26.000  
C07  37802245.150   196846209.8951       1004.328          17.000  
C09  37674406.151   196180507.715        -334.965          22.000  
C10  38547383.202   200726371.4291        893.306          15.000  
C16  37278178.554   194117305.993        -193.595          28.000  
C20  25728087.416   133972908.716        2590.795          27.000  
C23  22481701.742                       -1939.900          32.000  
C32  22157215.079   115378412.776         872.168          29.000  
C37  22592914.851   117647208.356         701.042          26.000  
G10                                                                  20502353.216    80455592.453       -1398.241          22.000  
G12  23519683.962   123596778.874       -3205.964          10.000                                                                  
G23  22563781.619   118573357.3521      -3632.838          14.000                                                                  
G31  21168435.097   111240862.385         287.722          30.000                                                                  
G32  21288020.210   111869287.903         753.452          30.000                                                                  
> 2021 11 06 07 30 19.9999309  0 11                     
C06  36832635.997   191797206.953        -247.727          24.000  
C07  37801994.224   196844892.564        1004.652          18.000  
C16  37278156.669   194117186.974        -192.833          23.000  
C20  25727528.902   133970005.395        2591.250          27.000  
C23  22482018.023   117069747.4251      -1940.532          32.000  
C32  22156987.837   115377228.379         872.054          28.000  
C37  22592721.784   117646195.896         699.037          24.000  
G10                                                                  20502648.212    80456753.868       -1396.922          21.000  
G12  23520236.479   123599668.213       -3201.698          10.000                                                                  
G23  22564411.183   118576674.700       -3633.391          15.000                                                                  
G32  21287817.251   111868219.130         753.395          23.000                                                                  
> 2021 11 06 07 30 20.9999306  0 11                     
C07  37801711.819   196843419.048        1005.414          18.000  
C09  37674385.166   196180400.5921       -336.529          21.000  
C10  38546892.142   200723806.2891        894.976          14.000  
C16  37278104.505   194116911.052        -192.230          26.000  
C20  25726940.410   133966946.291        2590.582          30.000  
C23  22482300.727   117071219.264       -1941.591          32.000  
C32  22156730.315   115375888.662         870.764          27.000  
G10  20502895.241   107743545.2161      -1873.896          22.000    20502914.428    80457799.499       -1398.040          22.000  
G12  23520755.720   123602395.529       -3199.110          12.000                                                                  
G25  21026565.512   110495207.4141      -1779.448          16.000                                                                  
G32  21287584.312   111866992.977         753.511          29.000                                                                  
> 2021 11 06 07 30 21.9999304  0 11                     
C06  36832582.334   191796921.6001       -245.890          19.000  
C09  37674391.162   196180424.599        -336.178          20.000  
C16  37278083.220   194116791.161        -192.859          26.000  
C20  25726383.096   133964042.599        2591.669          30.000  
C23  22482612.811   117072847.801       -1941.621          32.000  
C32  22156501.273   115374704.931         871.669          26.000  
C37  22592305.672   117644018.3341        699.714          18.000  
G10                                                                  20503210.922    80458962.263       -1398.659          20.000  
G26  22918349.157   120436913.8221       3176.915          20.000                                                                  
G31  21168057.659                         285.917          33.000                                                                  
G32  21287381.652   111865923.724         755.007          30.000                                                                  
> 2021 11 06 07 30 22.9999301  0 10                     
C06  36832540.363   191796699.383        -247.056          21.000  
C09  37674368.078   196180291.676        -335.318          22.000  
C16  37278030.457   194116515.925        -192.501          26.000  
C20  25725795.502   133960982.768        2591.530          31.000  
C23  22482895.815   117074320.493       -1941.943          33.000  
C32  22156243.152   115373364.480         871.922          26.000  
G10  20503457.652   107746508.1851      -1876.037          24.000    20503476.838    80460008.173       -1401.349          21.000  
G12  23521823.281   123608004.3731      -3194.047          11.000                                                                  
G26  22917654.838   120433265.098        3175.415          20.000                                                                  
G31  21167916.756   111238135.2461        286.653          33.000                                                                  
> 2021 11 06 07 30 23.9999299  0  9                     
C06  36832525.973   191796634.433        -247.009          21.000  
C16  37278007.972   194116396.388        -193.038          29.000  
C20  25725237.289   133958078.423        2592.664          30.000  
C23  22483208.199   117075949.668       -1941.251          32.000  
C32  22156017.109   115372181.273         870.477          28.000  
C37  22591890.160   117641840.8481        697.018          27.000  
G10  20503755.346   107748069.214       -1875.835          26.000    20503774.232    80461175.078       -1402.525          23.000  
G12  23522372.500   123610883.396       -3194.534          13.000                                                                  
G32  21286944.255   111863625.8541        754.935          29.000                                                                  
> 2021 11 06 07 30 24.9999296  0 11                     
C06  36832482.803   191796412.680        -246.804          26.000  
C09  37674347.392   196180183.5591       -336.571          19.000  
C16  37277955.209   194116120.725        -193.196          31.000  
C20  25724648.496   133955017.450        2592.451          26.000  
C23  22483492.102   117077423.518       -1941.506          32.000  
C32  22155758.687   115370842.728         869.893          29.000  
C37  22591665.615   117640675.093         697.068          28.000  
G12  23522890.542   123613604.876       -3193.566          13.000                                                                  
G26  22916302.174   120426130.1801       3171.743          20.000                                                                  
G31  21167654.438   111236778.2871        283.315          30.000                                                                  
G32  21286711.616   111862399.573         752.688          28.000    21286711.017    83533617.1961        563.406          27.000  
> 2021 11 06 07 30 25.9999293  0 12                     
C06  36832442.031   191796191.290        -246.740          29.000  
C09  37674321.610   196180050.322        -334.517          20.000  
C16  37277901.546   194115844.850        -191.996          31.000  
C20  25724058.505   133951956.183        2593.707          23.000  
C23  22483772.108   117078897.397       -1942.820          37.000  
C32  22155502.365   115369504.984         869.600          31.000  
C37  22591441.071   117639510.191         696.188          29.000  
G10  20504295.871   107750877.9911      -1877.280          25.000                                                                  
G23  22568084.840   118595986.0491      -3640.387          15.000                                                                  
G26  22915608.454   120422485.832        3172.402          25.000                                                                  
G31  21167512.936   111236019.493         285.116          30.000                                                                  
G32  21286478.677   111861172.964         753.361          29.000    21286478.677    83532701.732         562.490          25.000  
> 2021 11 06 07 30 26.9999291  0 12                     
C06  36832429.140   191796126.308        -248.054          30.000  
C09  37674324.008   196180072.704        -333.815          24.000  
C16  37277878.162   194115724.860        -192.475          35.000  
C20  25723498.493   133949051.511        2591.275          22.000  
C23  22484084.192   117080528.138       -1943.313          40.000  
C32  22155275.722   115368323.151         869.375          33.000  
C37  22591247.405   117638502.533         694.675          23.000  
G23  22568716.503   118599308.737       -3636.342          15.000                                                                  
G25  21028167.303   110503534.6951      -1784.236          19.000                                                                  
G26  22914943.814   120418999.003        3170.840          22.000                                                                  
G31  21167400.214   111235420.020         283.566          31.000                                                                  
G32  21286274.219   111860104.539         753.152          37.000    21286275.418    83531903.322         562.666          30.000  
> 2021 11 06 07 30 27.9999288  0 12                     
C06  36832386.869   191795905.519        -247.173          31.000  
C07  37799824.626   196833596.5361       1000.198          29.000  
C09  37674294.329   196179938.421        -334.645          24.000  
C16  37277825.099   194115449.113        -192.787          35.000  
C20  25722912.698   133945991.526        2591.736          24.000  
C23  22484368.096   117082003.507       -1943.575          39.000  
C32  22155019.399   115366985.958         868.081          31.000  
C37  22591022.860   117637339.123         694.593          32.000  
G12  23524475.544   123621935.2851      -3204.321          16.000                                                                  
G26  22914250.395   120415354.731        3171.242          24.000                                                                  
G31  21167255.114   111234664.597         281.337          33.000                                                                  
G32  21286037.983   111858879.012         752.497          39.000    21286042.180    83530989.174         559.767          27.000  
> 2021 11 06 07 30 28.9999288  0 12                     
C06  36832434.236   191796152.778        -247.725          33.000  
C07  37799630.660   196832597.230         998.687          26.000  
C09  37674356.985   196180272.729        -334.289          23.000  
C16  37277862.873                        -191.972          36.000  
C20  25722415.342   133943399.728        2591.835          30.000  
C23  22484740.438   117083947.661       -1944.837          39.000  
C32  22154853.314   115366118.069         867.604          33.000  
C37  22590889.453   117636644.651         694.276          35.000  
G12  23525085.322   123625140.150       -3204.901          18.000                                                                  
G26  22913647.212   120412183.775        3170.761          24.000                                                                  
G31  21167206.548                         280.632          34.000                                                                  
G32  21285891.684                         752.003          41.000    21285898.879    83530428.305         561.443          29.000  
> 2021 11 06 07 30 29.9999286  0 10                     
C06  36832421.345   191796088.497        -248.214          34.000  
C07  37799378.835   196831285.717         999.331          27.000  
C09  37674360.583   196180294.489        -334.237          22.000  
C16  37277840.088   194115494.5411       -192.162          35.000  
C20  25721858.328   133940495.662        2591.299          32.000  
C23  22485051.623   117085579.943       -1944.844          40.000  
C32  22154627.271   115364938.246         867.262          34.000  
C37  22590693.988   117635637.783         695.134          34.000  
G31  21167089.329   111233824.5321        280.772          34.000                                                                  
G32  21285687.525   111857047.7851        751.957          40.000    21285695.320    83529631.913         560.729          31.000  
> 2021 11 06 07 30 30.9999286  0 10                     
C06  36832469.312   191796336.464        -246.980          32.000  
C07  37799186.668   196830286.690         999.258          27.000  
C16  37277876.363   194115687.657        -193.900          35.000  
C20  25721363.371   133937905.011        2589.638          31.000  
C23  22485427.562   117087524.926       -1943.850          39.000  
C32  22154461.485   115364070.880         867.088          32.000  
C37  22590559.681   117634942.734         694.771          30.000  
G23  22571335.789   118613065.3021      -3638.760          17.000                                                                  
G31  21167037.765   111233543.565         280.535          34.000                                                                  
G32  21285545.723   111856296.113         752.227          39.000    21285552.319    83529071.604         560.161          31.000  
> 2021 11 06 07 30 31.9999283  0 13                     
C06  36832425.542   191796115.544        -247.543          32.000  
C07  37798905.462   196828818.674        1000.735          28.000  
C09  37674397.457   196180491.8001       -332.840          21.000  
C16  37277819.103   194115412.332        -193.087          34.000  
C20  25720777.276   133934846.589        2590.029          32.000  
C23  22485709.967   117089001.887       -1946.267          39.000  
C32  22154205.163   115362735.758         866.577          32.000  
C37  22590335.736   117633779.727         694.141          31.000  
G10  20506149.188   107760580.1781      -1882.654          29.000                                                                  
G12  23526764.460   123633974.2911      -3207.579          21.000                                                                  
G23  22571939.571   118616231.360       -3639.204          18.000                                                                  
G26  22911681.473   120401884.6351       3169.584          20.000                                                                  
G32  21285312.485   111855071.940         749.654          42.000    21285319.380    83528157.926         560.145          29.000  
> 2021 11 06 07 30 32.9999281  0 11                     
C06  36832412.352   191796050.592        -246.877          32.000  
C07  37798653.936   196827505.705        1000.613          27.000  
C16  37277798.117   194115293.149        -192.761          35.000  
C20  25720220.562   133931944.044        2590.386          26.000  
C23  22486024.749   117090635.352       -1946.026          39.000  
C32  22153979.419   115361556.482         866.032          29.000  
C37  22590142.969   117632773.412         693.560          30.000  
G23  22572572.733   118619559.178       -3643.204          19.000                                                                  
G26  22911020.431   120398400.441        3168.335          21.000                                                                  
G31  21166779.344   111232196.0431        280.449          29.000                                                                  
G32  21285110.724   111854005.519         752.293          39.000    21285115.521    83527362.241         560.343          30.000  
> 2021 11 06 07 30 33.9999278  0 15                     
C06  36832370.081   191795829.075        -246.989          31.000  
C07  37798371.232   196826037.061         999.503          25.000  
C09  37674373.474   196180375.9641       -332.577          18.000  
C10  38543807.877   200707748.9371        896.865          26.000  
C13                                     -1332.720          26.000  
C16  37277743.855   194115017.894        -193.282          34.000  
C20  25719633.868   133928885.098        2591.358          32.000  
C23  22486310.751   117092113.006       -1945.984          40.000  
C32  22153721.298   115360222.316         865.281          29.000  
C37  22589919.624   117631611.746         692.519          28.000  
G12  23527827.524   123639604.4751      -3211.259          20.000                                                                  
G23  22573176.215   118622728.498       -3640.811          21.000                                                                  
G26  22910328.510   120394760.153        3166.845          21.000                                                                  
G31  21166636.343   111231443.040         280.075          36.000                                                                  
G32  21284878.985   111852781.834         750.001          40.000    21284882.882    83526449.237         560.321          28.000  
> 2021 11 06 07 30 34.9999276  0 12                     
C06  36832358.089   191795764.428        -248.227          30.000  
C09  37674378.870   196180398.135        -334.546          25.000  
C10  38543575.238   200706538.356         898.425          23.000  
C16  37277724.368   194114899.225        -192.401          35.000  
C20  25719074.455   133925980.540        2592.838          28.000  
C23  22486625.833   117093747.796       -1945.739          38.000  
C32  22153494.955   115359045.395         864.337          32.000  
C37  22589726.558   117630608.321         691.040          34.000  
G10  20507014.689                       -1882.559          33.000                                                                  
G26  22909664.469   120391277.479        3168.340          21.000                                                                  
G31  21166519.124   111230848.481         278.640          32.000                                                                  
G32  21284675.126   111851716.418         751.656          38.000    21284679.323    83525651.154         562.384          27.000  
> 2021 11 06 07 30 35.9999273  0 14                     
C06  36832316.118   191795544.881        -248.973          29.000  
C07  37797837.901   196823260.1531        998.415          23.000  
C09  37674353.688   196180264.727        -335.473          29.000  
C16  37277670.706   194114623.494        -192.404          34.000  
C20  25718486.862   133922920.246        2591.240          27.000  
C23  22486910.336   117095226.097       -1949.061          34.000  
C32  22153239.531   115357713.160         863.622          31.000  
C37  22589504.112   117629449.036         690.740          37.000  
G10  20507280.905   107766500.8271      -1885.131          38.000                                                                  
G12  23528899.282   123645241.1611      -3213.791          20.000                                                                  
G23  22574414.658   118629216.1511      -3638.879          20.000                                                                  
G25  21030679.863   110516770.0151      -1790.022          20.000                                                                  
G31  21166374.924   111230097.605         278.385          32.000                                                                  
G32  21284440.688   111850492.760         749.115          32.000    21284446.384    83524736.642         560.551          29.000  
> 2021 11 06 07 30 36.9999270  0 13                     
C06  36832273.548   191795325.378        -249.383          31.000  
C07  37797555.197   196821793.779         998.506          25.000  
C09  37674329.704   196180132.180        -337.030          28.000  
C10  38543050.601   200703807.7191        896.928          19.000  
C16  37277617.343   194114349.275        -192.949          29.000  
C20  25717900.168   133919861.950        2589.053          28.000  
C23  22487193.940   117096705.651       -1948.277          34.000  
C32  22152986.806   115356380.918         863.315          33.000  
C37  22589282.565   117628289.739         691.171          35.000  
G10  20507552.217   107767912.897       -1885.349          36.000    20507557.613    80476022.2731      -1408.271          28.000  
G23  22575016.042   118632384.009       -3641.828          21.000                                                                  
G31  21166233.122   111229346.711         277.290          33.000                                                                  
G32  21284210.748   111849270.743         750.851          32.000    21284214.645    83523823.164         560.542          31.000  
> 2021 11 06 07 30 37.9999268  0 15                     
C06  36832260.357   191795261.882        -247.930          30.000  
C07  37797300.973   196820483.843         998.264          23.000  
C09  37674337.199   196180156.934        -335.873          28.000  
C10  38542820.660   200702599.128         896.276          22.000  
C13                                     -1945.984          19.000  
C16  37277593.359   194114228.753        -190.902          22.000  
C20  25717339.257   133916960.443        2589.263          26.000  
C23  22487505.424   117098343.220       -1948.066          32.000  
C32  22152757.765                         863.521          32.000  
C37  22589090.098   117627285.453         697.150          32.000  
G10  20507858.305   107769483.478       -1886.218          36.000    20507857.106    80477194.828       -1407.544          30.000  
G23  22575651.002   118635710.941       -3643.161          26.000                                                                  
G26  22907615.987   120380511.2611       3169.957          19.000                                                                  
G31  21166121.599   111228753.796         280.367          34.000                                                                  
G32  21284010.786   111848204.853         750.477          29.000    21284012.585    83523027.935         560.824          32.000  
> 2021 11 06 07 30 38.9999265  0 13                     
C06  36832218.686   191795041.629        -248.570          28.000  
C07  37797018.868   196819017.447         997.205          27.000  
C10  38542558.642   200701234.627         895.226          27.000  
C13                                     -1945.984          25.000  
C16  37277539.696   194113951.539        -191.986          29.000  
C20  25716756.160   133913903.598        2588.250          25.000  
C23  22487788.728   117099822.791       -1947.758          33.000  
C32  22152502.941   115353893.1541        862.973          30.000  
C37  22588868.851   117626126.192         689.264          26.000  
G10  20508125.120   107770897.642       -1888.278          38.000    20508126.619    80478251.326       -1410.452          26.000  
G25  21031458.724   110520882.1741      -1792.164          20.000                                                                  
G26  22906929.763   120376871.077        3165.977          19.000                                                                  
G32  21283778.747   111846981.882         749.846          29.000    21283780.545    83522114.521         559.147          31.000  
> 2021 11 06 07 30 39.9999263  0 16                     
C06  36832206.994   191794977.481        -248.192          28.000  
C07  37796767.043   196817708.603         997.796          26.000  
C09  37674319.212   196180049.5431       -336.548          22.000  
C10  38542326.603   200700027.436         894.113          28.000  
C13                                     -1947.758          25.000  
C16  37277516.312   194113831.435        -192.576          29.000  
C20  25716201.244   133911002.949        2589.766          27.000  
C23  22488102.011   117101459.247       -1951.102          36.000  
C32  22152277.497   115352717.416         863.496          34.000  
C37  22588677.284   117625126.346         686.833          25.000  
G10  20508421.615   107772470.342       -1887.628          36.000    20508426.112    80479426.605       -1410.531          29.000  
G12  23531046.695   123656505.1881      -3205.964          20.000                                                                  
G25  21031738.430   110522360.800       -1795.060          24.000                                                                  
G26  22906267.221   120373390.308        3165.055          24.000                                                                  
G31  21165869.773   111227410.8051        276.057          31.000                                                                  
G32  21283576.686   111845917.184         749.267          37.000    21283578.485    83521321.137         558.320          26.000  
> 2021 11 06 07 30 40.9999260  0 16                     
C06  36832164.723   191794757.020        -248.378          27.000  
C07  37796486.437   196816241.690         998.989          26.000  
C10  38542064.884   200698664.282         895.132          28.000  
C13                                     -1947.758          27.000  
C16  37277464.748   194113555.295        -192.093          24.000  
C20  25715616.649   133907945.820        2587.866          26.000  
C23  22488386.514   117102941.306       -1949.970          33.000  
C32  22152022.974   115351386.235         861.824          33.000  
C37  22588455.438   117623970.849         687.501          32.000  
G10  20508685.732   107773885.903       -1889.336          38.000    20508695.026    80480483.391       -1409.920          29.000  
G12  23531564.737   123659239.836       -3207.387          20.000                                                                  
G23  22577501.021   118645378.6921      -3643.314          20.000                                                                  
G25  21031991.755   110523684.750       -1798.118          20.000                                                                  
G26  22905573.501   120369752.192        3165.226          25.000                                                                  
G31  21165722.875   111226662.707         274.305          34.000                                                                  
G32  21283348.245   111844696.021         748.469          33.000    21283345.846    83520408.949         559.715          29.000  
> 2021 11 06 07 30 41.9999258  0 16                     
C06  36832154.230   191794693.350        -248.996          28.000  
C07  37796234.911   196814930.481         998.587          28.000  
C09  37674304.821   196179940.9711       -335.494          22.000  
C10  38541832.844   200697457.546         893.723          29.000  
C13                                     -1949.970          20.000  
C16  37277441.964   194113436.291        -194.331          24.000  
C20  25715059.635   133905045.433        2588.084          21.000  
C23  22488700.696   117104580.665       -1953.162          28.000  
C32  22151801.727   115350213.682         858.457          30.000  
C37  22588263.271   117622971.518         686.801          30.000  
G10  20508982.527   107775460.218       -1888.560          34.000    20508993.619    80481658.776       -1410.489          28.000  
G12  23532115.156   123662132.894       -3207.919          23.000                                                                  
G23  22578135.382   118648706.635       -3642.593          25.000                                                                  
G26  22904911.260   120366272.189        3164.598          29.000                                                                  
G31  21165605.057                         276.081          36.000                                                                  
G32  21283139.889                         746.919          32.000    21283143.486    83519614.407         559.522          31.000  
> 2021 11 06 07 30 42.9999255  0 14                     
C06  36832110.760   191794473.599        -248.854          29.000  
C07  37795951.907   196813464.099         997.570          27.000  
C10  38541570.826   200696094.933         894.248          28.000  
C13                                     -1949.970          24.000  
C16  37277389.800   194113161.806        -193.843          29.000  
C20  25714471.742   133901988.071        2589.208          31.000  
C23  22488987.598   117106065.218       -1951.915          24.000  
C32  22151550.201   115348886.530         859.282          31.000  
C37  22588039.326   117621816.190         686.313          28.000  
G10  20509252.940   107776877.590       -1891.302          34.000                                                                  
G12  23532634.696   123664870.671       -3213.339          23.000                                                                  
G25  21032523.887   110526494.5271      -1798.654          23.000                                                                  
G31  21165464.154   111225257.4001        275.219          33.000                                                                  
G32  21282905.751   111842433.3101        748.060          35.000    21282911.147    83518702.335         557.429          32.000  
> 2021 11 06 07 30 43.9999252  0 17                     
C06  36832068.789   191794254.372        -249.052          29.000  
C07  37795670.702   196811999.729         995.711          26.000  
C09  37674254.157   196179675.9941       -334.486          17.000  
C10  38541309.706   200694731.973         895.140          28.000  
C13                                     -1949.970          22.000  
C16  37277338.236   194112887.288        -194.324          29.000  
C20  25713884.448   133898930.777        2588.407          31.000  
C23  22489271.801   117107548.217       -1951.069          27.000  
C32  22151294.178   115347558.063         860.711          31.000  
C37  22587817.479   117620661.806         685.834          29.000  
G10  20509522.753   107778295.574       -1892.191          34.000                                                                  
G12  23533155.435   123667611.984       -3214.386          23.000                                                                  
G23  22579341.747   118655044.9841      -3641.708          15.000                                                                  
G25  21032774.513   110527820.090       -1798.427          23.000                                                                  
G26  22903531.915   120358998.2281       3163.787          26.000                                                                  
G31  21165326.250   111224510.846         273.661          31.000                                                                  
G32  21282677.009   111841212.743         747.101          35.000    21282679.408                         559.371          31.000  
> 2021 11 06 07 30 44.9999252  0 15                     
C06  36832115.857   191794503.911        -250.493          29.000  
C07  37795479.434   196811002.961         997.541          25.000  
C10  38541137.626   200693836.885         895.216          28.000  
C13                                     -1949.970          20.000  
C16  37277375.110   194113080.474        -190.514          25.000  
C20  25713385.594   133896341.770        2588.720          28.000  
C23  22489644.743   117109498.165       -1949.888          27.000  
C32  22151127.494   115346697.728         860.482          29.000  
C37  22587685.870   117619976.055         685.549          33.000  
G10  20509887.600   107780187.194       -1893.290          34.000                                                                  
G12  23533767.911   123670827.750       -3217.058          24.000                                                                  
G23  22580033.668   118658688.479       -3645.453          16.000                                                                  
G26  22902925.734   120355834.452        3163.687          23.000                                                                  
G31  21165277.383   111224237.459         275.265          34.000                                                                  
G32  21282531.610   111840465.338         746.686          34.000    21282537.006    83517246.5921        558.260          32.000  
> 2021 11 06 07 30 45.9999250  0 17                     
C06  36832102.666   191794442.288        -250.423          28.000  
C07  37795227.908   196809693.244         998.027          28.000  
C09  37674321.310   196180034.5441       -336.546          18.000  
C10  38540905.886   200692630.411         894.392          26.000  
C13                                     -1949.970          23.000  
C16  37277352.326   194112958.968        -191.606          20.000  
C20  25712827.980   133893441.068        2588.625          27.000  
C23  22489960.724   117111136.857       -1951.075          29.000  
C32  22150902.949   115345525.004         859.254          26.000  
C37  22587494.903   117618978.488         684.788          32.000  
G10  20510192.489   107781764.412       -1892.596          40.000                                                                  
G12  23534319.530   123673729.259       -3216.627          23.000                                                                  
G23  22580668.329   118662019.074       -3646.180          17.000                                                                  
G25  21033394.184   110531095.2491      -1791.807          18.000                                                                  
G26  22902264.992   120352356.061        3163.055          27.000                                                                  
G31  21165154.768   111223649.594         275.099          35.000                                                                  
G32  21282329.550   111839402.731         747.279          34.000    21282334.347    83516453.160         555.805          31.000  
> 2021 11 06 07 30 46.9999250  0 13                     
C06  36832148.234   191794692.412        -250.018          25.000  
C07  37795034.242   196808695.713         996.417          28.000  
C09  37674385.166   196180370.580        -336.311          19.000  
C10  38540732.906   200691736.255         893.441          29.000  
C13                                     -1949.970          25.000  
C16  37277389.800   194113151.069        -192.803          26.000  
C20  25712331.523   133890852.561        2588.904          27.000  
C23  22490332.467   117113087.618       -1950.524          29.000  
C32  22150738.663   115344665.789         858.626          30.000  
C37  22587363.893   117618293.121         685.593          31.000  
G10  20510550.741   107783657.919       -1892.967          40.000                                                                  
G26  22901664.208   120349193.240        3162.219          27.000                                                                  
G32  21282182.652   111838655.591         745.256          34.000    21282191.645    83515895.157         557.341          30.000  
> 2021 11 06 07 30 47.9999247  0 14                     
C06  36832108.062   191794472.950        -248.386          30.000  
C07  37794754.236   196807231.272         995.910          28.000  
C09  37674359.084   196180238.190        -335.677          20.000  
C10  38540472.386   200690374.600         893.807          31.000  
C16  37277340.034   194112875.064        -192.236          22.000  
C20  25711741.832   133887795.972        2587.207          23.000  
C23  22490621.767   117114570.487       -1951.902          28.000  
C32  22150480.841   115343339.335         857.557          33.000  
C37  22587142.946   117617139.622         684.206          30.000  
G10  20510815.458   107785079.265       -1894.548          39.000                                                                  
G23  22581975.124   118668840.0511      -3647.104          18.000                                                                  
G25  21033978.779   110534214.2641      -1798.779          18.000                                                                  
G26  22900970.488   120345558.458        3161.493          23.000                                                                  
G32  21281953.011   111837435.932         746.550          32.000    21281959.906    83514984.373         555.701          29.000  
> 2021 11 06 07 30 48.9999245  0 13                     
C06  36832095.171   191794408.320        -247.269          24.000  
C07  37794502.710   196805922.880         995.861          25.000  
C09  37674363.281   196180261.974        -336.678          20.000  
C10  38540240.347   200689167.605         895.339          30.000  
C16  37277318.449   194112756.340        -194.034          22.000  
C20  25711185.417   133884898.601        2585.494          21.000  
C23  22490938.947   117116210.516       -1952.738          30.000  
C32  22150256.596   115342170.125         856.561          34.000  
C37  22586952.278   117616143.991         682.299          26.000  
G10  20511119.747   107786659.166       -1893.386          35.000    20511126.043    80490020.1671      -1418.469          23.000  
G26  22900311.244   120342081.636        3160.378          26.000                                                                  
G31  21164861.571   111222046.9881        272.421          29.000                                                                  
G32  21281756.047   111836374.730         748.641          32.000    21281757.846    83514192.113         558.178          29.000  
> 2021 11 06 07 30 49.9999242  0 14                     
C06  36832053.200   191794186.410        -245.528          23.000  
C07  37794222.104   196804460.547         993.308          26.000  
C09  37674337.199   196180130.160        -336.144          24.000  
C10  38539980.427   200687806.170         891.687          26.000  
C13                                     -1949.970          22.000  
C16  37277265.686   194112482.034        -193.789          30.000  
C20  25710601.121   133881844.145        2586.855          23.000  
C23  22491223.450   117117694.495       -1952.027          32.000  
C32  22150001.473   115340844.960         855.966          32.000  
C37  22586730.732   117614994.119         680.423          28.000  
G10  20511388.961   107788080.838       -1894.399          29.000    20511397.355    80491085.620       -1418.284          27.000  
G26  22899620.822   120338449.937        3157.615          24.000                                                                  
G31  21164720.069   111221302.531         270.863          27.000                                                                  
G32  21281523.708   111835153.430         748.811          30.000    21281524.307    83513279.264         560.305          24.000  
> 2021 11 06 07 30 50.9999240  0 16                     
C06  36832040.909   191794117.931        -242.730          29.000  
C07  37793971.778   196803156.262         990.349          24.000  
C09  37674341.096   196180153.177        -332.406          24.000  
C10  38539750.186   200686605.509         885.245          29.000  
C13                                     -1949.970          22.000  
C16  37277240.803   194112360.508        -186.696          30.000  
C20  25710042.908   133878942.983        2590.255          25.000  
C23  22491537.333   117119332.566       -1949.028          34.000  
C32  22149776.329   115339675.042         858.881          30.000  
C37  22586539.764   117614002.521         677.370          33.000  
G10  20511688.454   107789663.317       -1899.258          35.000    20511698.047    80492268.381       -1420.362          30.000  
G23  22583838.634   118678679.5601      -3646.757          20.000                                                                  
G25  21034789.418   110538510.5221      -1800.339          17.000                                                                  
G26  22898960.080   120334980.366        3150.881          30.000                                                                  
G31  21164608.247   111220717.409         269.377          31.000                                                                  
G32  21281321.048   111834087.185         753.467          34.000    21281318.949    83512481.091         563.673          26.000  
> 2021 11 06 07 30 51.9999237  0 15                     
C06  36831996.839   191793890.096        -238.798          30.000  
C07  37793692.371   196801699.095         987.775          21.000  
C09  37674313.815   196180015.973        -330.642          23.000  
C10  38539491.465   200685256.447         877.885          29.000  
C13                                     -1949.970          24.000  
C16  37277186.241   194112077.318        -183.220          32.000  
C20  25709455.015   133875881.272        2595.233          25.000  
C23  22491822.136   117120810.843       -1944.720          34.000  
C32  22149521.206   115338346.847         860.520          33.000  
C37  22586320.316   117612857.856         675.408          34.000  
G10  20511961.864   107791092.822       -1901.923          36.000    20511970.558    80493337.075       -1422.630          32.000  
G23  22584441.516   118681853.474       -3646.737          23.000                                                                  
G26  22898270.857   120331360.539        3144.790          30.000                                                                  
G31  21164466.145   111219975.698         268.892          29.000                                                                  
G32  21281081.214   111832859.340         753.042          36.000    21281085.411    83511563.742         565.108          28.000  
> 2021 11 06 07 30 52.9999235  0 15                     
C06  36831982.449   191793816.049        -237.862          29.000  
C09  37674315.614   196180033.446        -329.485          25.000  
C10  38539263.923   200684067.582         875.965          31.000  
C13                                     -1949.970          23.000  
C16  37277161.658   194111947.399        -180.694          32.000  
C20  25708894.703   133872970.948        2600.699          29.000  
C23  22492134.819   117122444.373       -1945.745          34.000  
C32  22149295.462   115337173.740         862.836          34.000  
C37  22586130.547   117611869.933         674.844          32.000  
G10  20512268.252                       -1904.244          36.000    20512273.648    80494524.737       -1422.757          32.000  
G23  22585074.079   118685185.134       -3645.537          23.000                                                                  
G25  21035325.747   110541321.6251      -1799.452          24.000                                                                  
G26  22897612.513   120327901.872        3143.540          28.000                                                                  
G31  21164356.121   111219392.670         268.055          27.000                                                                  
G32  21280878.255   111831789.074         756.757          34.000    21280882.751    83510763.067         564.643          30.000  
