     3.03           OBSERVATION DATA    M: Mixed            RINEX VERSION / TYPE
Geo++ RINEX Logger  Geo++               20211106 072421 UTC PGM / RUN BY / DATE
************************************************************COMMENT
This file was generated by the Geo++ RINEX Logger App       COMMENT
for Android devices (Version 2.1.6). If you encounter       COMMENT
any issues, please send an email to android@geopp.de        COMMENT
Filtering Mode: BEST                                        COMMENT
************************************************************COMMENT
Bad agent 1                                                 MARKER NAME
HUMAN                                                       MARKER TYPE
Yihan Zhong         PolyU IPNL                              OBSERVER / AGENCY
unknown             HUAWEI              ELS-AN00            REC # / TYPE / VERS
unknown             ELS-AN00                                ANT # / TYPE
 -2418075.1582  5385908.4939  2405633.2510                  APPROX POSITION XYZ
        0.0000        0.0000        0.0000                  ANTENNA: DELTA H/E/N
G    8 C1C L1C D1C S1C C5Q L5Q D5Q S5Q                      SYS / # / OBS TYPES
R    4 C1C L1C D1C S1C                                      SYS / # / OBS TYPES
E   12 C1B L1B D1B S1B C1C L1C D1C S1C C5Q L5Q D5Q S5Q      SYS / # / OBS TYPES
C    4 C2I L2I D2I S2I                                      SYS / # / OBS TYPES
J    8 C1C L1C D1C S1C C5Q L5Q D5Q S5Q                      SYS / # / OBS TYPES
  2021    11     6     7    24   39.9999962     GPS         TIME OF FIRST OBS
 24 R01  1 R02 -4 R03  5 R04  6 R05  1 R06 -4 R07  5 R08  6 GLONASS SLOT / FRQ #
    R09 -2 R10 -5 R11  0 R12 -1 R13 -2 R14 -7 R15  0 R16 -1 GLONASS SLOT / FRQ #
    R17  4 R18 -3 R19  3 R20  2 R21  4 R22 -3 R23  3 R24  2 GLONASS SLOT / FRQ #
G L1C                                                       SYS / PHASE SHIFT
G L5Q -0.25000                                              SYS / PHASE SHIFT
R L1C                                                       SYS / PHASE SHIFT
E L1B                                                       SYS / PHASE SHIFT
E L1C +0.50000                                              SYS / PHASE SHIFT
E L5Q -0.25000                                              SYS / PHASE SHIFT
C L2I                                                       SYS / PHASE SHIFT
J L1C                                                       SYS / PHASE SHIFT
J L5Q -0.25000                                              SYS / PHASE SHIFT
 C1C    0.000 C1P    0.000 C2C    0.000 C2P    0.000        GLONASS COD/PHS/BIS
                                                            END OF HEADER
> 2021 11  6  7 24 39.9999962  3  1
Bad agent 1                                                 MARKER NAME
> 2021 11  6  7 24 39.9999962  0  9
C09  37674061.690   196178725.1711       -252.542          32.000  
C20  25919439.845   134969324.2571       2709.224          27.000  
C23  22381085.097   116544182.3261      -1726.125          31.000  
C32  22240616.741   115812727.1261       1114.027          28.000  
C37  22665433.747   118024860.7781        951.002          35.000  
G10  20410905.724   107260032.7801      -1544.334          36.000  
G31  21213508.594   111477739.9691        530.150          39.000  
R01  19805187.954   105870079.9501       1477.664          21.000  
R12  19958225.108   106613255.9561       1664.764          35.000  
> 2021 11  6  7 24 40.9999959  0 11
C06  36837967.806   191824964.7861       -166.486          20.000  
C09  37674019.119   196178509.749        -253.560          33.000  
C20  25918829.468   134966147.009        2708.230          31.000  
C23  22381325.531   116545440.154       -1727.131          33.000  
C32  22240314.251   115811146.038        1110.917          30.000  
C37  22665163.334   118023441.090         952.889          31.000  
G10  20411110.482   107261104.076       -1541.834          34.000  
G31  21213314.928   111476737.655         532.554          41.000  
G32  21360163.167   112248414.9051        908.441          21.000  
R01  19804822.806   105868127.767        1474.685          20.000  
R12  19957826.684   106611127.770        1663.264          34.000  
> 2021 11  6  7 24 41.9999956  0 12
C06  36837909.646   191824662.536        -166.057          31.000  
C09  37673975.050   196178295.375        -253.863          26.000  
C20  25918220.589   134962970.507        2707.885          27.000  
C23  22381567.163   116546699.338       -1727.533          29.000  
C32  22240012.060   115809566.976        1110.012          28.000  
C37  22664891.422   118022021.995         950.043          28.000  
G10  20411323.635   107262176.829       -1546.127          31.000  
G23  22356255.087   117482912.6681      -3420.218          20.000  
G31  21213128.457   111475736.234         529.218          37.000  
G32  21359902.947   112247034.157         907.513          28.000  
R01  19804456.760   105866170.780        1472.858          28.000  
R12  19957429.459   106609005.531        1661.752          31.000  
> 2021 11  6  7 24 42.9999956  0  9
C06  36837942.323   191824828.078        -165.339          33.000  
C09  37674022.417   196178548.403        -254.221          26.000  
C20  25917702.848   134960263.113        2706.893          32.000  
C23  22381897.535   116548426.751       -1727.804          36.000  
C32  22239798.308   115808457.084        1110.002          26.000  
C37  22664708.549   118021072.327         948.694          28.000  
G31  21213027.726   111475208.526         527.441          31.000  
R01  19804179.152   105864686.875        1473.081          33.000  
R12  19957119.174   106607348.369        1660.670          30.000  
> 2021 11  6  7 24 43.9999954  0 12
C06  36837915.342   191824681.146        -165.898          33.000  
C09  37674010.126   196178490.329        -254.346          23.000  
C20  25917124.548   134957244.730        2706.049          29.000  
C23  22382170.646   116549842.577       -1729.387          36.000  
C32  22239527.296   115807036.140        1107.028          27.000  
C37  22664466.916   118019811.648         948.209          30.000  
G10  20411874.054   107264956.2911      -1549.820          33.000  
G23  22357494.429   117489437.2421      -3419.504          25.000  
G26  23146886.044   121637706.8701       3350.110          28.000  
G31  21212866.438   111474366.721         524.611          32.000  
R01  19803841.886   105862884.318        1473.203          33.000  
R12  19956746.232   106605356.231        1659.200          30.000  
> 2021 11  6  7 24 44.9999954  0 12
C06  36837946.520   191824846.295        -165.660          32.000  
C09  37674060.790   196178744.141        -254.467          22.000  
C20  25916605.607   134954539.075        2704.135          31.000  
C23  22382500.717   116551571.631       -1729.629          36.000  
C32  22239315.043   115805929.177        1106.984          28.000  
C37  22664285.242   118018863.699         947.081          30.000  
G23  22358144.379   117492856.306       -3419.117          24.000  
G26  23146249.285   121634358.446        3348.038          26.000  
G31  21212769.305                         523.160          32.000  
G32  21359337.838   112244001.0971        908.761          36.000  
R01  19803566.676   105861412.682        1471.538          32.000  
R12  19956435.947   106603698.496        1657.435          30.000  
> 2021 11  6  7 24 45.9999951  0 10
C06  36837888.960   191824543.698        -165.233          26.000  
C09  37674017.920   196178531.619        -255.749          25.000  
C20  25915996.729   134951366.806        2704.438          29.000  
C23  22382742.350   116552833.120       -1730.461          33.000  
C32  22239012.552   115804354.202        1106.560          34.000  
C37  22664013.630   118017448.668         946.113          30.000  
G26  23145519.590   121630536.680        3349.221          27.000  
G31  21212572.042   111472845.4171        525.534          32.000  
R01  19803198.831   105859446.690        1471.326          30.000  
R12  19956036.024   106601562.043        1656.209          30.000  
> 2021 11  6  7 24 46.9999949  0 10
C06  36837862.279   191824395.845        -164.551          19.000  
C09  37674005.629   196178475.312        -255.924          29.000  
C20  25915417.530   134948349.747        2705.580          29.000  
C23  22383019.058   116554252.295       -1731.849          35.000  
C32  22238740.340   115802935.984        1105.355          32.000  
C37  22663772.297   118016191.173         945.539          29.000  
G31  21212408.655                         522.057          34.000  
G32  21358839.283   112241407.7621        902.480          31.000  
R01  19802866.661   105857670.823        1468.639          29.000  
R12  19955664.281   106599576.101        1656.672          30.000  
> 2021 11  6  7 24 47.9999949  0  9
C06  36837892.857   191824560.877        -165.746          27.000  
C09  37674052.696   196178731.368        -256.711          24.000  
C20  25914896.191   134945644.914        2704.379          29.000  
C23  22383350.029   116555984.198       -1732.024          36.000  
C32  22238524.190   115801829.275        1107.253          30.000  
C37  22663591.822   118015246.081         944.776          27.000  
G23  22359937.737   117502328.8501      -3420.990          25.000  
G26  23144180.118   121623524.3611       3347.437          30.000  
R01  19802595.948   105856223.688        1466.985          30.000  
> 2021 11  6  7 24 48.9999949  0 13
C06  36837923.736   191824727.250        -166.322          24.000  
C09  37674101.262   196178988.184        -257.305          21.000  
C20  25914377.250   134942940.053        2705.204          25.000  
C23  22383681.600   116557716.487       -1732.032          28.000  
C32  22238313.736   115800723.896        1103.682          23.000  
C37  22663409.548   118014302.575         941.561          29.000  
G10  20413169.157   107271920.4251      -1554.652          29.000  
G23  22360586.488   117505749.335       -3421.375          23.000  
G26  23143543.059   121620178.372        3343.037          24.000  
G31  21212211.691   111470912.9021        521.653          26.000  
G32  21358491.824   112239602.7591        902.470          29.000  
R01  19802322.537   105854762.127        1467.748          25.000  
R12  19955056.302   106596328.7921       1654.202          24.000  
> 2021 11  6  7 24 49.9999946  0 12
C06  36837864.977   191824424.698        -166.268          25.000  
C20  25913768.971   134939767.210        2704.391          25.000  
C23  22383925.631   116558980.908       -1732.875          25.000  
C32  22238012.444   115799152.053        1102.811          28.000  
C37  22663137.336   118012893.128         940.497          26.000  
G10  20413374.515   107273003.716       -1557.170          32.000  
G23  22361144.702   117508698.344       -3421.676          27.000  
G26  23142817.561   121616364.212        3341.024          24.000  
G31  21212024.321   111469920.172         519.762          26.000  
G32  21358229.805   112238227.145         903.234          29.000  
R01  19801965.485   105852853.881        1464.655          23.000  
R12  19954658.178   106594202.248        1651.133          17.000  
> 2021 11  6  7 24 50.9999946  0 12
C06  36837897.055   191824592.574        -169.304          28.000  
C09  37674108.757   196179031.4401       -257.284          24.000  
C20  25913248.831   134937063.548        2702.602          23.000  
C23  22384258.101   116560714.722       -1735.285          27.000  
C32  22237801.990   115798048.923        1102.665          21.000  
C37  22662957.161   118011952.670         940.121          25.000  
G10  20413669.211   107274561.101       -1558.151          30.000  
G23  22361793.752   117512121.012       -3423.681          24.000  
G31  21211925.689   111469400.870         519.558          29.000  
G32  21358059.223   112237325.695         900.221          32.000  
R01  19801691.474   105851388.735        1463.808          26.000  
R12  19954343.995   106592523.811        1649.738          24.000  
> 2021 11  6  7 24 51.9999944  0 12
C06  36837869.773   191824449.758        -169.685          29.000  
C09  37674100.363   196178975.943        -256.706          24.000  
C161792225203.021                        -152.675          30.000  
C20  25912668.433   134934046.807        2704.511          21.000  
C23  22384533.310   116562138.539       -1737.294          29.000  
C32  22237530.678   115796634.455        1101.592          23.000  
C37  22662715.828   118010700.803         939.397          25.000  
G10  20413902.449   107275804.390       -1559.092          26.000  
G31  21211767.699   111468566.427         519.092          31.000  
G32  21357828.983   112236110.650         899.375          39.000  
R01  19801353.308   105849581.208        1464.063          28.000  
R12  19953971.953   106590535.763        1648.205          21.000  
> 2021 11  6  7 24 52.9999941  0 12
C06  36837811.913   191824152.039        -172.058          25.000  
C161792225113.083                        -152.675          26.000  
C20  25912059.554   134930875.208        2700.952          25.000  
C23  22384776.742   116563408.213       -1738.408          28.000  
C32  22237230.286   115795065.979        1098.004          23.000  
C37  22662443.617   118009293.675         938.023          22.000  
G10  20414106.608   107276891.448       -1559.348          23.000  
G26  23140766.081   121605552.1331       3343.386          18.000  
G31  21211578.230   111467575.511         518.269          35.000  
G32  21357565.165   112234739.112         901.041          37.000  
R01  19800988.461   105847630.886        1463.222          23.000  
R12  19953574.428   106588412.597        1647.495          20.000  
> 2021 11  6  7 24 53.9999941  0 12
C06  36837846.390   191824323.601        -171.805          24.000  
C161792225113.083                        -152.675          27.000  
C20  25911541.513   134928174.612        2700.498          25.000  
C23  22385112.209   116565147.127       -1739.065          29.000  
C32  22237021.330   115793967.333        1098.176          25.000  
C37  22662262.242   118008355.167         938.538          21.000  
G10  20414401.004   107278449.976       -1558.465          24.000  
G23  22363603.599   117521610.3051      -3428.178          18.000  
G31  21211479.598   111467057.903         516.653          29.000  
G32  21357395.483   112233839.994         898.381          33.000  
R01  19800717.748   105846183.521        1461.903          25.000  
R12  19953267.440   106586772.663        1646.458          19.000  
> 2021 11  6  7 24 54.9999939  0 11
C06  36837818.809   191824182.771        -172.059          25.000  
C09  37674096.166   196178971.6301       -261.680          20.000  
C16  37286707.350                        -116.361          24.000  
C20  25910962.314   134925161.981        2700.407          30.000  
C23  22385386.519   116566574.052       -1739.217          34.000  
C32  22236751.817   115792557.602        1097.276          27.000  
C37  22662022.109   118007105.611         935.872          24.000  
G23  22364200.786   117524726.352       -3435.006          16.000  
G31  21211322.807   111466226.438         515.741          35.000  
R01  19800385.578   105844408.451        1461.438          29.000  
R12  19952894.199   106584778.621        1646.454          19.000  
> 2021 11  6  7 24 55.9999939  0 12
C06  36837852.685   191824354.591        -171.292          24.000  
C20  25910443.973   134922462.033        2699.767          29.000  
C23  22385719.289   116568313.072       -1738.468          32.000  
C32  22236542.262   115791460.734        1096.687          27.000  
C37  22661843.132   118006169.179         936.502          23.000  
G10  20414932.536   107281257.9371      -1562.655          26.000  
G23  22364853.734   117528161.216       -3435.278          15.000  
G26  23138801.841   121595206.1321       3341.106          20.000  
G31  21211225.674   111465711.000         515.612          35.000  
G32  21356996.159   112231728.2351        898.295          31.000  
R01  19800112.168   105842946.309        1458.962          26.000  
R12  19952578.218   106583091.469        1644.308          19.000  
> 2021 11  6  7 24 56.9999936  0 13
C06  36837796.624   191824057.113        -170.489          25.000  
C09  37674108.457   196179027.2991       -262.329          26.000  
C16  37286667.177   194161318.2541       -117.702          22.000  
C20  25909836.893   134919294.541        2698.189          29.000  
C23  22385962.720                       -1743.004          31.000  
C32  22236241.270   115789895.133        1096.879          28.000  
C37  22661574.219   118004764.805         935.176          29.000  
G23  22365416.744   117531119.907       -3430.490          13.000  
G26  23138078.142   121591392.777        3340.568          21.000  
G31  21211042.201                         514.839          35.000  
G32  21356736.839   112230358.120         896.683          28.000  
R01  19799748.220   105841000.843        1458.130          26.000  
R12  19952177.695   106580951.463        1642.204          25.000  
> 2021 11  6  7 24 57.9999933  0 13
C06  36837742.062   191823759.269        -169.766          26.000  
C09  37674071.283   196178820.400        -261.163          28.000  
C16  37286600.923   194160967.705        -118.430          27.000  
C20  25909228.914   134916127.728        2698.339          25.000  
C23  22386207.951                       -1738.589          34.000  
C32  22235940.878   115788329.879        1096.281          27.000  
C37  22661304.405   118003361.025         934.914          33.000  
G10  20415351.946   107283442.1521      -1566.926          25.000  
G26  23137354.443   121587579.913        3340.066          27.000  
G31  21210854.231   111463791.9861        515.376          36.000  
G32  21356475.420   112228989.133         895.627          31.000  
R01  19799383.072   105839048.830        1459.489          30.000  
R12  19951775.074   106578800.820        1641.157          28.000  
> 2021 11  6  7 24 58.9999933  0 13
C06  36837775.938   191823929.452        -170.143          25.000  
C09  37674121.648   196179081.949        -261.462          28.000  
C16  37286623.708   194161086.716        -119.620          27.000  
C20  25908710.273   134913428.683        2699.577          30.000  
C23  22386540.421   116572595.0721      -1740.733          33.000  
C32  22235731.024   115787233.706        1094.689          29.000  
C37  22661126.029   118002426.600         933.606          32.000  
G10  20415650.539   107285009.695       -1569.391          28.000  
G26  23136720.082   121584240.217        3338.954          25.000  
G31  21210753.801   111463281.718         509.201          36.000  
G32  21356302.739   112228093.301         895.565          28.000  
R01  19799110.861   105837593.675        1458.103          28.000  
R12  19951466.887   106577154.126        1639.357          28.000  
> 2021 11  6  7 24 59.9999931  0 10
C06  36837748.957   191823788.570        -172.492          25.000  
C09  37674113.254   196179030.952        -261.305          29.000  
C16  37286588.032   194160894.242        -119.884          25.000  
C23  22386815.630   116574024.677       -1744.302          32.000  
C32  22235461.211   115785827.357        1093.062          30.000  
C37  22660893.990   118001181.331         933.113          32.000  
G31  21210594.311   111462456.532         509.799          34.000  
G32  21356068.601   112226883.016         894.550          26.000  
R01  19798775.993   105835804.354        1456.156          30.000  
R12  19951102.039   106575205.046        1637.358          25.000  
> 2021 11  6  7 25  0.9999928  0 12
C06  36837694.095   191823494.443        -174.288          25.000  
C09  37674074.281   196178823.820        -261.460          29.000  
C16  37286522.078   194160545.085        -118.515          25.000  
C20  25907520.996   134907251.8881       2696.924          19.000  
C23  22387064.758   116575300.012       -1744.294          34.000  
C32  22235161.418   115784266.594        1092.068          29.000  
C37  22660622.078                         928.584          33.000  
G10  20416097.530   107287358.0331      -1567.179          20.000  
G31  21210409.039                         507.825          36.000  
G32  21355807.482   112225516.289         893.801          26.000  
R01  19798410.546   105833850.638        1454.855          29.000  
R12  19950706.014   106573089.863        1637.949          28.000  
> 2021 11  6  7 25  1.9999928  0 12
C06  36837726.772   191823667.152        -172.654          25.000  
C09  37674124.946   196179085.873        -262.911          30.000  
C16  37286545.162   194160664.852        -119.857          27.000  
C20  25907003.255   134904554.800        2697.261          30.000  
C23  22387398.726   116577043.604       -1743.783          35.000  
C32  22234950.364   115783175.165        1091.276          27.000  
C37  22660442.202   117998874.2981        930.330          34.000  
G10  20416394.324   107288926.761       -1569.605          24.000  
G31  21210314.605   111460940.2841        508.806          37.000  
G32  21355634.802   112224622.801         893.637          28.000  
R01  19798139.533   105832401.280        1453.062          30.000  
R12  19950402.024   106571465.820        1635.928          29.000  
> 2021 11  6  7 25  2.9999926  0 13
C06  36837700.091   191823528.284        -173.703          26.000  
C09  37674116.552   196179036.774        -262.651          31.000  
C16  37286508.887   194160472.692        -120.326          29.000  
C20  25906426.154   134901546.217        2696.131          32.000  
C23  22387673.336   116578475.233       -1744.536          31.000  
C32  22234680.251   115781772.250        1090.690          29.000  
C37  22660205.066   117997632.174         928.142          34.000  
G10  20416633.858   107290181.914       -1570.266          30.000  
G26  23133961.991   121569782.4801       3335.842          25.000  
G31  21210150.918   111460116.563         512.118          34.000  
G32  21355405.161   112223414.546         892.476          28.000  
R01  19797804.665   105830612.066        1453.321          29.000  
R12  19950039.275   106569528.633        1634.297          30.000  
> 2021 11  6  7 25  3.9999923  0 12
C06  36837644.329   191823233.630        -173.473          23.000  
C09  37674077.579   196178831.158        -263.282          25.000  
C16  37286442.333   194160125.003        -121.022          27.000  
C20  25905819.075   134898381.901        2695.911          26.000  
C23  22387917.967   116579751.894       -1746.424          34.000  
C32  22234381.958   115780213.819        1089.771          29.000  
C37  22659940.050   117996235.658         928.309          24.000  
G10  20416842.214   107291280.368       -1571.081          27.000  
G26  23133237.393   121565974.844        3334.811          26.000  
G31  21209962.049   111459135.885         507.876          34.000  
R01  19797442.516   105828675.226        1452.387          27.000  
R12  19949654.941   106567474.923        1632.446          25.000  
> 2021 11  6  7 25  4.9999923  0 12
C06  36837677.606   191823407.836        -175.105          26.000  
C09  37674127.944   196179093.822        -262.889          30.000  
C16  37286466.317   194160246.004        -121.102          29.000  
C20  25905301.933   134895686.754        2694.370          27.000  
C23  22388255.833   116581498.335       -1746.708          31.000  
C32  22234173.302   115779124.961        1088.130          28.000  
C37  22659762.573   117995307.276         928.103          34.000  
G10  20417139.908   107292852.476       -1572.465          30.000  
G26  23132600.934   121562640.202        3334.220          27.000  
G31  21209865.516   111458627.831         507.429          32.000  
R01  19797161.910   105827175.594        1449.890          30.000  
R12  19949340.459   106565795.053        1631.978          30.000  
> 2021 11  6  7 25  5.9999921  0 11
C06  36837652.124   191823271.729        -176.221          26.000  
C09  37674118.051   196179045.020        -264.293          26.000  
C16  37286428.842   194160055.019        -121.420          27.000  
C20  25904723.633   134892680.469        2693.810          27.000  
C23  22388530.743   116582933.472       -1747.742          34.000  
C32  22233904.388   115777724.743        1088.034          32.000  
C37  22659523.938   117994067.161         927.114          31.000  
G26  23131906.614   121558991.918        3333.624          19.000  
G32  21354751.014   112219955.4801        889.821          31.000  
R01  19796832.138   105825413.149        1450.516          27.000  
R12  19948974.712   106563841.590        1629.350          28.000  
> 2021 11  6  7 25  6.9999918  0 11
C06  36837595.763   191822979.294        -176.021          22.000  
C09  37674078.478   196178841.934        -264.467          23.000  
C16  37286363.488   194159708.376        -122.278          29.000  
C20  25904117.453   134889518.059        2693.885          26.000  
C23  22388775.973   116584213.068       -1748.637          27.000  
C32  22233604.296   115776169.056        1086.550          27.000  
C37  22659255.924   117992673.390         925.553          29.000  
G31  21209527.350   111456828.3451        503.841          33.000  
G32  21354491.393   112218592.924         889.826          31.000  
R01  19796468.190   105823467.256        1449.857          26.000  
R12  19948579.886   106561732.530        1627.753          25.000  
> 2021 11  6  7 25  7.9999918  0 10
C09  37674132.741   196179107.004        -264.602          22.000  
C16  37286389.270   194159831.720        -123.883          26.000  
C20  25903600.311   134886824.265        2692.728          23.000  
C23  22389111.740   116585962.497       -1750.041          30.000  
C32  22233395.041   115775082.374        1086.456          26.000  
C37  22659076.648   117991748.712         924.491          30.000  
G31  21209434.714   111456324.445         502.051          32.000  
G32  21354321.711   112217702.982         889.792          34.000  
R01  19796193.880   105822001.206        1446.534          26.000  
R12  19948272.298   106560089.430        1627.132          28.000  
> 2021 11  6  7 25  8.9999916  0 13
C06  36837597.862   191823022.9191       -177.042          23.000  
C09  37674122.847   196179059.460        -265.113          23.000  
C16  37286352.695   194159643.245        -123.448          24.000  
C20  25903024.110   134883819.021        2692.186          29.000  
C23  22389387.550   116587401.107       -1751.524          30.000  
C32  22233125.827   115773684.444        1084.774          28.000  
C37  22658838.612   117990512.444         923.279          29.000  
G10  20418140.615   107298058.2991      -1579.692          28.000  
G26  23129851.237   121548200.6831       3332.172          18.000  
G31  21209279.721   111455506.287         502.869          34.000  
G32  21354093.269   112216498.368         889.836          31.000  
R01  19795860.811   105820220.722        1445.665          24.000  
R12  19947910.149   106558155.383        1626.440          27.000  
> 2021 11  6  7 25  9.9999913  0 12
C06  36837539.702   191822732.128        -178.101          22.000  
C09  37674085.074   196178856.041        -263.576          21.000  
C16  37286286.741   194159298.724        -123.792          30.000  
C20  25902418.229   134880658.335        2692.042          27.000  
C23  22389632.780   116588684.457       -1751.880          31.000  
C32  22232826.934   115772132.058        1082.965          32.000  
C37  22658572.097   117989121.517         921.923          31.000  
G10  20418352.269   107299165.852       -1580.545          26.000  
G31  21209096.848   111454531.272         501.844          34.000  
G32  21353836.347   112215136.778         888.373          30.000  
R01  19795501.659   105818300.725        1445.491          27.000  
R12  19947517.421   106556057.498        1626.575          26.000  
> 2021 11  6  7 25 10.9999913  0 11
C06  36837575.077   191822909.820        -176.056          21.000  
C16  37286309.225   194159421.980        -122.883          31.000  
C20  25901900.188   134877966.153        2692.119          27.000  
C23  22389969.746   116590436.790       -1753.336          34.000  
C32  22232618.279   115771048.907        1083.394          33.000  
C37  22658396.718   117988199.585         922.059          30.000  
G10  20418652.061   107300747.308       -1581.913          28.000  
G31  21209003.612                         498.818          36.000  
G32  21353670.561   112214249.013         887.404          37.000  
R01  19795229.748   105816847.405        1444.349          29.000  
R12  19947217.629   106554455.594        1624.441          24.000  
> 2021 11  6  7 25 11.9999913  0 12
C09  37674189.701   196179384.8641       -266.120          17.000  
C16  37286333.508   194159545.267        -123.351          29.000  
C20  25901383.046   134875274.353        2692.008          26.000  
C23  22390307.013                       -1753.019          36.000  
C32  22232409.024   115769965.745        1083.491          33.000  
C37  22658220.141   117987277.625         921.161          31.000  
G10  20418953.353   107302329.447       -1582.228          27.000  
G26  23127866.611   121537743.8191       3325.753          21.000  
G31  21208906.180   111453565.0791        501.568          37.000  
G32  21353505.376   112213361.677         887.021          34.000  
R01  19794963.832   105815425.244        1443.929          31.000  
R12  19946912.140   106552823.494        1623.843          23.000  
> 2021 11  6  7 25 12.9999910  0 10
C16  37286269.353   194159200.932        -124.907          26.000  
C20  25900775.966   134872114.105        2691.274          29.000  
C23  22390555.241   116593489.0201      -1754.093          36.000  
C32  22232111.629   115768414.281        1082.651          32.000  
C37  22657953.925   117985888.441         919.860          31.000  
G26  23127142.912   121533944.321        3327.578          22.000  
G31  21208720.908   111452593.117         498.750          36.000  
G32  21353243.057   112212002.236         885.412          33.000  
R01  19794606.479   105813515.718        1444.008          30.000  
R12  19946514.016   106550697.028        1621.689          24.000  
> 2021 11  6  7 25 13.9999910  0 12
C06  36837591.866   191822979.6911       -184.271          16.000  
C16  37286293.336   194159326.527        -126.627          28.000  
C20  25900259.424   134869422.359        2692.421          29.000  
C23  22390891.908   116595244.101       -1754.232          35.000  
C32  22231901.775   115767331.902        1081.483          31.000  
C37  22657777.047   117984968.504         919.611          28.000  
G12  23358004.690                       -2970.315          25.000  
G26  23126510.650   121530617.577        3326.099          23.000  
G31  21208626.473   111452095.213         497.742          35.000  
G32  21353073.974                         885.456          33.000  
R01  19794339.664   105812089.478        1442.123          31.000  
R12  19946210.926   106549078.091        1619.070          26.000  
> 2021 11  6  7 25 14.9999908  0 14
C06  36837566.683   191822850.431        -181.764          17.000  
C09  37674196.596   196179414.0151       -274.846          18.000  
C16  37286257.961   194159141.327        -127.295          29.000  
C20  25899683.522   134866417.979        2691.168          25.000  
C23  22391168.317   116596687.798       -1755.923          35.000  
C32  22231634.060                        1079.783          32.000  
C37  22657539.912   117983737.858         917.714          29.000  
G10  20419702.534   107306288.9061      -1583.649          23.000  
G12  23358508.041                       -2972.435          27.000  
G26  23125819.328   121526977.072        3324.739          24.000  
G31  21208469.682   111451283.437         495.941          36.000  
G32  21352848.830   112209961.0511        883.558          34.000  
R01  19794011.391   105810334.452        1440.631          32.000  
R12  19945848.177   106547140.692        1615.130          20.000  
> 2021 11  6  7 25 15.9999905  0 12
C16  37286191.707   194158800.145        -127.441          32.000  
C20  25899076.742   134863260.156        2688.869          27.000  
C23  22391414.147   116597975.796       -1757.187          35.000  
C32  22231332.469   115764404.1021       1079.081          32.000  
C37  22657273.396   117982351.721         918.500          29.000  
G10  20419912.988   107307400.637       -1585.920          27.000  
G12  23358984.711   122752288.5411      -2973.854          27.000  
G26  23125100.426   121523180.206        3324.520          22.000  
G31  21208282.312   111450314.166         496.062          35.000  
G32  21352589.510   112208604.382         883.426          37.000  
R01  19793655.537   105808432.070        1439.192          32.000  
R12  19945449.752   106545011.639        1615.139          21.000  
> 2021 11  6  7 25 16.9999905  0 12
C16  37286215.690   194158927.017        -126.293          29.000  
C20  25898558.101   134860571.893        2688.914          24.000  
C23  22391751.713   116599732.619       -1757.821          35.000  
C32  22231127.411   115763325.130        1078.791          32.000  
C37  22657096.818   117981433.443         918.073          29.000  
G10  20420214.280   107308986.736       -1586.677          23.000  
G12  23359550.720   122755262.470       -2974.447          26.000  
G26  23124466.965   121519855.197        3325.085          22.000  
G31  21208190.275   111449818.308         495.539          35.000  
G32  21352420.427   112207720.579         883.690          36.000  
R01  19793386.324   105806992.674        1438.085          32.000  
R12  19945146.962   106543395.018        1617.213          22.000  
> 2021 11  6  7 25 17.9999903  0 12
C16  37286179.715   194158741.879        -126.452          29.000  
C20  25897981.001   134857570.907        2687.195          26.000  
C23  22392031.719   116601178.671       -1758.249          36.000  
C32  22230865.692   115761935.420        1077.095          32.000  
C37  22656860.282   117980203.944         916.280          28.000  
G10  20420457.711   107310260.235       -1590.445          27.000  
G12  23360058.268   122757921.981       -2974.633          26.000  
G26  23123774.444   121516215.831        3323.166          24.000  
G31  21208037.681   111449008.818         493.296          35.000  
G32  21352195.882   112206522.959         882.020          36.000  
R01  19793058.950   105805242.994        1436.364          32.000  
R12  19944785.712   106541465.303        1619.254          20.000  
> 2021 11  6  7 25 18.9999900  0 11
C16  37286114.060   194158400.015        -127.803          29.000  
C23  22392279.947   116602470.064       -1761.678          35.000  
C32  22230568.598   115760391.182        1074.320          33.000  
C37  22656594.966   117978819.735         915.100          27.000  
G10  20420674.161   107311378.660       -1591.865          26.000  
G12  23360535.838   122760425.261       -2976.566          24.000  
G26  23123052.544   121512420.770        3320.740          23.000  
G31  21207860.803   111448043.504         492.066          36.000  
G32  21351936.862   112205169.023         879.768          36.000  
R01  19792698.300   105803315.105        1435.615          33.000  
R12  19944390.286   106539352.760        1615.200          23.000  
> 2021 11  6  7 25 19.9999900  0 12
C16  37286138.044   194158528.323        -129.116          31.000  
C20  25896859.777   134851730.6031       2685.203          20.000  
C23  22392617.513   116604230.729       -1759.471          35.000  
C32  22230360.841   115759316.478        1075.336          31.000  
C37  22656420.786   117977905.791         912.174          28.000  
G10  20420977.851   107312971.751       -1594.171          27.000  
G12  23361102.146   122763402.067       -2977.355          24.000  
G23  22379407.758   117604571.0331      -3450.586          21.000  
G31  21207760.973   111447552.073         487.753          36.000  
G32  21351765.081   112204288.452         882.212          36.000  
R01  19792429.686   105801879.333        1434.685          32.000  
R12  19944088.695   106537741.571        1608.856          15.000  
> 2021 11  6  7 25 20.9999898  0 13
C16  37286102.368   194158345.305        -129.196          32.000  
C20  25896282.677   134848732.171        2685.147          23.000  
C23  22392896.320   116605679.303       -1761.228          34.000  
C32  22230094.026   115757932.704        1072.850          28.000  
C37  22656183.950   117976681.567         911.486          26.000  
E03                                                                                                                                  24085181.276    94515424.2311        196.534          26.000  
E08                                                                                                                                  24137868.901    94722181.8011       1180.458          25.000  
G10  20421222.182   107314249.946       -1593.946          28.000  
G26  23121722.964   121505463.1041       3321.299          20.000  
G31  21207607.179   111446745.499         490.327          34.000  
G32  21351538.138                         879.851          39.000  
R01  19792102.912   105800132.647        1433.629          29.000  
R12  19943722.648   106535785.938        1609.328          25.000  
> 2021 11  6  7 25 21.9999895  0 13
C16  37286035.515   194158006.091        -129.277          28.000  
C20  25895674.697   134845577.832        2686.381          22.000  
C23  22393144.249   116606972.247       -1761.972          30.000  
C32  22229798.431   115756391.355        1073.427          28.000  
C37  22655919.833   117975301.707         912.699          24.000  
E03                                                                                                                                  24085041.273    94514875.432         195.124          24.000  
G10  20421434.135   107315372.798       -1598.230          26.000  
G12  23362086.364   122768570.4331      -2979.401          16.000  
G26  23121004.062   121501667.476        3325.012          18.000  
G31  21207424.006   111445783.087         490.234          33.000  
G32  21351282.415   112201740.9681        880.114          34.000  
R01  19791747.059   105798230.724        1434.930          26.000  
R12  19943330.220   106533690.217        1609.191          20.000  
> 2021 11  6  7 25 22.9999895  0  9
C16  37286060.997   194158135.814        -130.257          26.000  
C23  22393482.115   116608734.213       -1762.678          31.000  
C32  22229592.773   115755318.649        1071.523          23.000  
C37  22655744.454   117974389.275         911.530          19.000  
E03                                                                                                                                  24084990.608    94514681.119         193.640          25.000  
G10  20421737.825   107316970.169       -1596.697          25.000  
G23  22379257.862   117603783.3231      -3450.586          20.000  
G32  21351115.131   112200860.725         879.846          33.000  
R01  19791478.744   105796795.481        1433.678          25.000  
> 2021 11  6  7 25 23.9999892  0  9
C16  37285994.443   194157798.001        -130.705          27.000  
C20  25894552.274   134839738.5371       2685.011          16.000  
C23  22393730.043   116610029.246       -1764.447          31.000  
E03                                                                                                                                  24084850.905    94514134.338         193.855          27.000  
G10  20421953.376   107318094.373       -1596.889          28.000  
G31  21207144.899   111444331.0721        487.338          26.000  
G32  21350859.108   112199509.199         878.062          36.000  
R01  19791119.893   105794877.661        1430.108          26.000  
R12  19942640.397   106530005.1681       1606.790          16.000  
> 2021 11  6  7 25 24.9999890  0 11
C16  37285961.466   194157617.662        -133.438          25.000  
C23  22394008.550   116611481.673       -1765.668          31.000  
C32  22229033.960   115752394.7341       1072.007          25.000  
C37  22655243.501   117971786.5121        910.396          23.000  
E03                                                                                                                                  24084741.780    94513704.928         193.757          28.000  
G10  20422197.407   107319375.857       -1596.447          27.000  
G23  22379107.966   117602995.6131      -3450.586          16.000  
G31  21206991.106   111443528.715         486.640          26.000  
G32  21350631.266                         876.356          35.000  
R01  19790793.719   105793134.185        1427.486          26.000  
R12  19942283.045   106528095.882        1606.652          24.000  
> 2021 11  6  7 25 25.9999890  0 10
C16  37285986.049   194157750.369        -132.552          25.000  
C23  22394348.215   116613246.596       -1764.455          32.000  
C37  22655068.422   117970875.634         909.694          19.000  
E03                                                                                                                                  24084692.914    94513511.527         193.615          24.000  
G10  20422503.195   107320973.096       -1597.597          29.000  
G12  23364199.901   122779707.4691      -2982.506          15.000  
G31  21206899.369   111443043.159         483.868          31.000  
G32  21350464.581                         875.714          34.000  
R01  19790530.801   105791728.829        1422.811          24.000  
R12  19941992.246   106526542.163        1606.171          23.000  
> 2021 11  6  7 25 26.9999887  0 11
C16  37285922.793   194157414.529        -132.904          27.000  
C20  25892856.349   134830916.4021       2675.056          17.000  
C32  22228532.107   115749780.8601       1074.349          15.000  
C37  22654803.106   117969498.897         905.885          19.000  
E03                                                                                                                                  24084553.511    94512964.795         193.654          24.000  
G10  20422719.346   107322098.723       -1598.590          25.000  
G12  23364675.372   122782220.688       -2988.716          14.000  
G26  23117596.321   121483784.2221       3326.457          16.000  
G31  21206715.896   111442086.753         483.740          19.000  
G32  21350206.460   112196098.9861        874.730          35.000  
R12  19941604.315   106524470.417        1604.471          25.000  
> 2021 11  6  7 25 27.9999885  0  8
C16  37285889.516   194157235.617        -133.804          27.000  
C32  22228264.992   115748394.249        1076.009          13.000  
E03                                                                                                                                  24084444.086    94512539.096         191.745          22.000  
G10  20422963.377   107323383.377       -1599.877          29.000  
G12  23365184.719   122784897.984       -2995.280          13.000  
G26  23116903.501   121480144.115        3322.234          15.000  
G31  21206560.604   111441287.651         484.835          23.000  
G32  21349980.416   112194908.536         876.391          36.000  
> 2021 11  6  7 25 28.9999882  0  9
C16  37285825.060   194156900.495        -133.516          27.000  
C23  22395130.374   116617299.9101      -1769.942          17.000  
C32  22227969.997   115746850.230        1075.441          12.000  
E03                                                                                                                                  24084305.282    94511994.303         190.677          22.000  
G10  20423177.428   107324511.835       -1604.096          25.000  
G12  23365663.488   122787421.265       -2995.531          11.000  
G31  21206375.332   111440329.369         484.993          20.000  
G32  21349722.295   112193561.788         872.986          36.000  
R12  19940851.536   106520449.2791       1599.836          21.000  
> 2021 11  6  7 25 29.9999882  0  9
C16  37285851.742   194157034.456        -134.478          26.000  
C23  22395470.339   116619070.131       -1770.354          25.000  
C37  22654131.871   117966004.6971        904.226          19.000  
E03                                                                                                                                  24084256.416    94511802.971         194.112          22.000  
G10  20423482.917   107326116.405       -1604.772          21.000  
G26  23115552.636   121473031.6591       3315.585          12.000  
G31  21206280.597   111439846.023         481.921          24.000  
G32  21349557.109   112192687.245         874.942          36.000  
R12  19940554.741   106518863.366        1600.000          24.000  
> 2021 11  6  7 25 30.9999880  0  5
C16  37285816.666   194156856.313        -133.766          27.000  
C23  22395752.143   116620528.696       -1771.090          23.000  
G26  23114867.310   121469400.497        3317.348          10.000  
G32  21349331.365   112191498.312         873.818          35.000  
R01  19788913.420   105783082.3511       1435.572          14.000  
> 2021 11  6  7 25 31.9999880  0  4
C16  37285842.748   194156990.621        -134.715          27.000  
C32  22227293.065   115743319.7491       1075.435          11.000  
C37  22653728.650   117963891.2781        899.011          20.000  
G32  21349161.983   112190624.677         872.857          36.000  
> 2021 11  6  7 25 32.9999880  0  8
C16  37285868.830   194157125.265        -135.143          27.000  
C23  22396437.769   116624068.6031      -1769.134          22.000  
C32  22227087.108   115742245.501        1070.896          12.000  
C37  22653556.269   117962991.374         899.740          19.000  
G10  20424339.724   107330616.2381      -1607.089          24.000  
G26  23113608.482   121462770.2201       3311.409          12.000  
G31  21205947.828   111438085.4161        482.261          23.000  
G32  21348995.898   112189751.712         872.070          36.000  
> 2021 11  6  7 25 33.9999877  0  7
C16  37285803.775   194156792.095        -135.038          28.000  
C23  22396688.695   116625371.829       -1772.776          22.000  
C37  22653292.152   117961622.868         899.047          19.000  
G10  20424555.574   107331751.109       -1607.011          25.000  
G26  23112892.877   121458989.526        3306.350          12.000  
G31  21205767.353   111437131.129         481.363          22.000  
G32  21348741.973   112188406.891         869.986          36.000  
> 2021 11  6  7 25 34.9999875  0  7
C16  37285771.098   194156615.130        -133.028          24.000  
C23  22396967.502   116626833.642       -1774.642          25.000  
C37  22653060.712   117960412.183         898.473          20.000  
G10  20424799.905   107333042.116       -1606.179          20.000  
G31  21205619.255   111436335.242         479.108          21.000  
G32  21348518.928   112187220.428         871.150          35.000  
R01  19787697.462   105776583.1691       1424.936          16.000  
> 2021 11  6  7 25 35.9999875  0  7
C16  37285796.880   194156748.140        -134.396          22.000  
C23  22397306.867   116628610.526       -1777.510          25.000  
C37  22652888.632   117959513.592         898.152          23.000  
G10  20425107.193   107334648.377       -1605.582          22.000  
G31  21205530.217   111435857.552         477.220          24.000  
G32  21348353.143   112186348.066         871.930          29.000  
R01  19787435.443   105775181.872        1420.255          17.000  
> 2021 11  6  7 25 36.9999872  0  9
C16  37285733.624   194156413.955        -134.868          27.000  
C20  25887259.223   134801789.5891       2681.333          16.000  
C23  22397556.594   116629918.711       -1776.462          28.000  
C37  22652625.414   117958148.376         895.270          21.000  
G10  20425321.244   107335784.574       -1610.855          18.000  
G26  23110857.886   121448279.0451       3309.783          17.000  
G31  21205351.541   111434908.393         476.028          31.000  
G32  21348098.019   112185004.079         870.755          32.000  
R01  19787081.389   105773290.041        1416.165          26.000  
> 2021 11  6  7 25 37.9999869  0  7
C16  37285670.967   194156081.535        -136.429          28.000  
C20  25886655.142   134798640.793        2678.875          18.000  
G10  20425536.495   107336922.918       -1612.585          25.000  
G26  23110138.384   121444497.187        3308.772          18.000  
G31  21205172.265   111433960.726         474.830          31.000  
G32  21347841.097   112183660.928         869.750          37.000  
R01  19786725.835   105771389.052        1414.420          26.000  
> 2021 11  6  7 25 38.9999867  0  5
C16  37285637.091   194155906.146        -136.909          28.000  
C37  22652128.957   117955577.9781        894.385          22.000  
G31  21205024.167   111433171.617         473.371          32.000  
G32  21347612.655                         868.135          36.000  
R01  19786404.457   105769670.560        1411.243          25.000  
> 2021 11  6  7 25 39.9999867  0  6
C16  37285662.873   194156043.543        -137.274          26.000  
C32  22225279.059   115732795.5541       1052.575          20.000  
C37  22651957.776   117954683.589         893.914          23.000  
G26  23108821.995   121437566.3181       3306.927          18.000  
G31  21204933.930   111432698.132         472.823          28.000  
G32  21347449.868   112181592.3391        868.051          35.000  
> 2021 11  6  7 25 40.9999864  0  4
C16  37285599.017   194155712.292        -137.246          28.000  
C37  22651698.156   117953320.970         894.711          22.000  
G31  21204754.954   111431751.698         474.379          27.000  
G32  21347194.745   112180251.253         867.099          35.000  
> 2021 11  6  7 25 41.9999862  0  5
C16  37285564.541   194155536.836        -136.707          27.000  
C32  22224726.542   115729905.2631       1055.673          19.000  
C37  22651467.016   117952113.949         893.812          24.000  
G31  21204606.257   111430962.271         474.140          28.000  
G32  21346968.101   112179067.933         867.158          35.000  
> 2021 11  6  7 25 42.9999862  0  5
C16  37285592.122   194155674.118        -138.863          28.000  
C32  22224523.582   115728849.047        1056.363          19.000  
G10  20426852.284   107343907.3821      -1618.094          19.000  
G31  21204517.218   111430488.526         473.412          28.000  
G32  21346806.214   112178200.326         868.843          36.000  
> 2021 11  6  7 25 43.9999859  0  4
C16  37285528.865   194155344.926        -140.546          26.000  
C32  22224230.385   115727324.752        1055.513          26.000  
G31  21204336.743   111429542.775         472.382          31.000  
G32  21346547.493   112176860.862         866.030          37.000  
> 2021 11  6  7 25 44.9999857  0  6
C16  37285496.188   194155173.340        -140.641          25.000  
C32  22223968.367   115725956.866        1054.344          19.000  
C37  22650808.072   117948658.6701        891.935          20.000  
G10  20427322.359   107346353.8161      -1617.904          25.000  
G31  21204185.648   111428756.055         472.207          32.000  
G32  21346322.049   112175679.808         865.574          34.000  
> 2021 11  6  7 25 45.9999854  0  5
C16  37285434.431   194154845.352        -140.195          27.000  
C37  22650547.552   117947297.387         894.476          23.000  
G26  23104652.482   121415694.5591       3301.036          18.000  
G31  21204006.072   111427811.592         471.629          28.000  
G32  21346068.424   112174341.093         866.460          35.000  
> 2021 11  6  7 25 46.9999854  0  6
C16  37285461.712   194154985.798        -140.075          27.000  
C32  22223473.110   115723379.3391       1052.680          20.000  
C37  22650375.771   117946404.962         890.528          23.000  
G10  20427853.591   107349120.6151      -1620.525          23.000  
G31  21203916.434   111427341.128         470.077          29.000  
G32  21345903.838   112173475.401         863.632          35.000  
> 2021 11  6  7 25 47.9999852  0  5
C16  37285428.435   194154813.398        -140.019          27.000  
C37  22650142.832   117945203.298         888.183          22.000  
G10  20428103.318   107350427.948       -1624.539          23.000  
G31  21203767.437   111426557.398         468.179          30.000  
G32  21345681.392   112172295.849         863.411          35.000  
> 2021 11  6  7 25 48.9999849  0  6
C16  37285366.078   194154485.489        -140.789          26.000  
C32  22222918.194   115720495.3111       1049.343          20.000  
G10  20428322.766   107351580.806       -1626.095          22.000  
G26  23102611.795   121405005.3751       3295.995          17.000  
G31  21203590.560   111425617.082         465.910          31.000  
G32  21345426.569   112170959.448         863.592          34.000  
> 2021 11  6  7 25 49.9999849  0  7
C16  37285393.060   194154625.599        -140.108          28.000  
C32  22222717.033   115719447.434        1047.512          21.000  
C37  22649713.230   117942960.9771        884.414          22.000  
G10  20428631.852   107353206.555       -1626.250          22.000  
G26  23101982.830   121401709.245        3297.067          16.000  
G31  21203503.320   111425151.801         464.686          30.000  
G32  21345261.083   112170096.233         863.859          35.000  
> 2021 11  6  7 25 50.9999846  0  5
C16  37285330.103   194154297.631        -141.009          28.000  
C37  22649452.111   117941608.531         884.359          22.000  
G10  20428852.200   107354359.474       -1626.427          24.000  
G31  21203326.742   111424214.829         463.964          32.000  
G32  21345007.459   112168760.390         864.118          37.000  
> 2021 11  6  7 25 51.9999844  0  6
C16  37285297.126   194154126.493        -141.878          25.000  
C32  22222162.717   115716574.8581       1044.685          23.000  
C37  22649222.769   117940411.701         885.419          21.000  
G10  20429101.028   107355670.042       -1625.372          25.000  
G26  23100569.009   121394324.1631       3301.062          19.000  
G32  21344779.916   112167582.900         862.522          35.000  
> 2021 11  6  7 25 52.9999844  0  4
C16  37285324.107   194154268.496        -141.753          27.000  
G10  20429412.212   107357296.850       -1627.546          26.000  
G31  21203085.709   111422971.1001        464.803          32.000  
G32  21344615.030   112166720.580         862.079          34.000  
> 2021 11  6  7 25 53.9999844  0  5
C16  37285350.189   194154409.643        -141.064          28.000  
C32  22221760.395   115714480.6941       1048.146          21.000  
G10  20429721.598   107358924.639       -1627.650          25.000  
G31  21202998.470   111422506.216         464.984          30.000  
G32  21344455.841   112165858.704         861.140          35.000  
> 2021 11  6  7 25 54.9999841  0  4
C16  37285288.132   194154082.440        -141.512          27.000  
G10  20429940.746   107360080.833       -1630.225          25.000  
G31  21202820.992   111421569.393         463.397          30.000  
G32  21344205.514   112164525.646         859.928          36.000  
> 2021 11  6  7 25 55.9999839  0  6
C16  37285256.354   194153911.726        -142.209          23.000  
C32  22221207.278   115711606.2871       1044.720          23.000  
C37  22648386.948   117936088.1881        883.577          20.000  
G10  20430191.373   107361397.042       -1631.517          22.000  
G31  21202672.895   111420791.682         462.307          30.000  
G32  21343978.571   112163349.824         860.977          33.000  
> 2021 11  6  7 25 56.9999839  0  5
C16  37285282.736   194154053.895        -141.464          27.000  
C32  22221007.017   115710561.497        1044.549          23.000  
G10  20430501.658   107363029.427       -1632.904          26.000  
G31  21202584.156   111420329.751         461.076          30.000  
G32  21343813.086   112162489.058         860.288          34.000  
> 2021 11  6  7 25 57.9999836  0  6
C09  37674332.103   196180119.5211       -286.164          21.000  
C16  37285220.679   194153726.644        -141.272          28.000  
G10  20430722.905   107364189.233       -1633.304          25.000  
G26  23096541.297   121373269.6371       3295.374          16.000  
G31  21202405.780   111419396.054         460.540          30.000  
G32  21343560.660   112161156.263         858.908          36.000  
> 2021 11  6  7 25 58.9999834  0  6
C09  37674327.306   196180093.403        -286.656          21.000  
C16  37285189.800   194153555.458        -141.922          27.000  
C32  22220458.996   115707691.7301       1042.835          21.000  
G10  20430975.030   107365507.713       -1634.332          25.000  
G31  21202258.282   111418621.044         459.123          29.000  
G32  21343338.214   112159982.298         855.894          35.000  
> 2021 11  6  7 25 59.9999831  0  5
C16  37285127.443   194153229.728        -144.194          22.000  
C32  22220169.097   115706180.021        1043.393          23.000  
G10  20431196.877   107366669.510       -1634.839          25.000  
G31  21202079.606   111417689.546         458.429          31.000  
G32  21343084.890   112158651.926         853.821          33.000  
> 2021 11  6  7 26  0.9999831  0  5
C16  37285155.024   194153374.267        -145.244          24.000  
C32  22219969.735   115705138.300        1039.148          25.000  
G10  20431511.659   107368305.272       -1636.546          23.000  
G31  21201992.066   111417230.690         458.371          29.000  
G32  21342918.205   112157795.059         860.053          33.000  
> 2021 11  6  7 26  1.9999828  0  6
C09  37674313.515   196180020.9631       -285.163          20.000  
C16  37285092.967   194153050.379        -144.504          26.000  
C32  22219680.136   115703632.226        1036.298          25.000  
G10  20431733.505   107369468.725       -1634.771          24.000  
G31  21201812.191   111416300.241         458.867          22.000  
G32  21342664.581   112156465.134         854.837          32.000  
> 2021 11  6  7 26  2.9999826  0  6
C09  37674306.920   196179992.620        -284.247          20.000  
C16  37285059.990   194152883.009        -145.493          24.000  
C32  22219419.916   115702282.145        1039.171          30.000  
G10  20431984.731   107370788.239       -1635.424          27.000  
G31  21201664.993   111415527.012         457.014          31.000  
G32  21342441.535   112155293.792         856.855          30.000  
> 2021 11  6  7 26  3.9999826  0  5
C16  37285087.871   194153029.375        -146.941          21.000  
C32  22219220.554   115701242.713        1039.206          30.000  
G10  20432297.415   107372424.963       -1638.399          30.000  
G31  21201578.952   111415070.395         456.143          32.000  
G32  21342278.448   112154436.789         856.398          26.000  
> 2021 11  6  7 26  4.9999823  0  6
C09  37674322.209   196180095.8281       -286.013          23.000  
C16  37285027.612   194152706.116        -144.050          23.000  
C32  22218930.654   115699734.876        1040.789          28.000  
G10  20432521.959   107373591.585       -1639.670          30.000  
G31  21201404.173   111414141.551         456.267          30.000  
G32  21342026.323   112153108.401         855.839          24.000  
> 2021 11  6  7 26  5.9999821  0  6
C16  37284994.635   194152540.199        -147.600          24.000  
C32  22218670.734   115698382.192        1040.369          32.000  
G10  20432774.684   107374916.747       -1640.793          33.000  
G26  23091075.781   121344524.4381       3296.365          27.000  
G31  21201258.474   111413370.388         455.695          33.000  
G32  21341802.378   112151937.103         856.289          28.000  
> 2021 11  6  7 26  6.9999818  0  7
C09  37674284.735   196179884.7731       -285.329          23.000  
C16  37284930.180   194152218.231        -145.251          23.000  
C32  22218381.135   115696873.977        1039.185          29.000  
G10  20432994.133   107376085.679       -1642.569          36.000  
G26  23090359.876   121340756.277        3294.396          29.000  
G31  21201083.096   111412443.128         453.214          33.000  
G32  21341548.753   112150608.396         855.403          25.000  
> 2021 11  6  7 26  7.9999818  0  7
C09  37674341.396   196180169.901        -285.466          26.000  
C16  37284959.560   194152362.929        -143.670          26.000  
C32  22218180.274   115695835.293        1038.519          29.000  
G10  20433300.820                       -1641.074          37.000  
G26  23089734.509   121337462.274        3293.519          27.000  
G31  21200993.158                         454.133          35.000  
G32  21341385.966   112149753.924         853.902          27.000  
> 2021 11  6  7 26  8.9999816  0  6
C09  37674335.101   196180143.224        -286.685          26.000  
C16  37284924.184   194152195.382        -146.130          26.000  
C32  22217920.953   115694485.018        1036.928          29.000  
G26  23089048.584   121333854.226        3292.747          28.000  
G31  21200844.161   111411202.6431        450.932          35.000  
G32  21341163.520   112148584.761         854.381          26.000  
> 2021 11  6  7 26  9.9999813  0 10
C07  37866965.545   197183225.7821       1087.821          31.000  
C09  37674299.725   196179962.619        -288.362          28.000  
C16  37284860.029   194151873.377        -146.307          28.000  
C20  25868571.660   134704373.1091       2664.661          29.000  
C32  22217631.354   115692980.094        1036.030          31.000  
C37  22645249.920   117919758.7731        871.300          35.000  
G10  20433786.184   107380220.3151      -1645.094          37.000  
G26  23088333.579   121330088.758        3292.326          28.000  
G31  21200667.283   111410278.529         450.883          31.000  
G32  21340911.095   112147257.440         855.550          29.000  
> 2021 11  6  7 26 10.9999811  0  9
C07  37866696.032   197181826.133        1087.394          29.000  
C09  37674294.029   196179939.702        -289.851          28.000  
C16  37284827.651   194151707.550        -146.543          29.000  
C20  25868000.256   134701396.201        2664.152          29.000  
C32  22217371.434   115691632.142        1035.262          28.000  
C37  22645022.677   117918575.231         869.992          35.000  
G10  20434038.010   107381550.445       -1645.444          39.000  
G26  23087648.553   121326481.338        3292.376          28.000  
G31  21200525.182   111409512.172         451.128          33.000  
> 2021 11  6  7 26 11.9999811  0  9
C07  37866487.076   197180738.115        1088.270          29.000  
C09  37674349.491   196180228.726        -287.699          29.000  
C16  37284854.033   194151853.580        -145.523          29.000  
C20  25867488.510   134698730.953        2665.629          28.000  
C32  22217172.072   115690597.033        1035.329          28.000  
C37  22644854.793   117917704.453         870.115          36.000  
G10  20434352.492   107383196.399       -1646.867          39.000  
G26  23087024.685   121323189.615        3291.475          28.000  
G31  21200436.743   111409061.471         450.071          35.000  
> 2021 11  6  7 26 12.9999808  0 10
C07  37866187.884   197179181.623        1086.867          28.000  
C09  37674314.115   196180048.589        -288.050          28.000  
C16  37284790.477   194151529.378        -143.501          27.000  
C20  25866885.927   134695597.052        2665.393          29.000  
C32  22216883.072   115689093.272        1034.037          25.000  
C37  22644600.569   117916366.190         869.667          37.000  
G10  20434574.638   107384370.823       -1647.456          38.000  
G26  23086311.179   121319424.687        3292.434          28.000  
G31  21200265.562   111408138.992         450.789          36.000  
G32  21340264.143   112143905.0381        854.563          26.000  
> 2021 11  6  7 26 13.9999808  0 10
C07  37865978.329   197178094.853        1086.456          29.000  
C09  37674368.977   196180336.961        -288.731          29.000  
C16  37284820.156   194151673.624        -145.454          26.000  
C20  25866373.282   134692931.766        2664.796          30.000  
C37  22644436.283   117915497.091         867.901          37.000  
G10  20434889.720   107386018.912       -1648.898          38.000  
G23  22412304.285                       -3489.346          27.000  
G26  23085685.512   121316132.442        3291.467          26.000  
G31  21200179.521   111407689.872         448.481          38.000  
G32  21340103.454   112143051.657         853.375          28.000  
> 2021 11  6  7 26 14.9999808  0 11
C07  37865769.673   197177008.110        1086.729          29.000  
C09  37674424.439   196180625.832        -288.579          29.000  
C16  37284849.836   194151819.656        -146.931          25.000  
C20  25865859.738   134690267.232        2664.216          30.000  
C32  22216484.648   115687029.0721       1029.725          21.000  
C37  22644269.299   117914628.552         869.719          37.000  
G10  20435205.701   107387667.856       -1649.651          37.000  
G23  22412966.526                       -3491.160          26.000  
G26  23085058.047   121312839.876        3293.113          26.000  
G31  21200095.579   111407241.310         448.139          38.000  
G32  21339941.566   112142198.088         853.740          26.000  
> 2021 11  6  7 26 15.9999805  0 11
C07  37865470.180   197175452.701        1086.914          29.000  
C09  37674388.464   196180445.175        -286.774          28.000  
C16  37284787.479   194151498.217        -147.871          25.000  
C20  25865256.256   134687134.798        2664.171          30.000  
C32  22216194.449   115685531.352        1028.753          21.000  
C37  22644012.976   117913292.524         866.320          37.000  
G10  20435428.447   107388845.252       -1650.856          37.000  
G23  22413541.828   117783952.7611      -3491.896          26.000  
G26  23084343.042   121309075.712        3288.997          25.000  
G31  21199917.802   111406320.956         446.970          39.000  
G32  21339687.642   112140871.964         851.802          25.000  
> 2021 11  6  7 26 16.9999803  0 11
C07  37865201.866   197174053.852        1086.003          29.000  
C09  37674382.768   196180420.675        -288.103          28.000  
C16  37284755.701   194151334.019        -148.127          26.000  
C20  25864683.352   134684158.702        2663.795          29.000  
C32  22215934.828   115684189.728        1030.718          24.000  
C37  22643785.434   117912113.549         865.838          37.000  
G10  20435683.271   107390181.309       -1651.935          38.000  
G23  22414146.509   117787130.340       -3493.463          26.000  
G26  23083658.616   121305471.671        3288.949          25.000  
G31  21199771.504   111405559.094         445.928          37.000  
G32  21339466.395   112139705.394         849.847          22.000  
> 2021 11  6  7 26 17.9999800  0 11
C07  37864902.374   197172500.343        1084.901          28.000  
C09  37674347.992   196180240.988        -289.006          28.000  
C16  37284694.843   194151013.509        -147.584          25.000  
C20  25864082.268   134681027.199        2661.736          29.000  
C32  22215644.030   115682689.852        1031.434          24.000  
C37  22643529.411   117910779.317         865.364          38.000  
G10  20435905.417   107391360.919       -1652.713          37.000  
G23  22414720.612   117790152.000       -3494.436          26.000  
G26  23082945.110   121301710.798        3287.971          26.000  
G31  21199597.324   111404640.506         445.403          38.000  
G32  21339216.668   112138382.931         849.867          25.000  
> 2021 11  6  7 26 18.9999800  0 10
C07  37864695.217   197171415.683        1083.974          29.000  
C09  37674402.854   196180529.985        -289.943          30.000  
C16  37284722.724   194151161.331        -149.282          27.000  
C20  25863571.422   134678365.895        2660.895          30.000  
C37  22643363.626   117909914.683         864.301          38.000  
G10  20436218.101   107393014.635       -1654.545          37.000  
G23  22415385.551   117793646.167       -3493.636          27.000  
G26  23082319.743   121298422.332        3288.830          26.000  
G31  21199517.579   111404195.809         444.385          39.000  
G32  21339055.679   112137533.815         847.958          27.000  
> 2021 11  6  7 26 19.9999798  0  9
C07  37864426.903   197170020.359        1082.646          28.000  
C09  37674397.457   196180507.958        -290.479          29.000  
C16  37284690.646   194150998.224        -149.709          25.000  
C20  25863000.617   134675392.743        2660.643          31.000  
C37  22643139.381   117908738.755         862.874          37.000  
G10  20436471.425   107394354.463       -1656.213          37.000  
G26  23081632.019   121294818.437        3289.181          25.000  
G31  21199374.279   111403436.902         443.100          39.000  
G32  21338835.631   112136370.791         848.012          29.000  
> 2021 11  6  7 26 20.9999795  0 13
C07  37864129.808   197168469.878        1081.508          28.000  
C09  37674363.581   196180329.808        -289.756          29.000  
C16  37284629.188   194150678.893        -148.381          26.000  
C20  25862400.733   134672263.804        2660.369          31.000  
C32  22214890.951   115678823.0281       1025.741          22.000  
C37  22642884.557   117907407.148         862.830          38.000  
E03                                                                                                                                  24079292.753    94492314.7741        171.819          30.000  
G10  20436700.467   107395537.427       -1657.063          37.000  
G23  22416567.333   117799848.0261      -3495.087          27.000  
G26  23080915.215   121291056.674        3289.427          25.000  
G31  21199197.401   111402520.838         443.334          39.000  
G32  21338585.305   112135049.430         848.929          29.000  
R01  19773227.080   105699231.2551       1378.206          25.000  
> 2021 11  6  7 26 21.9999793  0 13
C07  37863862.693   197167076.372        1081.223          28.000  
C09  37674359.384   196180307.983        -290.910          29.000  
C10  38604163.594   201022010.0151        971.303          30.000  
C16  37284597.710   194150514.430        -148.119          25.000  
C20  25861828.729   134669290.652        2661.124          29.000  
C37  22642658.813   117906232.335         862.721          38.000  
E03                                                                                                                                  24079189.324    94491908.011         170.969          30.000  
G10  20436956.489   107396878.814       -1657.797          37.000  
G23  22417171.415   117803028.210       -3495.672          26.000  
G26  23080229.290   121287453.409        3287.934          25.000  
G31  21199053.201   111401762.987         442.268          39.000  
G32  21338365.557   112133885.792         848.411          28.000  
R01  19772905.702   105697512.912        1377.970          26.000  
> 2021 11  6  7 26 22.9999793  0 13
C07  37863654.937   197165995.713        1080.344          28.000  
C09  37674415.745   196180598.894        -290.932          29.000  
C10  38603976.223   201021038.503         971.887          29.000  
C16  37284627.689   194150663.127        -149.205          25.000  
C20  25861315.784   134666629.308        2660.632          27.000  
C37  22642493.028   117905370.582         860.428          37.000  
E03                                                                                                                                  24079145.854    94491737.734         169.407          30.000  
G10  20437266.175   107398536.354       -1659.390          36.000  
G23  22417836.954   117806523.548       -3494.992          27.000  
G26  23079601.824   121284166.635        3287.132          25.000  
G31  21198968.360   111401321.040         440.086          38.000  
G32  21338205.168   112133038.031         847.064          30.000  
R01  19772647.281   105696132.105        1377.528          26.000  
> 2021 11  6  7 26 23.9999790  0 14
C07  37863357.543   197164446.737        1080.797          27.000  
C09  37674382.168   196180421.291        -290.733          29.000  
C10  38603699.515   201019598.339         971.834          31.000  
C16  37284568.031   194150344.581        -149.574          26.000  
C20  25860715.599   134663500.806        2659.596          26.000  
C32  22214155.260   115674961.2731       1024.794          23.000  
C37  22642234.607   117904041.401         860.303          38.000  
E03                                                                                                                                  24079012.746    94491214.918         169.650          30.000  
G10  20437495.516   107399722.398       -1659.504          35.000  
G23  22418411.956   117809546.785       -3497.038          25.000  
G26  23078887.419   121280407.688        3285.678          24.000  
G31  21198793.880   111400407.354         440.810          38.000  
G32  21337955.441   112131718.074         846.795          30.000  
R01  19772300.721   105694279.404        1376.351          25.000  
> 2021 11  6  7 26 24.9999788  0 14
C07  37863092.826   197163053.127        1082.214          28.000  
C09  37674378.271   196180399.973        -291.094          31.000  
C10  38603452.486   201018314.321         971.231          30.000  
C16  37284537.752   194150182.058        -149.039          26.000  
C20  25860146.893   134660529.134        2659.569          31.000  
C32  22213900.137   115673624.421        1024.316          23.000  
C37  22642006.165   117902869.030         858.748          36.000  
E03                                                                                                                                  24078908.718    94490809.909         169.806          30.000  
G10  20437748.541   107401066.899       -1661.137          34.000  
G23  22419017.237   117812729.431       -3498.495          28.000  
G26  23078200.594   121276807.083        3285.193          26.000  
G31  21198652.079   111399651.905         440.133          39.000  
G32  21337735.693   112130556.220         846.581          33.000  
R01  19771985.339   105692593.448        1375.951          30.000  
> 2021 11  6  7 26 25.9999785  0 14
C07  37862795.732   197161502.665        1082.398          28.000  
C09  37674344.694   196180223.317        -291.914          30.000  
C10  38603175.478   201016874.631         970.885          30.000  
C16  37284475.395   194149862.692        -148.862          26.000  
C20  25859548.207   134657401.188        2659.226          33.000  
C32  22213613.835   115672130.830        1024.627          22.000  
C37  22641749.843   117901541.271         859.555          36.000  
E03                                                                                                                                  24078775.910    94490286.719         170.823          30.000  
G10  20437971.587   107402254.858       -1659.887          33.000  
G23  22419591.939   117815755.907       -3499.567          29.000  
G26  23077484.090   121273049.383        3284.170          25.000  
G31  21198476.400   111398739.614         439.738          39.000  
G32  21337487.165   112129236.968         846.524          35.000  
R01  19771638.480   105690738.957        1375.907          31.000  
> 2021 11  6  7 26 26.9999785  0 12
C07  37862588.276   197160420.754        1081.339          27.000  
C09  37674401.654   196180516.258        -293.576          31.000  
C10  38602989.606   201015904.003         970.215          29.000  
C16  37284503.875   194150011.517        -149.602          26.000  
C20  25859040.958   134654741.787        2659.367          33.000  
C37  22641586.456   117900682.610         857.306          36.000  
E03                                                                                                                                  24078732.440    94490115.639         171.636          28.000  
G10  20438288.767   107403916.359       -1664.226          32.000  
G26  23076858.723   121269764.949        3284.256          26.000  
G31  21198393.058   111398300.729         438.645          39.000  
G32  21337330.973                         847.264          35.000  
R01  19771380.058   105689358.335        1375.555          32.000  
> 2021 11  6  7 26 27.9999782  0 16
C03  36377458.110   189426969.7071       -304.835          31.000  
C07  37862291.481   197158872.725        1078.427          27.000  
C09  37674367.778   196180341.517        -293.148          30.000  
C10  38602713.198   201014465.575         969.721          29.000  
C16  37284443.917   194149692.831        -149.426          25.000  
C20  25858441.973                        2658.811          33.000  
C23  22412398.719   116707240.6581      -1809.427          33.000  
C32  22213131.769   115669615.4041       1021.739          22.000  
C37  22641331.332   117899356.482         856.590          36.000  
E03                                                                                                                                  24078598.733    94489591.367         171.087          28.000  
G10  20438520.207   107405106.343       -1664.032          33.000  
G23  22420834.879   117822283.5911      -3500.861          29.000  
G26  23076143.119   121266008.549        3283.295          27.000  
G31  21198219.778   111397389.971         437.545          39.000  
G32  21337080.946   112127112.3901        845.679          35.000  
R01  19771033.199   105687503.656        1374.585          32.000  
> 2021 11  6  7 26 28.9999780  0 15
C03  36377455.112   189426961.648        -303.662          32.000  
C07  37862024.666   197157481.922        1078.858          27.000  
C09  37674365.080   196180322.219        -292.536          30.000  
C10  38602467.368   201013183.908         969.380          30.000  
C16  37284414.237   194149530.826        -150.812          25.000  
C20  25857870.868   134648722.1541       2656.092          32.000  
C23  22412688.619                       -1810.557          32.000  
C37  22641107.388   117898187.171         858.359          36.000  
E03                                                                                                                                  24078495.904    94489186.191         169.395          29.000  
G10  20438777.129   107406454.829       -1664.999          32.000  
G23  22421441.659   117825469.905       -3500.755          29.000  
G26  23075458.992   121262410.162        3282.756          26.000  
G31  21198079.775   111396637.584         436.498          39.000  
G32  21336854.003   112125952.258         845.797          34.000  
R01  19770716.618   105685811.047        1373.783          32.000  
> 2021 11  6  7 26 29.9999777  0 15
C03  36377422.734   189426796.628        -302.952          32.000  
C07  37861727.272   197155934.930        1078.316          29.000  
C09  37674330.903   196180146.437        -292.543          30.000  
C10  38602191.559   201011746.801         968.945          29.000  
C16  37284355.178   194149213.151        -150.763          25.000  
C20  25857269.185   134645595.792        2659.144          32.000  
C23  22412944.342   116710092.3471      -1811.696          32.000  
C37  22640854.662   117896862.443         856.480          37.000  
E03                                                                                                                                  24078363.396    94488664.387         167.837          29.000  
G10  20439000.774   107407646.763       -1664.503          34.000  
G23  22422017.260   117828498.562       -3502.021          28.000  
G26  23074744.887   121258656.594        3280.059          25.000  
G31  21197904.396   111395728.051         437.788          39.000  
G32  21336602.477   112124634.935         843.819          34.000  
R01  19770374.255   105683981.041        1371.102          30.000  
> 2021 11  6  7 26 30.9999777  0 14
C07  37861519.815   197154856.852        1077.372          30.000  
C09  37674386.065   196180439.279        -292.927          26.000  
C10  38602005.987   201010777.717         968.526          29.000  
C16  37284386.057   194149363.606        -151.074          25.000  
C20  25856758.938   134642938.343        2657.314          29.000  
C23  22413290.002   116711902.929       -1811.782          30.000  
C37  22640687.078   117896007.410         855.399          32.000  
E03                                                                                                                                  24078321.125    94488497.315         167.092          29.000  
G10  20439314.657   107409312.694       -1666.634          36.000    20439321.852    80208288.3271      -1243.805          28.000  
G23  22422685.198   117832001.022       -3503.108          26.000  
G26  23074121.618   121255375.829        3280.509          25.000  
G31  21197824.651   111395292.250         433.611          38.000  
G32  21336444.787   112123790.903         842.705          34.000  
R01  19770123.029   105682637.965        1371.468          26.000  
> 2021 11  6  7 26 31.9999775  0 15
C03  36377479.395   189427095.7221       -311.236          29.000  
C07  37861253.000   197153466.578        1077.919          30.000  
C09  37674382.468   196180420.265        -293.508          29.000  
C10  38601759.858   201009497.057         967.664          27.000  
C16  37284354.878   194149202.631        -151.574          28.000  
C20  25856189.632   134639969.291        2656.197          31.000  
C23  22413579.302   116713403.083       -1812.817          29.000  
C32  22212143.353   115664435.4751       1018.128          29.000  
C37  22640463.134   117894840.241         853.961          34.000  
E03                                                                                                                                  24078217.997    94488095.278         167.649          27.000  
G10  20439573.078   107410664.733       -1666.069          37.000    20439578.774    80209297.786       -1245.152          27.000  
G23  22423292.578   117835188.546       -3503.631          23.000  
G26  23073436.592   121251780.088        3279.791          27.000  
G31  21197675.954   111394543.070         434.700          36.000  
G32  21336217.244   112122633.052         841.885          33.000  
> 2021 11  6  7 26 32.9999775  0 15
C07  37861044.344   197152389.152        1076.737          30.000  
C09  37674438.529   196180714.450        -294.800          25.000  
C10  38601574.586   201008529.638         967.036          32.000  
C16  37284381.860   194149354.679        -153.618          29.000  
C20  25855682.084   134637313.574        2655.341          27.000  
C23  22413933.357   116715215.592       -1812.893          33.000  
C32  22211950.886   115663417.474        1018.106          29.000  
C37  22640301.845   117893986.408         853.035          34.000  
E03                                                                                                                                  24078174.527    94487927.953         167.080          26.000  
G10  20439894.156   107412332.890       -1668.201          37.000    20439897.154    80210544.272       -1248.598          21.000  
G23  22423959.316   117838692.374       -3504.601          24.000  
G26  23072813.624   121248500.165        3279.010          29.000  
G31  21197596.809   111394109.174         434.127          33.000  
G32  21336053.557   112121790.132         843.734          34.000  
R01  19769556.721   105679610.8751       1369.641          20.000  
> 2021 11  6  7 26 33.9999772  0 15
C07  37860747.850   197150844.212        1076.675          29.000  
C09  37674404.652   196180540.286        -294.040          27.000  
C10  38601299.377   201007094.886         964.620          31.000  
C16  37284319.803   194149039.292        -152.673          27.000  
C20  25855084.298   134634192.359        2652.032          17.000  
C23  22414185.182   116716560.619       -1815.047          30.000  
C32  22211666.383   115661930.690        1017.665          28.000  
C37  22640047.921                         851.421          34.000  
E03                                                                                                                                  24078042.618    94487408.468         166.642          28.000  
G10  20440121.998   107413529.610       -1670.505          37.000    20440124.996    80211438.662       -1246.559          26.000  
G23  22424538.515   117841724.147       -3504.589          25.000  
G26  23072100.117   121244748.818        3278.919          26.000  
G31  21197420.531   111393203.428         431.131          34.000  
G32  21335807.428   112120474.912         837.438          29.000  
R01  19769216.756   105677794.315        1370.303          23.000  
> 2021 11  6  7 26 34.9999770  0 13
C07  37860481.934   197149456.069        1076.534          21.000  
C09  37674402.254   196180521.710        -295.094          22.000  
C10  38601054.746   201005817.191         967.387          27.000  
C20  25854515.591   134631227.393        2653.260          25.000  
C23  22414474.782   116718063.847       -1816.728          23.000  
C32  22211413.358   115660601.296        1016.543          32.000  
C37  22639825.175   117891505.7381        850.628          28.000  
E03                                                                                                                                  24077940.089    94487007.954         162.989          26.000  
G10  20440378.321   107414885.087       -1671.896          32.000    20440384.316    80212450.915       -1249.623          21.000  
G23  22425145.595   117844912.583       -3503.924          24.000  
G31  21197282.627   111392456.413         431.438          33.000  
G32  21335588.579   112119321.052         839.599          31.000  
R01  19768901.075   105676106.002        1366.588          24.000  
> 2021 11  6  7 26 35.9999770  0 12
C09  37674459.215   196180815.552        -293.809          14.000  
C10  38600869.474   201004849.424         967.824          29.000  
C16  37284318.004   194149030.5501       -150.572          18.000  
C20  25854005.045   134628570.871        2656.472          19.000  
C23  22414825.239   116719878.845       -1815.769          28.000  
C32  22211218.793   115659585.305        1015.398          33.000  
C37  22639662.388   117890655.249         849.924          31.000  
E03                                                                                                                                  24077898.418    94486844.044         164.861          26.000  
G10  20440695.501   107416556.318       -1672.731          31.000    20440702.396    80213698.375       -1247.292          21.000  
G31  21197201.683   111392025.047         430.023          36.000  
G32  21335430.589   112118480.206         841.698          24.000  
R01  19768641.155   105674716.860        1365.007          26.000  
> 2021 11  6  7 26 36.9999767  0 14
C07  37859975.285   197146835.5981       1075.932          25.000  
C09  37674425.338   196180641.516        -294.329          20.000  
C10  38600594.265   201003413.453         967.916          30.000  
C20  25853405.760   134625447.099        2655.477          21.000  
C23  22415083.660   116721225.963       -1815.644          32.000  
C32  22210933.091   115658100.370        1016.675          32.000  
C37  22639409.063   117889336.973         850.008          33.000  
E03                                                                                                                                  24077766.209    94486325.182         165.422          27.000  
G10  20440922.144   107417756.015       -1671.627          29.000  
G23  22426392.432   117851450.0231      -3504.730          17.000  
G26  23070087.910   121234125.0081       3279.388          21.000  
G31  21197029.002   111391120.990         430.209          38.000  
G32  21335178.763   112117165.457         842.576          24.000  
R01  19768295.194   105672867.652        1365.941          28.000  
> 2021 11  6  7 26 37.9999764  0 12
C07  37859678.790   197145291.791        1074.751          29.000  
C09  37674390.562   196180467.231        -293.584          23.000  
C10  38600319.355   201001977.965         966.381          33.000  
C20  25852805.875   134622323.800        2656.343          22.000  
C23  22415342.381   116722572.981       -1815.692          36.000  
C32  22210649.487   115656616.971        1013.479          25.000  
C37  22639156.338   117888019.070         849.221          34.000  
E03                                                                                                                                  24077633.701    94485806.857         167.269          27.000  
G10  20441148.787   107418955.582       -1673.338          30.000  
G26  23069374.105   121230374.131        3277.804          26.000  
G31  21196857.821   111390218.209         430.886          40.000  
G32  21334928.137   112115851.508         841.571          27.000  
> 2021 11  6  7 26 38.9999762  0 15
C07  37859413.473   197143904.845        1074.479          25.000  
C09  37674388.464   196180449.297        -294.279          24.000  
C10  38600073.825   201000700.719         962.827          31.000  
C16  37284165.409   194148239.8291       -153.880          24.000  
C20  25852235.670   134619355.149        2656.704          23.000  
C23  22415631.681   116724077.365       -1816.128          29.000  
C32  22210394.064   115655291.433        1013.427          28.000  
C37  22638934.192   117886857.712         848.648          30.000  
E03                                                                                                                                  24077531.772    94485405.337         165.659          27.000  
G10  20441408.108   107420314.479       -1673.901          32.000  
G23  22427573.614   117857674.2861      -3507.889          19.000  
G26  23068690.578   121226782.277        3276.541          24.000  
G31  21196716.319   111389473.936         430.186          38.000  
G32  21334708.389   112114694.956         842.195          28.000  
R01  19767631.753   105669321.2111       1366.728          25.000  
> 2021 11  6  7 26 39.9999762  0 12
C07  37859207.816   197142830.803        1072.705          27.000  
C09  37674445.424   196180743.655        -294.431          26.000  
C16  37284194.189   194148392.718        -152.893          24.000  
C20  25851724.524   134616698.824        2656.017          26.000  
C23  22415980.340   116725893.186       -1815.940          28.000  
C32  22210198.599   115654276.751        1014.885          24.000  
C37  22638771.105   117886009.436         847.934          32.000  
E03                                                                                                                                  24077490.700    94485239.979         164.696          29.000  
G10  20441726.787   107421988.084       -1673.831          28.000  
G31  21196636.574   111389044.449         429.086          34.000  
G32  21334548.000   112113851.678         842.861          28.000  
R01  19767376.330   105667956.066        1364.866          26.000  
> 2021 11  6  7 26 40.9999759  0 11
C09  37674410.948   196180568.183        -292.935          22.000  
C10  38599614.243   200998304.9101        963.751          23.000  
C16  37284133.631   194148077.951        -154.643          20.000  
C23  22416239.660   116727240.550       -1816.505          29.000  
C32  22209913.797   115652794.654        1013.478          30.000  
C37  22638518.680   117884693.040         848.010          30.000  
E03                                                                                                                                  24077358.492    94484722.467         163.522          30.000  
G10  20441957.327   107423190.030       -1674.848          25.000  
G31  21196467.191   111388143.648         428.112          37.000  
G32  21334297.973   112112537.105         840.152          28.000  
R01  19767031.569   105666112.753        1362.814          24.000  
> 2021 11  6  7 26 41.9999757  0 13
C07  37858643.307   197139906.7901       1073.053          24.000  
C09  37674407.351   196180549.453        -292.733          17.000  
C16  37284106.050   194147920.867        -155.557          26.000  
C20  25850558.331   134610608.8731       2650.234          19.000  
C23  22416528.360   116728745.211       -1818.150          30.000  
C32  22209661.072   115651470.088        1011.796          25.000  
C37  22638295.934   117883533.457         846.617          31.000  
E03                                                                                                                                  24077256.862    94484323.954         162.389          26.000  
G23  22429420.036   117867411.8901      -3510.166          19.000  
G26  23066666.679   121216168.8851       3273.576          19.000  
G31  21196325.989   111387401.275         428.210          34.000  
G32  21334081.223   112111382.438         838.971          27.000  
R01  19766717.986   105664436.384        1363.183          23.000  
> 2021 11  6  7 26 42.9999754  0  9
C07  37858345.313   197138365.755        1072.212          25.000  
C16  37284046.991   194147608.558        -157.086          25.000  
C23  22416787.981   116730095.419       -1819.460          31.000  
C32  22209378.967   115649991.485        1008.421          24.000  
C37  22638043.209   117882218.835         845.870          33.000  
G23  22429995.937   117870449.861       -3511.164          24.000  
G31  21196152.409   111386502.004         425.837          35.000  
G32  21333833.295   112110071.763         836.859          28.000  
R01  19766368.428   105662567.442        1361.238          23.000  
> 2021 11  6  7 26 43.9999754  0 11
C07  37858140.854   197137294.391        1070.144          24.000  
C09  37674430.135   196180674.2271       -299.379          17.000  
C16  37284076.971   194147765.278        -157.283          24.000  
C20  25849451.797   134604844.1401       2650.475          16.000  
C23  22417139.038   116731915.188       -1820.214          31.000  
C32  22209184.701   115648982.934        1007.912          20.000  
C37  22637881.021   117881374.528         843.821          33.000  
G23  22430663.875   117873961.848       -3512.640          25.000  
G31  21196068.467   111386076.323         425.502          37.000  
G32  21333681.300   112109234.584         837.904          23.000  
R01  19766113.604   105661205.321        1359.937          24.000  
> 2021 11  6  7 26 44.9999752  0 11
C07  37857875.838   197135912.591        1069.882          20.000  
C09  37674428.636   196180661.151        -299.318          18.000  
C16  37284047.291   194147611.241        -158.515          26.000  
C23  22417429.536   116733423.088       -1821.388          29.000  
C32  22208929.278   115647661.995        1009.582          22.000  
C37  22637657.975                         843.641          33.000  
G10  20443028.186   107428795.5641      -1681.364          31.000  
G23  22431273.652   117877159.178       -3514.637          24.000  
G31  21195928.164   111385336.821         424.142          36.000  
G32  21333463.351   112108082.261         836.509          23.000  
R01  19765794.026   105659497.828        1358.001          24.000  
> 2021 11  6  7 26 45.9999749  0 10
C07  37857580.542   197134375.352        1068.652          21.000  
C09  37674399.556   196180492.476        -299.580          23.000  
C16  37283987.632   194147300.026        -156.501          30.000  
C23  22417690.056   116734776.861       -1822.973          28.000  
C32  22208645.675   115646184.179        1008.799          24.000  
C37  22637405.850   117878914.3881        842.063          35.000  
G26  23063939.467   121201799.9431       3280.096          18.000  
G31  21195759.381   111384440.851         423.974          37.000  
G32  21333215.122   112106773.815         835.200          30.000  
R01  19765446.866   105657641.742        1355.536          23.000  
> 2021 11  6  7 26 50.9999739  0 13
C07  37856255.460   197127468.973        1069.369          25.000  
C09  37674392.061   196180435.664        -305.122          15.000  
C10  38597165.838   200985592.5021        958.616          16.000  
C16  37283844.032   194146526.405        -159.506          26.000  
C23  22419145.249   116742335.985       -1825.844          30.000  
C32  22207374.555   115639591.227        1006.031          22.000  
C37  22636300.215   117873149.897         840.772          33.000  
G10  20444563.423   107436905.3981      -1686.396          33.000    20444564.622    80228845.7791      -1259.251          29.000  
G23  22434889.449   117896224.2181      -3522.853          16.000  
G31  21195055.768   111380758.232         419.382          35.000  
G32  21332108.589   112100986.584         835.463          29.000  
R01  19763873.255   105649230.240        1358.425          23.000  
R12  19912689.932   106370014.5951       1508.365          30.000  
> 2021 11  6  7 26 51.9999739  0  9
C07  37856050.402   197126398.734        1068.263          18.000  
C16  37283874.611   194146685.708        -158.887          27.000  
C23  22419494.507   116744161.320       -1826.031          23.000  
C32  22207180.889   115638585.647        1004.876          25.000  
C37  22636140.726   117872311.161         837.512          32.000  
G10  20444880.304   107438592.641       -1686.730          31.000    20444886.300    80230105.924       -1260.422          30.000  
G31  21194973.325   111380338.738         419.253          34.000  
G32  21331949.998   112100151.408         834.553          25.000  
R12  19912408.726   106368513.207        1508.002          30.000  
> 2021 11  6  7 26 52.9999739  0 10
C07  37855849.541   197125330.093        1067.535          16.000  
C16  37283903.391   194146843.724        -157.785          30.000  
C23  22419843.465   116745987.103       -1826.722          23.000  
C32  22206988.722   115637581.019        1003.777          28.000  
C37  22635977.639   117871473.120         835.785          33.000  
G10  20445201.981   107440280.778       -1689.331          35.000    20445207.677    80231365.753       -1260.511          28.000  
G26  23059272.598   121177300.2511       3269.051          15.000  
G31  21194898.977   111379919.862         417.125          35.000  
G32  21331791.708   112099317.418         833.358          32.000  
R12  19912124.223   106366993.381        1507.223          30.000  
> 2021 11  6  7 26 53.9999736  0 10
C09  37674474.804   196180875.7621       -300.744          19.000  
C16  37283843.432   194146533.008        -157.896          30.000  
C23  22420102.786   116747345.175       -1827.073          26.000  
C32  22206706.917   115636109.839        1001.710          24.000  
C37  22635726.413   117870167.403         836.821          33.000  
G10  20445436.119   107441497.014       -1691.050          35.000    20445439.117    80232275.173       -1262.027          29.000  
G23  22436804.823   117906308.8641      -3518.898          13.000  
G31  21194725.097   111379028.918         418.035          34.000  
R01  19763015.549   105644645.1441       1353.901          18.000  
R12  19911750.682   106364997.811        1506.339          30.000  
> 2021 11  6  7 26 54.9999734  0 10
C07  37855291.327   197122415.4651       1066.894          27.000  
C09  37674471.506   196180864.079        -300.541          18.000  
C16  37283813.753   194146378.407        -158.202          30.000  
C32  22206455.091   115634796.640        1001.435          22.000  
C37  22635506.365   117869018.498         837.084          30.000  
G10  20445695.140   107442870.994       -1691.142          33.000    20445700.536    80233301.723       -1262.145          30.000  
G31  21194585.094   111378296.291         417.709          34.000  
G32  21331328.828   112096864.3771        832.106          31.000  
R01  19762704.364   105642981.339        1351.870          19.000  
R12  19911407.719   106363165.759        1505.005          27.000  
> 2021 11  6  7 26 55.9999731  0 10
C07  37854994.832   197120879.921        1067.463          25.000  
C16  37283753.495   194146068.365        -158.416          30.000  
C32  22206171.787   115633326.590        1001.776          25.000  
C37  22635256.638   117867714.103         834.806          31.000  
G10  20445926.879   107444088.772       -1690.135          29.000    20445932.575    80234211.895       -1264.157          31.000  
G23  22437984.507   117912555.8551      -3518.823          12.000  
G31  21194417.210   111377406.646         417.273          34.000  
G32  21331080.001   112095560.230         831.641          33.000  
R01  19762361.402   105641147.653        1349.480          20.000  
R12  19911031.780   106361157.128        1503.538          27.000  
> 2021 11  6  7 26 56.9999729  0  9
C07  37854728.617   197119499.493        1067.912          25.000  
C09  37674435.831   196180688.7511       -304.317          19.000  
C16  37283723.216   194145914.268        -158.147          30.000  
C32  22205917.563   115632013.508        1001.071          24.000  
C37  22635040.787   117866566.560         835.189          32.000  
G10  20446189.198   107445464.176       -1691.034          28.000    20446194.594    80235240.100       -1263.760          30.000  
G31  21194278.107   111376675.326         414.509          34.000  
R01  19762049.018   105639478.018        1348.899          20.000  
R12  19910688.217   106359322.492        1502.929          28.000  
> 2021 11  6  7 26 57.9999729  0  9
C07  37854521.760   197118431.416        1068.158          25.000  
C16  37283751.996   194146072.165        -157.699          26.000  
C32  22205726.895   115631013.011        1000.203          22.000  
C37  22634879.199   117865732.927         836.514          31.000  
G10                                                                  20446516.271    80236503.188       -1262.092          26.000  
G26  23055865.157   121159391.2931       3264.876          15.000  
G31  21194200.460   111376259.740         415.302          34.000  
R01  19761793.895   105638113.953        1348.924          20.000  
R12  19910408.211   106357826.726        1502.412          29.000  
> 2021 11  6  7 26 58.9999726  0  8
C07  37854225.565   197116895.135        1067.181          22.000  
C16  37283691.737   194145762.001        -158.958          20.000  
C32  22205445.390   115629546.677         997.960          23.000  
C37  22634628.273   117864428.367         835.508          23.000  
G10                                                                  20446747.711    80237412.152       -1260.859          22.000  
G31  21194031.977   111375372.488         414.258          34.000  
G32  21330458.231   112092278.3011        830.128          22.000  
R12  19910038.567   106355851.440        1500.160          30.000  
> 2021 11  6  7 26 59.9999724  0  7
C07  37853961.448   197115516.393        1065.877          24.000  
C16  37283662.957   194145609.782        -161.047          23.000  
C37  22634407.326   117863281.290         833.231          29.000  
G10  20447008.531   107449757.2821      -1694.511          27.000    20447011.229    80238441.183       -1266.638          22.000  
G31  21193890.775   111374643.520         413.745          36.000  
G32  21330241.481   112091134.007         829.154          23.000  
R12  19909700.401   106354045.756        1497.842          30.000  
> 2021 11  6  7 27  0.9999721  0  9
C07  37853668.251   197113982.527        1064.480          26.000  
C32  22204912.359   115626768.1461        998.864          24.000  
C37  22634157.599   117861980.139         831.951          32.000  
E03                                                                                                                                  24075403.545    94477055.9411        155.168          24.000  
G10                                                                  20447245.666    80239355.230       -1267.728          23.000  
G26  23053759.414   121148318.7851       3278.100          14.000  
G31  21193724.989   111373757.813         413.147          37.000  
G32  21329994.752   112089831.691         829.329          21.000  
R12  19909328.958   106352061.210        1497.085          30.000  
> 2021 11  6  7 27  1.9999721  0 10
C07  37853463.493   197112918.636        1062.882          24.000  
C16  37283636.875   194145462.9791       -160.279          19.000  
C32  22204721.091   115625769.958         997.824          26.000  
C37  22633998.409   117861149.292         829.409          27.000  
E03                                                                                                                                  24075363.373    94476901.240         155.916          23.000  
G10  20447560.748   107452675.7541      -1697.391          23.000    20447569.442    80240623.454       -1268.146          24.000  
G25  20974885.189                       -1597.638          22.000  
G31  21193642.547   111373345.800         411.148          36.000  
G32  21329835.262   112089001.445         829.890          23.000  
R12  19909047.753   106350559.521        1497.428          29.000  
> 2021 11  6  7 27  2.9999718  0 10
C07  37853169.996   197111388.609        1061.103          26.000  
C16  37283578.116   194145155.479        -159.693          21.000  
C32  22204438.987   115624303.526         997.625          26.000  
C37  22633749.281   117859851.302         829.825          27.000  
E03                                                                                                                                  24075233.563    94476391.870         158.582          25.000  
G10  20447795.186   107453901.010       -1697.591          30.000    20447802.081    80241539.388       -1268.432          25.000  
G25  20974795.251                       -1597.638          21.000  
G26  23052428.336   121141305.2311       3265.423          17.000  
G31  21193477.361   111372461.757         410.495          34.000  
R12  19908676.610   106348575.995        1497.088          28.000  
> 2021 11  6  7 27  3.9999716  0 11
C07  37852905.579   197110013.919        1063.183          25.000  
C16  37283547.837   194145002.084        -157.023          24.000  
C20  25838131.634   134545936.9601       2644.505          30.000  
C32  22204187.461   115622994.611         996.775          25.000  
C37  22633529.234   117858709.805         829.092          31.000  
E03                                                                                                                                  24075134.032    94475999.335         154.950          24.000  
G10  20448059.603   107455285.571       -1700.307          24.000    20448064.699    80242572.986       -1269.752          26.000  
G25  20975342.972                       -1599.739          23.000  
G31  21193339.456   111371735.505         412.056          36.000  
G32  21329374.182   112086549.4271        829.869          16.000  
R12  19908336.945   106346762.355        1495.211          30.000  
> 2021 11  6  7 27  6.9999711  0 10
C07  37852145.605   197106040.966        1063.694          26.000  
C20  25836462.989   134537222.427        2644.372          29.000  
C32  22203464.661   115619231.595         991.403          23.000  
C37  22632900.569   117855443.332         828.031          30.000  
E03                                                                                                                                  24074865.717    94474948.352         152.393          28.000  
G10  20448888.529   107459606.213       -1703.401          25.000    20448886.730    80245798.212       -1272.079          25.000  
G26  23049738.898   121127146.9561       3268.174          16.000  
G31  21192955.122   111369719.151         408.946          36.000  
G32  21328752.712   112083277.378         826.259          26.000  
R12  19907351.827   106341500.005        1491.249          28.000  
> 2021 11  6  7 27  7.9999708  0 10
C07  37851851.808   197104509.675        1063.435          27.000  
C16  37283434.515   194144388.5751       -162.143          16.000  
C20  25835866.102   134534109.854        2643.877          27.000  
C37  22632652.041   117854147.207         827.948          32.000  
E03                                                                                                                                  24074735.607    94474441.518         154.062          28.000  
G10  20449123.566   107460837.589       -1703.513          28.000    20449119.369    80246716.361       -1271.390          25.000  
G25  20976326.891   110231341.3631      -1603.586          23.000  
G31  21192787.239   111368838.135         410.179          37.000  
G32  21328502.985   112081978.111         826.346          26.000  
R12  19906980.684   106339517.243        1491.124          29.000  
> 2021 11  6  7 27  8.9999706  0 11
C07  37851587.691   197103133.528        1064.320          25.000  
C16  37283403.337   194144238.408        -161.897          18.000  
C20  25835298.895   134531154.002        2643.511          27.000  
C32  22202931.330   115616465.2891        993.470          27.000  
C37  22632431.094   117853006.406         829.034          26.000  
E03                                                                                                                                  24074636.076    94474051.469         154.684          28.000  
G10  20449387.683   107462225.873       -1703.806          25.000    20449381.088    80247752.992       -1272.074          22.000  
G26  23048349.959   121119824.3341       3265.883          16.000  
G31  21192648.135   111368114.597         408.232          34.000  
G32  21328286.235   112080836.717         825.932          26.000  
R12  19906640.120   106337698.275        1491.081          29.000  
> 2021 11  6  7 27  9.9999706  0 11
C07  37851382.633   197102069.289        1063.831          32.000  
C10  38592694.434   200962288.8721        954.862          29.000  
C16  37283433.316   194144400.833        -162.526          27.000  
C32  22202741.262   115615472.279         992.837          28.000  
C37  22632272.204   117852178.051         827.442          33.000  
E03                                                                                                                                  24074597.403    94473896.980         154.410          26.000  
G10                                                                  20449704.864    80249026.799       -1275.780          25.000  
G25  20976874.612   110234235.3771      -1604.385          24.000  
G26  23047729.089   121116560.677        3261.976          28.000  
G31  21192577.984   111367706.683         408.520          32.000  
G32  21328127.345   112080011.178         825.477          30.000  
> 2021 11  6  7 27 10.9999703  0 12
C07  37851088.836   197100537.702        1062.766          32.000  
C10  38592420.123   200960866.050         953.461          29.000  
C16  37283374.857   194144097.424        -165.870          22.000  
C20  25834194.459   134525402.2781       2641.738          16.000  
C32  22202463.354   115614010.398         993.463          28.000  
C37  22632023.976   117850883.157         825.773          32.000  
E03                                                                                                                                  24074468.792    94473390.266         153.216          29.000  
G10                                                                  20449940.201    80249948.174       -1274.119          31.000  
G25  20977085.966   110235367.621       -1606.133          20.000  
G26  23047019.480   121112827.400        3259.430          28.000  
G32  21327877.618   112078713.467         824.631          26.000  
R12  19905999.763   106334277.3531       1488.616          33.000  
> 2021 11  6  7 27 11.9999703  0 12
C07  37850884.678   197099476.229        1061.031          30.000  
C10  38592236.651   200959913.331         952.599          29.000  
C16  37283405.136   194144262.389        -164.404          21.000  
C20  25833685.712   134522759.935        2643.136          26.000  
C32  22202274.485   115613018.477         991.074          27.000  
C37  22631868.084   117850058.358         823.889          31.000  
E03                                                                                                                                  24074430.119    94473236.806         153.348          30.000  
G10  20450256.482   107466867.2521      -1705.817          32.000    20450264.876    80251222.780       -1275.577          30.000  
G25  20977390.555   110236975.128       -1608.960          24.000  
G26  23046403.107   121109568.415        3257.693          26.000  
G32  21327719.327   112077888.338         825.651          28.000  
R12  19905723.055   106332799.612        1487.219          29.000  
> 2021 11  6  7 27 12.9999700  0 12
C07  37850590.282   197097947.517        1060.509          30.000  
C10  38591963.839   200958492.039         952.804          30.000  
C16  37283346.376   194143957.735        -163.798          24.000  
C20  25833085.827   134519648.651        2642.533          30.000  
C32  22201994.179   115611559.220         990.523          27.000  
C37  22631620.455                         823.069          33.000  
E03                                                                                                                                  24074301.508    94472730.863         152.592          30.000  
G10  20450490.620   107468100.975       -1706.921          33.000  
G26  23045693.498   121105836.982        3259.384          22.000  
G31  21192158.274   111365540.8731        404.031          35.000  
G32  21327471.998   112076590.077         825.479          29.000  
R12  19905355.509   106330835.344        1485.518          28.000  
> 2021 11  6  7 27 13.9999698  0 13
C07  37850326.764   197096574.196        1061.483          24.000  
C10  38591721.607   200957227.820         951.369          29.000  
C16  37283316.997   194143808.348        -161.960          23.000  
C20  25832517.121   134516694.330        2642.094          31.000  
C32  22201743.853   115610256.894         989.712          29.000  
C37  22631405.504   117847650.7791        824.790          32.000  
E03                                                                                                                                  24074202.576    94472345.942         149.446          25.000  
G10  20450752.639   107469490.213       -1704.677          34.000  
G23  22449097.813   117970756.0731      -3532.695          24.000  
G26  23045012.670   121102261.308        3261.075          16.000  
G31  21192023.967                         404.964          33.000  
G32  21327254.049   112075449.629         824.626          26.000  
R12  19905017.043   106329027.763        1484.187          29.000  
> 2021 11  6  7 27 14.9999695  0 10
C07  37850032.668   197095044.040        1061.889          20.000  
C10  38591446.697   200955806.953         953.734          25.000  
C20  25831920.234   134513583.222        2642.753          24.000  
C32  22201463.547   115608799.155         988.220          29.000  
C37  22631156.976   117846359.661         820.599          31.000  
E03                                                                                                                                  24074073.366    94471842.365         151.872          27.000  
G10  20450986.776   107470723.842       -1707.381          28.000  
G31  21191858.482   111363960.6161        404.088          37.000  
G32  21327005.222   112074152.644         824.070          29.000  
R12  19904651.596   106327075.462        1483.784          28.000  
> 2021 11  6  7 27 15.9999693  0 14
C07  37849766.752   197093670.108        1062.127          25.000  
C10  38591203.266   200954540.965         953.318          19.000  
C16  37283227.958   194143352.1371       -161.649          21.000  
C20  25831352.127   134510628.475        2642.419          29.000  
C23  22426558.217   116780973.6881      -1842.253          27.000  
C32  22201213.220   115607498.897         987.721          30.000  
C37  22630939.327   117845226.447         821.094          32.000  
E03                                                                                                                                  24073973.535    94471454.996         153.578          24.000  
G10  20451252.393   107472117.065       -1710.033          26.000  
G23  22450298.482   117977033.5191      -3532.044          18.000  
G26  23043621.033   121094954.1751       3257.668          20.000  
G31  21191718.778   111363242.456         403.459          38.000  
G32  21326786.673   112073013.621         823.380          26.000  
R12  19904313.431   106325269.146        1484.063          32.000  
> 2021 11  6  7 27 16.9999693  0 12
C07  37849562.893   197092608.191        1061.388          26.000  
C10  38591020.393   200953589.490         950.792          25.000  
C16  37283257.938   194143513.909        -162.359          20.000  
C20  25830843.679   134507986.464        2641.620          29.000  
C23  22426913.771   116782815.940       -1842.376          28.000  
C32  22201024.351   115606511.533         987.051          33.000  
C37  22630781.336   117844405.334         820.637          31.000  
E03                                                                                                                                  24073933.363    94471300.985         153.354          25.000  
G23  22450973.614   117980570.823       -3535.060          18.000  
G26  23043002.561   121091697.345        3256.095          26.000  
G31  21191639.034   111362840.416         402.799          36.000  
R12  19904033.424   106323773.659        1482.253          31.000  
> 2021 11  6  7 27 17.9999690  0 13
C07  37849272.394   197091079.752        1059.442          26.000  
C10  38590747.581   200952169.766         951.390          25.000  
C16  37283197.979   194143209.332        -164.316          22.000  
C20  25830247.392   134504877.613        2639.823          31.000  
C23  22427180.586   116784190.183       -1842.904          29.000  
C32  22200746.143   115605056.049         986.933          34.000  
C37  22630533.408   117843116.455         820.514          33.000  
E03                                                                                                                                  24073806.251    94470794.737         151.223          25.000  
G25  20978833.156   110244579.2821      -1608.253          17.000  
G26  23042294.451   121087969.920        3254.595          28.000  
G31  21191478.645   111361966.506         400.549          35.000  
G32  21326387.049   112070895.3131        823.210          29.000  
R12  19903665.279   106321806.384        1480.982          32.000  
> 2021 11  6  7 27 18.9999688  0 13
C07  37849010.975   197089708.941        1057.036          25.000  
C10  38590505.349   200950906.288         951.284          28.000  
C16  37283168.899   194143061.011        -164.007          27.000  
C20  25829679.285   134501924.852        2640.150          26.000  
C23  22427476.481   116785720.439       -1842.519          30.000  
C32  22200499.114   115603757.957         984.685          34.000  
C37  22630318.157                         818.207          34.000  
E03                                                                                                                                  24073709.118    94470408.557         151.029          25.000  
G10  20452088.814   107476464.8191      -1713.901          34.000  
G26  23041616.021   121084400.213        3254.471          29.000  
G31  21191343.138   111361251.273         399.361          37.000  
G32  21326168.201   112069756.944         822.563          26.000  
R12  19903325.614   106319992.899        1479.373          32.000  
> 2021 11  6  7 27 19.9999685  0 13
C07  37848717.178   197088183.825        1057.146          24.000  
C10  38590233.737   200949487.803         948.641          28.000  
C16  37283111.639   194142756.457        -164.757          27.000  
C23  22427740.598   116787094.893       -1842.838          27.000  
C32  22200219.408                         983.713          34.000  
C37  22630070.228   117840719.1931        817.116          35.000  
E03                                                                                                                                  24073582.006    94469905.544         148.857          26.000  
G10  20452328.048                       -1715.058          34.000  
G25  20979294.237   110247010.5681      -1610.257          18.000  
G26  23040907.612   121080673.798        3252.521          28.000  
G31  21191179.152   111360379.646         399.123          38.000  
G32  21325921.472   112068461.951         821.195          23.000  
R12  19902957.169   106318023.969        1477.712          32.000  
> 2021 11  6  7 27 20.9999683  0 13
C07  37848452.162   197086813.928        1057.599          25.000  
C10  38589991.505   200948227.226         949.163          29.000  
C16  37283085.557   194142609.202        -165.373          26.000  
C23  22428036.194   116788626.119       -1844.403          29.000  
C32  22199972.379   115601071.3711        983.153          33.000  
C37  22629856.476                         815.888          34.000  
E03                                                                                                                                  24073484.873    94469522.245         148.359          26.000  
G10  20452595.463   107479109.5011      -1716.669          34.000  
G26  23040230.081   121077106.689        3252.388          27.000  
G31  21191043.046   111359666.036         397.736          38.000  
G32  21325705.621   112067325.827         820.568          28.000  
R01  19754669.627   105600030.6351       1329.340          30.000  
R12  19902619.004   106316217.485        1476.628          32.000  
> 2021 11  6  7 27 21.9999683  0 15
C07  37848248.003   197085757.154        1056.495          24.000  
C10  38589809.531   200947278.299         948.631          29.000  
C16  37283118.534   194142774.005        -165.669          27.000  
C20  25828002.546   134493223.6711       2641.135          21.000  
C23  22428391.148   116790470.116       -1844.966          29.000  
C32  22199784.409   115600087.684         982.312          33.000  
C37  22629699.985   117838772.8971        816.988          33.000  
E03                                                                                                                                  24073446.800    94469374.383         148.538          27.000  
G10  20452921.037   107480825.723       -1716.424          34.000  
G25  20979853.350   110249921.3221      -1613.754          18.000  
G26  23039609.510   121073853.849        3252.603          28.000  
G31  21190967.498   111359267.988         396.596          38.000  
G32  21325549.729   112066505.474         820.234          27.000  
R01  19754420.499   105598699.544        1328.803          29.000  
R12  19902341.995   106314738.100        1475.927          32.000  
> 2021 11  6  7 27 22.9999680  0 14
C10  38589537.319   200945861.513         947.867          29.000  
C16  37283060.974   194142470.458        -164.138          27.000  
C20  25827405.359   134490114.371        2640.754          21.000  
C23  22428657.364   116791847.101       -1845.424          27.000  
C32  22199506.501   115598636.381         981.786          33.000  
C37  22629448.759   117837488.765         815.643          34.000  
E03                                                                                                                                  24073319.388    94468873.061         148.657          26.000  
G10  20453158.773   107482070.274       -1718.546          35.000  
G25  20980073.697   110251064.294       -1617.753          19.000  
G26  23038899.901   121070129.494        3251.238          27.000  
G31  21190802.613   111358398.050         397.507          39.000  
G32  21325303.899   112065212.492         819.791          28.000  
R01  19754082.933   105596895.298        1327.992          30.000  
R12  19901973.850   106312772.021        1474.926          31.000  
> 2021 11  6  7 27 23.9999677  0 15
C07  37847656.812   197082706.4711       1056.342          23.000  
C10  38589265.108   200944445.260         947.814          30.000  
C16  37283003.114   194142165.940        -164.382          27.000  
C20  25826807.573   134487006.478        2638.483          21.000  
C23  22428921.481   116793224.201       -1846.372          28.000  
C32  22199224.996   115597185.608         982.732          33.000  
C37  22629204.728   117836205.272         814.228          33.000  
E03                                                                                                                                  24073191.376    94468372.952         146.524          27.000  
G10  20453393.211   107483315.659       -1717.179          34.000  
G25  20980291.047   110252210.707       -1621.410          19.000  
G26  23038189.993   121066405.130        3251.575          27.000  
G31  21190636.228   111357528.638         395.677          38.000  
G32  21325058.669   112063920.275         819.339          28.000  
R01  19753744.167   105595083.867        1327.245          30.000  
R12  19901608.703   106310820.876        1473.856          31.000  
> 2021 11  6  7 27 24.9999675  0 14
C07  37847392.995   197081338.061        1055.180          23.000  
C10  38589022.576   200943184.612         948.395          30.000  
C16  37282975.833   194142017.919        -165.315          27.000  
C23  22429213.778   116794758.196       -1846.962          25.000  
C32  22198974.070   115595891.755         982.722          32.000  
C37  22628988.877   117835078.743         814.159          33.000  
E03                                                                                                                                  24073092.745    94467989.776         148.999          27.000  
G10  20453659.126   107484719.641       -1718.852          34.000    20453664.523    80264556.9331      -1283.393          27.000  
G25  20980540.474   110253516.911       -1620.316          19.000  
G26  23037509.464   121062838.196        3251.892          27.000  
G31  21190500.422   111356817.663         395.513          38.000  
G32  21324843.118   112062785.438         819.232          29.000    21324849.414    83683288.4261        612.111          29.000  
R01  19753437.480   105593444.599        1325.059          28.000  
R12  19901273.535   106309030.939        1472.685          31.000  
> 2021 11  6  7 27 25.9999672  0 13
C07  37847100.398   197079814.881        1054.500          24.000  
C10  38588751.263   200941768.183         948.153          29.000  
C16  37282917.673   194141713.891        -164.490          25.000  
C32  22198697.661   115594442.515         980.523          32.000  
C37  22628740.649   117833796.848         813.164          33.000  
E03                                                                                                                                  24072963.834    94467487.920         147.336          26.000  
G10  20453899.260   107485967.121       -1720.516          33.000    20453901.958    80265488.805       -1285.935          27.000  
G23  22456399.858   118009088.2891      -3539.084          24.000  
G26  23036801.054   121059113.984        3251.349          27.000  
G31  21190336.136   111355949.843         394.664          38.000  
G32  21324598.188   112061494.336         817.759          29.000    21324603.584    83682323.649         611.277          30.000  
R01  19753094.817   105591612.479        1324.322          28.000  
R12  19900906.289   106307068.422        1471.610          30.000  
> 2021 11  6  7 27 26.9999672  0 14
C07  37846898.637   197078760.873        1053.681          24.000  
C10  38588568.990   200940820.183         947.932          30.000  
C16  37282948.852   194141879.930        -166.774          25.000  
C20  25825132.932   134478308.8001       2639.776          22.000  
C32  22198508.193   115593462.239         982.113          32.000  
C37  22628583.558   117832983.953         813.991          33.000  
E03                                                                                                                                  24072926.060    94467340.713         146.360          25.000  
G10  20454226.634   107487688.017       -1719.505          34.000    20454229.931    80266774.743       -1285.573          27.000  
G23  22457070.494   118012626.739       -3538.697          24.000  
G26  23036181.084   121055863.224        3250.142          27.000  
G31  21190259.089   111355555.306         395.115          38.000  
G32  21324443.495   112060677.038         816.927          29.000    21324447.692    83681712.502         611.430          30.000  
R01  19752842.392   105590263.385        1323.945          29.000  
R12  19900627.482   106305579.061        1470.781          30.000  
> 2021 11  6  7 27 27.9999670  0 14
C07  37846636.619   197077394.689        1054.042          25.000  
C10  38588326.757   200939560.253         947.352          30.000  
C16  37282921.570   194141734.092        -167.046          23.000  
C20  25824565.425   134475357.276        2637.955          23.000  
C32  22198262.363   115592170.363         979.433          32.000  
C37  22628367.407   117831859.507         812.792          33.000  
E03                                                                                                                                  24072829.527    94466958.932         147.280          26.000  
G10  20454497.946   107489094.798       -1722.335          33.000    20454497.646    80267825.411       -1286.445          28.000  
G23  22457683.869   118015850.306       -3538.113          25.000  
G26  23035502.354   121052298.359        3248.459          27.000  
G31  21190125.082   111354846.335         393.434          38.000  
G32  21324229.743   112059545.091         816.033          29.000    21324232.441    83680866.616         611.095          30.000  
R01  19752531.507   105588601.852        1324.304          30.000  
R12  19900292.314   106303789.121        1470.325          30.000  
> 2021 11  6  7 27 28.9999670  0 14
C07  37846434.559   197076341.715        1052.962          25.000  
C10  38588146.282   200938612.927         946.534          30.000  
C16  37282955.447   194141901.644        -168.694          24.000  
C20  25824060.275   134472719.205        2638.227          21.000  
C32  22198073.793   115591191.501         979.540          31.000  
C37  22628214.213   117831048.131         810.111          33.000  
E03                                                                                                                                  24072791.453    94466810.439         148.699          26.000  
G10                                                                  20454825.619    80269112.513       -1287.452          28.000  
G23  22458356.603   118019388.154       -3537.294          24.000  
G26  23034882.982   121049049.338        3249.013          28.000  
G31  21190048.335   111354453.227         393.300          37.000  
G32  21324076.849   112058729.658         815.295          29.000    21324076.849    83680255.856         610.105          30.000  
R01  19752282.379   105587269.702        1324.082          29.000  
R12  19900017.105   106302318.976        1468.728          29.000  
> 2021 11  6  7 27 29.9999667  0 14
C07  37846141.961   197074819.380        1053.424          25.000  
C10  38587876.169   200937198.147         946.347          31.000  
C16  37282899.386   194141601.687        -168.345          26.000  
C20  25823466.686   134469613.033        2636.728          23.000  
C32  22197793.188   115589745.136         979.588          32.000  
C37  22627964.186   117829769.236         810.003          33.000  
E03                                                                                                                                  24072664.641    94466309.781         148.248          26.000  
G10  20455054.361   107492069.0021      -1724.370          32.000    20455063.954    80270046.619       -1287.288          27.000  
G23  22458940.899   118022454.185       -3539.893          25.000  
G26  23034173.673   121045327.525        3249.032          27.000  
G31  21189883.749   111353588.346         390.830          37.000  
G32  21323834.017   112057441.130         814.990          29.000    21323831.918    83679294.334         607.958          29.000  
R01  19751943.314   105585457.310        1322.744          29.000  
R12  19899651.958   106300368.063        1468.152          30.000  
> 2021 11  6  7 27 30.9999665  0 14
C07  37845880.842   197073454.434        1052.593          26.000  
C10  38587635.736   200935939.821         945.754          30.000  
C16  37282872.704   194141458.000        -169.219          24.000  
C20  25822900.078   134466664.964        2635.124          23.000  
C32  22197543.760   115588455.646         977.025          31.000  
C37  22627748.636   117828647.307         810.484          32.000  
E03                                                                                                                                  24072567.808    94465927.427         145.883          26.000  
G10  20455317.279   107493478.922       -1724.596          32.000    20455331.369    80271100.273       -1290.535          27.000  
G23  22459555.173   118025680.175       -3542.495          26.000  
G26  23033495.843   121041763.210        3248.695          28.000  
G31  21189748.542   111352881.808         391.211          36.000  
G32  21323619.365   112056310.362         815.508          29.000    21323616.967    83678451.113         607.277          30.000  
R01  19751637.226   105583821.148        1321.812          31.000  
R12  19899321.287   106298602.115        1466.548          30.000  
> 2021 11  6  7 27 31.9999662  0 13
C07  37845588.844   197071933.369        1054.555          26.000  
C10  38587365.023   200934525.332         946.191          30.000  
C16  37282815.744   194141158.173        -168.022          25.000  
C32  22197267.052   115587010.697         975.980          32.000  
C37  22627505.504   117827369.887         808.391          32.000  
E03                                                                                                                                  24072440.696    94465429.118         144.846          25.000  
G10  20455558.312   107494732.189       -1727.319          32.000    20455570.303    80272037.550       -1289.906          29.000  
G23  22460139.469   118028750.818       -3543.844          26.000  
G26  23032788.033   121038042.233        3247.693          28.000  
G31  21189586.055   111352018.319         390.937          36.000  
G32  21323374.135   112055022.131         815.875          28.000    21323372.037    83677489.521         610.494          30.000  
R01  19751302.658   105582032.688        1321.497          30.000  
R12  19898959.737   106296670.342        1466.598          30.000  
> 2021 11  6  7 27 32.9999662  0 14
C07  37845389.182   197070879.910        1052.868          25.000  
C10  38587183.349   200933580.269         944.314          30.000  
C16  37282849.920   194141326.555        -169.395          25.000  
C20  25821803.737   134460930.8311       2633.513          23.000  
C32  22197080.581   115586034.804         977.861          31.000  
C37  22627348.712   117826561.575         808.000          32.000  
E03                                                                                                                                  24072403.822    94465284.842         144.185          26.000  
G10  20455889.882   107496459.072       -1726.979          31.000    20455899.176    80273327.971       -1288.082          27.000  
G23  22460812.503   118032295.480       -3544.310          25.000  
G26  23032171.060   121034795.478        3245.701          28.000  
G31  21189509.008   111351628.238         388.630          36.000  
G32  21323217.943   112054206.591         814.933          28.000    21323216.145    83676880.326         609.522          30.000  
R01  19751058.926   105580730.084        1321.912          31.000  
R12  19898689.624   106295227.696        1463.533          29.000  
> 2021 11  6  7 27 33.9999660  0 15
C03  36377814.863   189428827.8961       -326.648          28.000  
C07  37845127.164   197069514.943        1052.131          26.000  
C10  38586942.316   200932323.301         945.359          31.000  
C16  37282820.840   194141183.994        -169.433          25.000  
C20  25821236.830   134457984.608        2633.547          22.000  
C32  22196833.552   115584747.232         973.220          32.000  
C37  22627130.164   117825441.650         805.666          32.000  
E03                                                                                                                                  24072307.288    94464904.939         143.856          25.000  
G10  20456160.295   107497871.717       -1728.077          32.000    20456167.190    80274381.097       -1289.319          27.000  
G23  22461424.679   118035524.946       -3544.638          26.000  
G26  23031495.927   121031234.381        3246.389          28.000  
G31  21189376.500   111350923.630         388.475          36.000  
G32  21323003.892   112053076.556         814.822          29.000    21323001.193    83676036.206         607.295          30.000  
R01  19750754.937   105579105.242        1319.648          30.000  
R12  19898358.053   106293456.789        1462.250          29.000  
> 2021 11  6  7 27 34.9999657  0 14
C07  37844835.466   197067994.597        1051.569          25.000  
C10  38586671.303   200930909.701         945.335          31.000  
C16  37282763.580   194140884.702        -168.262          25.000  
C20  25820641.442   134454883.095        2632.577          24.000  
C32  22196557.743   115583304.256         976.626          31.000  
C37  22626886.432   117824166.408         807.727          32.000  
E03                                                                                                                                  24072179.577    94464406.938         144.209          26.000  
G10  20456399.529   107499127.755       -1727.595          31.000    20456405.825    80275317.092       -1289.215          28.000  
G23  22462008.375   118038597.051       -3544.506          26.000  
G26  23030788.117   121027515.014        3245.443          28.000  
G31  21189212.813   111350062.234         388.590          37.000  
G32  21322759.561   112051789.080         814.287          28.000    21322756.563    83675075.572         607.804          30.000  
R01  19750420.668   105577317.713        1318.942          30.000  
R12  19897994.705   106291515.639        1462.248          29.000  
> 2021 11  6  7 27 35.9999654  0 14
C07  37844544.667   197066475.699        1051.093          26.000  
C10  38586399.392   200929496.563         943.680          31.000  
C16  37282705.120   194140584.479        -168.485          26.000  
C20  25820046.953   134451782.760        2631.738          22.000  
C32  22196279.535   115581861.975         975.690          31.000  
C37  22626644.800   117822891.852         805.973          32.000  
E03                                                                                                                                  24072053.064    94463909.477         142.978          25.000  
G10  20456637.864   107500384.802       -1729.848          32.000    20456645.359    80276255.135       -1292.956          28.000  
G23  22462594.170   118041668.959       -3545.381          25.000  
G26  23030082.106   121023796.973        3246.127          29.000  
G31  21189047.328   111349201.523         388.010          37.000  
G32  21322514.630   112050502.197         814.614          27.000    21322511.632    83674113.497         608.791          30.000  
R01  19750084.601   105575521.316        1317.946          30.000  
R12  19897632.556   106289581.239        1461.039          29.000  
> 2021 11  6  7 27 36.9999652  0 15
C07  37844284.147   197065111.923        1051.923          25.000  
C10  38586157.759   200928240.874         942.892          30.000  
C16  37282676.940   194140440.741        -168.430          27.000  
C20  25819482.744   134448838.204        2632.386          21.000  
C32  22196031.007   115580576.486         972.957          31.000  
C37  22626427.150   117821774.207         806.037          32.000  
E03                                                                                                                                  24071956.231    94463530.426         144.251          25.000  
G10  20456910.675   107501800.317       -1730.760          33.000    20456915.172    80277312.980       -1292.124          27.000  
G23  22463207.845   118044899.406       -3546.025          26.000  
G25  20983557.885   110269385.7501      -1636.188          16.000  
G26  23029406.074   121020236.493        3245.240          29.000  
G31  21188913.620   111348499.081         386.711          36.000  
G32  21322298.480   112049373.074         812.794          26.000    21322296.381    83673269.459         608.283          30.000  
R01  19749780.012   105573893.539        1316.565          30.000  
R12  19897299.186   106287800.638        1459.586          29.000  
> 2021 11  6  7 27 37.9999649  0 15
C07  37843993.948   197063591.506        1051.830          27.000  
C10  38585886.447   200926829.680         942.059          31.000  
C16  37282618.480   194140140.531        -168.563          27.000  
C20  25818885.857   134445738.123        2631.225          22.000  
C32  22195756.997   115579135.666         972.264          31.000  
C37  22626185.818   117820501.158         804.427          32.000  
E03                                                                                                                                  24071829.719    94463033.331         145.702          25.000  
G10  20457145.413   107503059.340       -1731.407          32.000    20457154.706    80278252.084       -1292.350          27.000  
G23  22463793.339   118047972.577       -3546.777          26.000  
G25  20983778.532   110270547.156       -1633.757          16.000  
G26  23028699.163   121016518.931        3244.681          28.000  
G31  21188749.634   111347639.867         386.682          36.000  
G32  21322052.650   112048087.901         811.414          27.000    21322052.051    83672309.859         606.547          30.000  
R01  19749446.942   105572112.633        1314.593          31.000  
R12  19896935.538   106285857.673        1458.841          29.000  
> 2021 11  6  7 27 38.9999649  0 13
C07  37843792.488   197062540.127        1051.025          25.000  
C10  38585704.473   200925887.292         942.842          30.000  
C16  37282649.659   194140309.134        -168.439          26.000  
C20  25818381.307   134443105.816        2632.293          22.000  
C32  22195571.725   115578163.833         971.265          31.000  
C37  22626030.525   117819697.090         802.713          32.000  
E03                                                                                                                                  24071792.545    94462888.268         144.840          26.000  
G10  20457476.983   107504791.832       -1733.428          32.000    20457484.778    80279545.079       -1293.028          28.000  
G23  22464467.873   118051519.833       -3547.547          25.000  
G26  23028081.591   121013274.555        3243.888          29.000  
G31  21188677.684   111347253.859         386.635          36.000  
G32  21321895.859   112047276.092         812.235          28.000    21321897.358    83671703.640         606.875          30.000  
R12  19896663.327   106284403.698        1459.415          28.000  
> 2021 11  6  7 27 39.9999647  0 15
C07  37843530.469   197061176.329        1051.313          25.000  
C09  37674515.276   196181060.3091       -315.235          22.000  
C10  38585463.440   200924632.293         942.210          30.000  
C16  37282619.380   194140164.573        -167.224          27.000  
C20  25817814.699   134440161.326        2631.919          22.000  
C32  22195326.195   115576880.391         970.419          31.000  
C37  22625816.773   117818581.542         802.597          32.000  
E03                                                                                                                                  24071696.611    94462508.185         144.941          25.000  
G10  20457748.595   107506210.191       -1734.980          33.000    20457755.191    80280603.165       -1294.365          28.000  
G23  22465080.948   118054752.447       -3547.887          25.000  
G26  23027404.360   121009715.642        3243.498          28.000  
G31  21188545.175   111346553.493         384.036          36.000  
G32  21321681.207   112046148.848         812.188          27.000    21321683.006    83670861.874         605.772          30.000  
R01  19748895.924   105569167.2381       1313.245          30.000  
R12  19896328.159   106282613.689        1457.444          28.000  
> 2021 11  6  7 27 40.9999644  0 14
C07  37843239.670   197059656.977        1050.688          26.000  
C09  37674485.896   196180906.261        -312.274          21.000  
C10  38585192.727   200923222.215         940.607          30.000  
C16  37282560.620   194139863.454        -167.071          26.000  
C32  22195047.688   115575441.657         970.866          31.000  
C37  22625574.840   117817310.689         802.459          32.000  
E03                                                                                                                                  24071569.799    94462011.285         141.774          24.000  
G10  20457992.926   107507472.048       -1733.511          33.000    20457995.624    80281545.039       -1295.958          28.000  
G23  22465664.644   118057827.756       -3547.384          25.000  
G26  23026698.348   121005999.835        3242.786          29.000  
G31  21188385.086   111345696.337         382.522          36.000  
G32  21321435.677   112044864.494         812.067          29.000    21321438.975    83669903.379         605.504          31.000  
R01  19748560.456   105567374.365        1313.256          31.000  
R12  19895963.611   106280665.860        1456.029          29.000  
> 2021 11  6  7 27 41.9999642  0 15
C07  37842978.251   197058294.481        1049.815          26.000  
C09  37674484.997   196180906.411        -312.299          20.000  
C10  38584951.394   200921968.572         942.111          30.000  
C16  37282533.339   194139718.511        -167.100          25.000  
C32  22194804.856   115574159.663         967.953          31.000  
C37  22625357.491   117816196.649         800.288          33.000  
E03                                                                                                                                  24071473.566    94461633.571         142.058          25.000  
G10  20458265.737   107508892.362       -1736.217          33.000    20458266.337    80282605.785       -1295.263          27.000  
G23  22466277.420   118061061.104       -3549.557          25.000  
G25  20984818.812   110275986.8471      -1641.128          17.000  
G26  23026021.717   121002442.288        3242.127          28.000  
G31  21188250.479   111344997.462         382.574          36.000  
G32  21321221.625   112043737.270         812.084          29.000    21321224.324    83669062.155         605.790          30.000  
R01  19748253.469   105565732.835        1313.004          31.000  
R12  19895629.942   106278883.120        1456.271          29.000  
> 2021 11  6  7 27 42.9999639  0 15
C07  37842687.153   197056777.411        1048.532          26.000  
C09  37674456.516   196180751.343        -314.378          22.000  
C10  38584680.082   200920558.567         941.468          31.000  
C16  37282476.678   194139418.793        -170.130          26.000  
C20  25816051.919   134431014.3661       2633.555          23.000  
C32  22194526.049   115572722.341         969.699          31.000  
C37  22625117.057   117814927.293         801.664          33.000  
E03                                                                                                                                  24071347.353    94461138.083         142.526          25.000  
G10  20458501.374   107510156.148       -1736.992          33.000    20458506.471    80283548.397       -1295.347          28.000  
G23  22466859.617   118064138.056       -3549.637          24.000  
G26  23025313.307   120998727.747        3241.395          28.000  
G31  21188086.193   111344141.765         382.504          36.000  
G32  21320977.894   112042453.373         810.621          29.000    21320979.993    83668103.089         605.977          29.000  
R01  19747914.104   105563918.794        1311.114          30.000  
R12  19895263.296   106276924.920        1453.449          28.000  
> 2021 11  6  7 27 43.9999636  0 14
C07  37842396.354   197055261.059        1047.629          26.000  
C09  37674428.036   196180597.253        -314.360          21.000  
C10  38584409.069   200919148.595         940.253          31.000  
C16  37282418.819   194139120.681        -171.015          27.000  
C32  22194252.639   115571285.797         967.591          30.000  
C37  22624877.223   117813658.779         799.873          33.000  
E03                                                                                                                                  24071220.841    94460642.627         141.828          25.000  
G10  20458741.208   107511421.058       -1737.908          33.000    20458746.305    80284492.551       -1298.997          28.000  
G23  22467448.109   118067215.559       -3551.386          23.000  
G26  23024605.797   120995013.838        3241.022          28.000  
G31  21187924.605   111343286.862         382.447          36.000  
G32  21320732.964   112041170.870         808.953          27.000    21320735.662    83667144.527         605.774          30.000  
R01  19747576.837   105562116.029        1310.599          30.000  
R12  19894899.947   106274983.706        1451.981          28.000  
> 2021 11  6  7 27 44.9999636  0 15
C07  37842195.193   197054212.696        1048.536          26.000  
C09  37674490.693   196180910.804        -313.418          22.000  
C10  38584229.194   200918208.343         939.834          30.000  
C16  37282449.697   194139292.574        -171.399          26.000  
C20  25814950.781   134425281.4351       2629.809          24.000  
C32  22194064.669   115570318.270         967.570          30.000  
C37  22624720.132   117812859.239         799.274          33.000  
E03                                                                                                                                  24071185.465    94460502.070         139.024          25.000  
G10  20459072.479   107513159.463       -1738.364          33.000    20459077.875    80285791.343       -1298.220          28.000  
G23  22468124.441   118070767.418       -3551.521          22.000  
G26  23023989.124   120991773.052        3240.228          28.000  
G31  21187852.955   111342905.262         381.026          36.000  
G32  21320577.671   112040362.057         808.417          29.000    21320581.269    83666539.495         604.682          30.000  
R01  19747326.211   105560776.011        1309.663          30.000  
R12  19894626.836   106273524.967        1451.065          27.000  
> 2021 11  6  7 27 45.9999636  0 15
C07  37841993.733   197053164.710        1047.511          25.000  
C09  37674551.850   196181223.279        -310.998          21.000  
C10  38584049.618   200917268.729         938.914          30.000  
C16  37282482.075   194139464.096        -171.609          26.000  
C32  22193879.097   115569351.475         964.324          31.000  
C37  22624569.636   117812060.529         798.144          34.000  
E03                                                                                                                                  24071150.389    94460363.346         138.527          25.000  
G10  20459401.651   107514898.853       -1740.231          32.000    20459408.546    80287090.220       -1298.260          27.000  
G23  22468801.372   118074319.641       -3553.096          21.000  
G25  20985909.457   110281608.3791      -1641.239          20.000  
G26  23023372.151   120988532.863        3239.969          28.000  
G31  21187779.805   111342524.423         379.533          36.000  
G32  21320422.978   112039553.929         807.298          28.000    21320428.075    83665935.502         603.936          30.000  
R01  19747080.081   105559461.072        1309.021          31.000  
R12  19894358.822   106272093.816        1451.407          27.000  
> 2021 11  6  7 27 46.9999634  0 15
C07  37841733.513   197051805.387        1046.754          26.000  
C09  37674550.352   196181221.401        -310.439          21.000  
C10  38583809.185   200916017.405         938.962          30.000  
C16  37282452.695   194139323.466        -171.620          25.000  
C32  22193637.764   115568073.272         965.732          30.000  
C37  22624355.884   117810950.471         796.715          34.000  
E03                                                                                                                                  24071055.055    94459988.615         140.698          25.000  
G10  20459673.863   107516324.286       -1740.062          32.000    20459679.559    80288154.490       -1300.362          27.000  
G23  22469417.146   118077556.376       -3552.461          22.000  
G25  20986163.082   110282934.364       -1641.138          20.000  
G26  23022693.421   120984978.074        3239.278          27.000  
G31  21187651.194   111341829.336         380.516          36.000  
G32  21320206.528   112038431.210         808.318          28.000    21320214.323    83665096.318         604.262          30.000  
R01  19746776.991   105557840.156        1307.894          31.000  
R12  19894022.455   106270296.447        1447.226          27.000  
> 2021 11  6  7 27 47.9999631  0 14
C07  37841443.614   197050290.291        1046.983          26.000  
C09  37674520.672   196181064.327        -311.046          21.000  
C10  38583539.072   200914610.284         938.504          30.000  
C16  37282396.334   194139026.749        -171.987          25.000  
C32  22193358.658   115566639.637         965.279          31.000  
C37  22624114.551   117809685.038         797.136          34.000  
E03                                                                                                                                  24070928.843    94459494.436         140.819          25.000  
G10  20459914.296   107517593.116       -1741.295          32.000    20459920.592    80289101.207       -1300.332          27.000  
G23  22470000.542   118080636.659       -3552.595          22.000  
G26  23021985.911   120981266.338        3238.815          27.000  
G31  21187485.409   111340977.463         378.287          36.000  
G32  21319961.898   112037150.079         808.222          28.000    21319970.591    83664139.273         603.621          30.000  
R01  19746443.921   105556060.257        1307.503          32.000  
R12  19893661.805   106268369.653        1448.407          27.000  
> 2021 11  6  7 27 48.9999629  0 14
C07  37841182.195   197048932.481        1044.435          25.000  
C09  37674522.471   196181063.624        -311.288          21.000  
C10  38583299.238   200913359.692         937.956          31.000  
C16  37282369.353   194138885.907        -170.702          26.000  
C20  25812716.428   134413664.7731       2629.875          24.000  
C32  22193114.027   115565363.363         963.200          31.000  
C37  22623901.699   117808576.863         795.521          34.000  
E03                                                                                                                                  24070832.909    94459117.863         139.674          24.000  
G10  20460184.409   107519020.944       -1742.823          33.000    20460191.904    80290166.437       -1300.658          27.000  
G26  23021308.979   120977712.846        3238.271          27.000  
G31  21187354.100   111340284.230         377.488          36.000  
G32  21319748.445   112036026.749         807.880          28.000    21319756.540    83663300.542         602.499          30.000  
R01  19746140.831   105554439.403        1306.318          32.000  
R12  19893331.733   106266607.131        1444.951          26.000  
> 2021 11  6  7 27 49.9999626  0 13
C07  37840891.996   197047420.364        1042.788          26.000  
C10  38583028.525   200911953.382         937.560          31.000  
C16  37282312.692   194138588.825        -171.231          27.000  
C32  22192837.318   115563932.015         962.852          31.000  
C37  22623660.066   117807313.797         794.736          35.000  
E03                                                                                                                                  24070707.896    94458626.886         137.982          24.000  
G10  20460427.841   107520292.581       -1743.949          32.000    20460433.237    80291114.476       -1302.511          28.000  
G23  22471203.010   118086953.0031      -3553.208          17.000  
G26  23020600.870   120974003.125        3236.538          27.000  
G31  21187190.413   111339434.617         377.490          36.000  
G32  21319504.714   112034746.210         807.150          28.000    21319513.108    83662345.872         601.452          30.000  
R01  19745807.762   105552659.204        1304.547          32.000  
R12  19892970.783   106264679.070        1444.139          26.000  
> 2021 11  6  7 27 50.9999626  0 16
C07  37840693.533   197046377.635        1042.423          26.000  
C09  37674548.253   196181220.1691       -312.696          19.000  
C10  38582848.050   200911015.783         937.224          30.000  
C16  37282346.569   194138760.240        -171.720          27.000  
C20  25811620.987   134407939.0201       2626.325          25.000  
C32  22192654.745   115562969.234         963.398          31.000  
C37  22623507.472   117806519.284         794.991          34.000  
E02                                                                                                                                  23444530.189    92001371.8691        641.775          24.000  
E03                                                                                                                                  24070672.820    94458489.041         138.241          25.000  
G10  20460758.811   107522037.357       -1746.170          32.000    20460765.107    80292417.114       -1303.678          28.000  
G26  23019982.398   120970766.242        3237.392          26.000  
G31  21187118.463   111339057.901         377.563          36.000  
G32  21319351.820   112033940.290         805.620          28.000    21319359.914    83661744.718         602.068          30.000  
R01  19745564.630   105551359.772        1303.654          32.000  
R08  20632336.930                       -1671.067          26.000  
R12  19892698.571   106263224.539        1445.952          27.000  
> 2021 11  6  7 27 51.9999624  0 18
C07  37840432.114   197045021.518        1044.843          25.000  
C09  37674547.354   196181222.580        -315.534          22.000  
C10  38582607.916   200909766.066         937.989          30.000  
C16  37282319.887   194138620.665        -173.554          27.000  
C20  25811057.976   134405000.235        2626.077          25.000  
C23  22437300.080   116836909.0521      -1862.617          29.000  
C32  22192405.317   115561694.950         962.047          31.000  
C37  22623294.319   117805413.259         792.596          35.000  
E02                                                                                                                                  23444307.444    92000494.068         643.014          25.000  
E03                                                                                                                                  24070576.587    94458115.405         138.999          23.000  
G10  20461029.524   107523467.961       -1745.752          32.000    20461037.918    80293484.888       -1302.866          28.000  
G25  20987441.097   110289594.4601      -1647.606          18.000  
G26  23019307.265   120967214.121        3236.574          26.000  
G31  21186985.955   111338366.729         376.288          36.000  
G32  21319138.368   112032819.760         805.079          27.000    21319146.762    83660908.064         602.097          30.000  
R01  19745258.842   105549724.751        1303.912          31.000  
R08  20632596.551                       -1672.504          28.000  
R12  19892362.204   106261427.588        1444.534          26.000  
> 2021 11  6  7 27 52.9999621  0 18
C07  37840141.315   197043509.342        1043.460          26.000  
C09  37674517.075   196181070.801        -316.198          22.000  
C10  38582336.604   200908360.292         937.113          30.000  
C16  37282262.027   194138325.391        -172.612          27.000  
C20  25810464.088   134401905.960        2625.052          24.000  
C23  22437566.596   116838304.023       -1864.426          30.000  
C32  22192132.506   115560265.238         960.979          31.000  
C37  22623052.687   117804151.922         792.038          34.000  
E02                                                                                                                                  23444053.819    91999497.606         643.101          25.000  
E03                                                                                                                                  24070451.573    94457623.860         138.221          25.000  
G10  20461271.756   107524741.974       -1746.455          32.000    20461280.151    80294435.655       -1303.730          28.000  
G25  20987666.841   110290770.296       -1648.728          16.000  
G26  23018601.854   120963504.909        3236.351          27.000  
G31  21186826.765   111337518.796         375.952          36.000  
G32  21318895.536   112031541.581         805.668          29.000    21318903.330    83659953.476         600.756          30.000  
R01  19744925.473   105547943.435        1303.498          31.000  
R08  20632823.194   110487830.4961      -1674.240          27.000  
R12  19892002.753   106259507.623        1442.497          26.000  
> 2021 11  6  7 27 53.9999619  0 18
C07  37839880.796   197042152.933        1044.285          26.000  
C09  37674516.475   196181075.132        -315.440          22.000  
C10  38582096.470   200907111.038         936.362          31.000  
C16  37282236.245   194138185.774        -173.165          27.000  
C20  25809901.677   134398967.860        2626.885          24.000  
C23  22437863.990   116839856.298       -1864.424          29.000  
C32  22191892.373   115558992.432         960.856          31.000  
C37  22622839.234   117803047.413         792.708          35.000  
E02                                                                                                                                  23443830.174    91998619.886         641.354          25.000  
E03                                                                                                                                  24070356.239    94457250.046         138.338          24.000  
G10  20461545.767   107526174.612       -1749.474          32.000    20461552.962    80295505.443       -1305.447          27.000  
G25  20987922.564   110292104.190       -1649.085          16.000  
G26  23017925.522   120959953.343        3235.884          26.000  
G31  21186695.156   111336829.135         373.644          36.000  
G32  21318683.283   112030421.384         803.392          28.000    21318690.178    83659117.691         600.280          30.000  
R01  19744620.883   105546314.381        1300.644          30.000  
R08  20633079.216   110489201.995       -1676.015          28.000  
R12  19891676.879   106257766.700        1443.699          26.000  
> 2021 11  6  7 27 54.9999616  0 19
C07  37839590.297   197040640.260        1044.760          27.000  
C09  37674486.496   196180922.797        -316.393          21.000  
C10  38581826.357   200905706.262         936.310          30.000  
C16  37282179.284   194137890.334        -173.697          26.000  
C20  25809311.086   134395872.681        2627.151          26.000  
C23  22438131.705   116841253.153       -1866.406          30.000  
C32  22191617.763   115557564.271         960.990          30.000  
C37  22622599.400   117801787.682         789.675          35.000  
E02                                                                                                                                  23443577.149    91997624.651         641.090          25.000  
E03                                                                                                                                  24070230.626    94456758.923         139.243          25.000  
G10  20461785.001   107527450.765       -1749.915          31.000    20461795.494    80296458.884       -1306.781          28.000  
G23  22474273.184   118103156.5821      -3558.346          15.000  
G25  20988152.205   110293277.986       -1644.441          15.000  
G26  23017219.511   120956244.829        3235.258          26.000  
G31  21186533.268   111335982.802         375.496          36.000  
G32  21318441.650   112029145.443         802.376          28.000    21318447.046    83658164.371         600.942          30.000  
R01  19744286.315   105544526.057        1300.644          32.000  
R08  20633305.260   110490412.388       -1676.610          28.000  
R12  19891318.027   106255850.200        1441.388          25.000  
> 2021 11  6  7 27 55.9999613  0 17
C07  37839299.798   197039127.162        1043.360          26.000  
C10  38581555.945   200904302.055         935.182          30.000  
C16  37282122.923   194137595.916        -173.574          25.000  
C20  25808717.796   134392777.593        2626.413          25.000  
C23  22438400.019   116842651.435       -1867.894          29.000  
C32  22191341.354   115556136.910         958.771          30.000  
C37  22622358.667   117800528.743         790.117          35.000  
E02                                                                                                                                  23443323.825    91996630.421         639.971          25.000  
E03                                                                                                                                  24070105.013    94456266.667         137.410          24.000  
G10  20462025.135   107528727.881       -1749.946          31.000    20462039.225    80297412.715       -1307.201          28.000  
G23  22474857.780   118106245.522       -3563.717          13.000  
G25  20988380.047   110294448.517       -1641.609          13.000  
G26  23016516.197   120952537.067        3235.501          25.000  
G31  21186370.481   111335137.146         372.960          35.000  
G32  21318199.717   112027869.847         803.008          29.000    21318203.915    83657211.033         600.049          30.000  
R01  19743950.547   105542731.832        1299.482          32.000  
R12  19890963.373   106253955.509        1437.744          27.000  
> 2021 11  6  7 27 56.9999613  0 15
C07  37839098.038   197038084.185        1042.744          26.000  
C10  38581376.669   200903367.055         934.474          31.000  
C16  37282157.100   194137769.747        -174.336          29.000  
C20  25808214.145   134390151.863        2625.865          26.000  
C23  22438757.971   116844519.239       -1868.479          29.000  
C32  22191159.080   115555178.513         957.190          33.000  
C37  22622205.473   117799738.684         787.979          33.000  
E02                                                                                                                                  23443161.337    91995991.677         638.534          25.000  
E03                                                                                                                                  24070070.237    94456130.613         134.937          23.000  
G10  20462362.401   107530478.646       -1751.834          32.000    20462371.395    80298719.609       -1306.977          28.000  
G26  23015902.822   120949302.066        3234.729          27.000  
G31  21186296.132   111334764.578         371.875          35.000  
G32  21318047.723   112027066.204         803.667          29.000    21318050.721    83656611.075         600.661          30.000  
R08  20633841.889   110493285.6391      -1677.725          27.000  
R12  19890696.557   106252530.120        1437.320          25.000  
> 2021 11  6  7 27 57.9999611  0 17
C06  36835129.970   191810022.8541       -231.172          28.000  
C07  37838837.218   197036729.519        1042.290          25.000  
C09  37674510.179   196181097.2941       -318.024          22.000  
C10  38581135.636   200902120.933         933.193          31.000  
C16  37282130.718   194137632.334        -175.320          31.000  
C20  25807649.336   134387213.945        2626.443          26.000  
C23  22439056.265   116846075.448       -1868.925          34.000  
C32  22190916.848   115553908.946         958.588          32.000  
C37  22621993.820   117798637.684         787.893          35.000  
E02                                                                                                                                  23442938.292    91995117.777         639.905          28.000  
E03                                                                                                                                  24069976.402    94455760.867         134.982          24.000  
G10  20462634.013   107531915.581       -1753.058          35.000    20462644.506    80299791.593       -1307.811          28.000  
G26  23015226.790   120945753.223        3232.470          26.000  
G32  21317835.470   112025947.505         803.566          33.000    21317837.868    83655777.061         596.270          26.000  
R01  19743413.919   105539862.4861       1298.512          26.000  
R08  20634096.412   110494648.453       -1678.220          25.000  
R12  19890369.184   106250781.465        1436.508          26.000  
> 2021 11  6  7 27 58.9999608  0 17
C06  36835082.303   191809785.510        -230.799          29.000  
C07  37838544.321   197035219.704        1040.965          23.000  
C09  37674479.301   196180947.933        -318.164          23.000  
C10  38580864.923   200900718.704         933.974          29.000  
C16  37282074.657   194137339.844        -178.497          32.000  
C20  25807050.351   134384118.759        2626.164          24.000  
C23  22439324.279   116847475.847       -1868.983          34.000  
C32  22190643.137   115552483.738         954.750          34.000  
C37  22621753.686   117797381.066         786.433          37.000  
E02                                                                                                                                  23442684.367    91994124.933         639.368          28.000  
E03                                                                                                                                  24069853.487    94455272.500         135.361          25.000  
G10  20462877.745   107533195.913       -1754.971          33.000    20462888.537    80300746.793       -1308.811          29.000  
G26  23014522.278   120942047.880        3232.574          23.000  
G31  21186014.927   111333234.8671        368.336          34.000  
G32                                                                  21317595.636    83654827.322         597.450          23.000  
R08  20634323.055   110495862.948       -1678.373          24.000  
R12  19890010.932   106248867.692        1435.266          23.000  
> 2021 11  6  7 27 59.9999606  0 19
C06  36835066.414   191809703.578        -229.224          28.000  
C07  37838281.403   197033866.425        1040.855          28.000  
C09  37674479.600   196180953.735        -318.053          24.000  
C10  38580626.288   200899472.148         934.624          31.000  
C16  37282044.378   194137204.791        -176.441          27.000  
C20  25806487.041   134381180.817        2624.900          24.000  
C23  22439624.072   116849031.965       -1867.830          32.000  
C32  22190399.706   115551215.547         956.281          34.000  
C37  22621542.332   117796281.273         787.029          35.000  
E02                                                                                                                                  23442461.322    91993251.518         637.586          28.000  
E03                                                                                                                                  24069759.652    94454902.613         134.058          28.000  
G10  20463153.853   107534634.485       -1751.750          33.000    20463163.147    80301821.247       -1310.332          30.000  
G23  22477372.139   118119393.4791      -3561.739          26.000  
G26  23013846.246   120938500.521        3231.840          25.000  
G31  21185881.519   111332549.814         371.616          36.000  
G32  21317380.684   112023555.9411        801.195          29.000    21317383.383    83653994.923         597.055          27.000  
R01  19742772.063   105536431.5811       1299.595          17.000  
R08  20634580.277   110497240.179       -1679.789          21.000  
R12  19889678.162   106247089.766        1434.033          30.000  
> 2021 11  6  7 28  0.9999603  0 18
C06  36835020.246   191809462.927        -227.338          24.000  
C07  37837991.204   197032357.792        1040.047          29.000  
C09  37674450.820   196180801.674        -315.325          24.000  
C10  38580357.075   200898069.648         933.240          31.000  
C16  37281988.017   194136912.662        -175.893          27.000  
C20  25805892.852   134378086.569        2625.256          27.000  
C23  22439891.486   116850432.606       -1870.052          30.000  
C32  22190125.995   115549792.091         955.491          36.000  
C37  22621301.899   117795026.595         785.508          37.000  
E02                                                                                                                                  23442208.597    91992260.130         639.335          26.000  
E03                                                                                                                                  24069634.938    94454414.576         135.462          27.000  
G10  20463399.383   107535917.006       -1755.925          33.000    20463407.478    80302778.887       -1311.012          30.000  
G26  23013141.134   120934796.380        3231.193          26.000  
G31  21185721.730   111331708.172         368.709          35.000  
G32  21317140.850   112022282.031         801.891          24.000    21317140.251    83653044.396         599.116          27.000  
R01  19742437.795   105534645.349        1296.256          27.000  
R08  20634809.319   110498466.840       -1680.642          27.000  
R12  19889320.510   106245179.767        1433.526          31.000  
> 2021 11  6  7 28  1.9999601  0 19
C06  36835004.057   191809378.987        -229.195          30.000  
C07  37837730.984   197031005.948        1039.933          27.000  
C09  37674449.022   196180804.777        -315.975          25.000  
C10  38580118.140   200896823.980         933.254          31.000  
C16  37281961.035   194136776.112        -175.848          29.000  
C20  25805328.643   134375149.617        2624.151          25.000  
C23  22440190.080   116851990.871       -1871.303          36.000  
C32  22189883.164   115548525.907         954.668          30.000  
C37  22621085.748   117793928.990         784.884          35.000  
E02                                                                                                                                  23441985.851    91991386.377         639.042          27.000  
E03                                                                                                                                  24069540.804    94454044.469         133.465          25.000  
G10  20463675.192   107537358.304       -1756.259          34.000    20463682.088    80303855.899       -1314.061          26.000  
G23  22478586.598   118125730.5811      -3563.986          28.000  
G25  20989886.804   110302469.7491      -1656.483          20.000  
G31  21185596.117   111331025.181         370.056          36.000  
G32  21316928.597   112021165.134         801.425          27.000    21316927.098    83652209.465         602.172          26.000  
R01  19742136.503   105533034.527        1295.371          26.000  
R08  20635063.543   110499827.663       -1685.274          24.000  
R12  19888991.338   106243421.747        1432.212          29.000  
> 2021 11  6  7 28  2.9999601  0 19
C06  36835046.628   191809608.518        -230.180          30.000  
C07  37837528.324   197029965.500        1042.239          26.000  
C09  37674507.481   196181121.260        -317.377          27.000  
C10  38579939.164   200895891.028         932.158          29.000  
C16  37281994.912   194136951.395        -175.872          32.000  
C20  25804824.392   134372526.249        2621.989          29.000  
C23  22440548.032   116853862.438       -1872.280          36.000  
C32  22189696.393   115547572.734         953.247          27.000  
C37  22620935.552   117793144.561         784.327          38.000  
E02                                                                                                                                  23441824.862    91990750.467         635.509          26.000  
E03                                                                                                                                  24069506.627    94453911.173         133.151          26.000  
G10  20464006.463   107539115.848       -1758.694          33.000    20464016.056    80305169.238       -1312.985          26.000  
G23  22479267.727   118129294.563       -3563.945          29.000  
G26  23011852.926   120928019.9241       3229.295          23.000  
G31  21185523.867   111330658.324         366.118          33.000  
G32                                                                  21316774.504    83651607.009         603.283          18.000  
R01  19741895.170   105531743.920        1292.840          30.000  
R08  20635375.027   110501495.349       -1685.891          28.000  
R12  19888717.927   106241960.645        1429.800          27.000  
> 2021 11  6  7 28  3.9999601  0 20
C06  36835088.899   191809839.047        -230.089          28.000  
C07  37837327.463   197028923.911        1040.701          27.000  
C09  37674568.639   196181439.259        -318.389          26.000  
C10  38579759.888   200894959.383         931.354          29.000  
C16  37282028.789   194137127.290        -175.950          32.000  
C20  25804319.841   134369904.529        2621.570          27.000  
C23  22440907.183   116855734.792       -1872.094          35.000  
C32  22189514.119   115546620.481         952.256          26.000  
C37  22620785.056   117792360.627         783.871          38.000  
E02                                                                                                                                  23441663.874    91990116.134         633.951          27.000  
E03                                                                                                                                  24069473.350    94453777.659         133.221          25.000  
G10  20464341.631   107540874.066       -1758.354          32.000    20464348.526    80306482.436       -1313.185          22.000  
G12  23447237.915   123216066.7431      -3113.225          27.000  
G23  22479944.658   118132857.835       -3563.700          27.000  
G26  23011236.253   120924790.743        3228.710          23.000  
G31  21185449.518   111330291.763         366.904          30.000  
G32  21316622.210   112019564.0301        800.267          37.000    21316621.910    83651002.559         604.396          18.000  
R01  19741655.037   105530460.638        1291.227          28.000  
R08  20635686.511   110503163.367       -1685.880          28.000  
R12  19888450.512   106240532.187        1430.898          28.000  
> 2021 11  6  7 28  4.9999598  0 21
C06  36835042.431   191809600.944        -230.677          29.000  
C07  37837036.964   197027415.661        1039.523          28.000  
C09  37674539.859   196181289.609        -318.776          27.000  
C10  38579489.475   200893559.394         932.313          27.000  
C16  37281978.723   194136834.690        -175.701          31.000  
C20  25803726.552   134366814.492        2621.372          27.000  
C23  22441179.395                       -1873.535          34.000  
C32  22189241.907   115545199.841         953.038          26.000  
C37  22620546.122   117791109.009         782.871          38.000  
E02                                                                                                                                  23441412.048    91989128.535         635.139          26.000  
E03                                                                                                                                  24069349.836    94453291.870         131.639          27.000  
G10  20464582.664   107542160.553       -1761.273          31.000    20464593.757    80307443.676       -1314.086          23.000  
G12  23447736.470   123218707.477       -3113.760          28.000  
G23  22480531.652   118135948.738       -3563.711          28.000  
G25  20990731.619   110306977.8231      -1662.679          20.000  
G26  23010532.940   120921089.161        3228.736          22.000  
G31  21185287.031   111329453.228         365.180          30.000  
G32  21316375.780                         799.427          37.000    21316380.577    83650048.736         600.316          16.000  
R01  19741326.464   105528703.817        1291.351          29.000  
R08  20635909.557   110504358.525       -1685.420          28.000  
R12  19888091.661   106238615.575        1429.594          28.000  
> 2021 11  6  7 28  5.9999596  0 20
C06  36835026.542   191809519.498        -231.064          30.000  
C07  37836775.845   197026065.099        1037.039          26.000  
C09  37674541.658   196181296.487        -319.316          28.000  
C10  38579249.941   200892315.914         930.399          29.000  
C16  37281953.241                        -177.183          32.000  
C20  25803161.443   134363880.015        2622.951          28.000  
C23  22441479.787   116858670.4961      -1873.240          35.000  
C32  22188997.876   115543934.326         952.869          26.000  
C37  22620332.670   117790014.431         780.247          38.000  
E02                                                                                                                                  23441190.202    91988258.708         634.172          27.000  
E03                                                                                                                                  24069255.401    94452924.607         132.561          26.000  
G10  20464858.173   107543605.799       -1761.559          31.000    20464868.366    80308520.825       -1312.788          26.000  
G12  23448266.503   123221506.469       -3114.656          28.000  
G23  22481149.224   118139197.452       -3564.708          28.000  
G26  23009859.306   120917545.709        3227.778          21.000  
G31  21185156.321   111328773.138         364.608          29.000  
G32  21316161.728   112017196.8071        798.797          37.000    21316168.923    83649215.044         597.710          16.000  
R01  19741026.672   105527101.557        1289.312          30.000  
R08  20636163.481   110505718.327       -1685.746          27.000  
R12  19887766.386   106236877.487        1427.706          28.000  
> 2021 11  6  7 28  6.9999593  0 18
C06  36834980.973   191809282.275        -232.492          30.000  
C07  37836488.644   197024560.724        1035.219          25.000  
C09  37674514.976   196181147.057        -319.323          26.000  
C10  38578981.027   200890917.141         930.363          30.000  
C16  37281894.182   194136622.3801       -178.654          32.000  
C20  25802567.554   134360788.878        2622.215          28.000  
C23  22441755.896   116860076.182       -1874.717          38.000  
C32  22188724.466   115542513.550         951.718          28.000  
C37  22620090.437   117788764.341         785.336          32.000  
E02                                                                                                                                  23440938.676    91987271.753         634.073          27.000  
E03                                                                                                                                  24069129.488    94452439.558         131.492          24.000  
G10  20465106.701   107544894.365       -1761.664          32.000    20465113.896    80309481.849       -1315.147          28.000  
G12  23448765.657   123224148.999       -3115.746          24.000  
G26  23009150.297   120913845.749        3227.547          23.000  
G31  21185000.429   111327936.402         363.774          32.000  
G32  21315920.995   112015925.854         797.877          37.000    21315926.991    83648264.687         596.681          17.000  
R08  20636385.328   110506905.414       -1686.584          26.000  
R12  19887409.633   106234972.581        1427.088          30.000  
> 2021 11  6  7 28  7.9999590  0 19
C06  36834934.805   191809046.402        -232.202          28.000  
C07  37836199.944   197023056.945        1035.751          27.000  
C09  37674486.196   196180999.498        -320.582          25.000  
C10  38578711.814   200889518.034         930.125          29.000  
C16  37281836.322   194136331.745        -177.302          31.000  
C20  25801976.064   134357699.849        2619.986          23.000  
C23  22442025.109   116861482.639       -1876.041          37.000  
C32  22188451.655   115541093.964         950.446          32.000  
C37  22619850.603   117787514.026         781.476          27.000  
E02                                                                                                                                  23440687.750    91986285.793         631.647          27.000  
E03                                                                                                                                  24069006.573    94451955.473         133.538          24.000  
G10  20465356.129   107546183.756       -1763.280          34.000    20465359.426    80310444.530       -1314.903          30.000  
G25  20991440.028   110310711.0261      -1665.327          21.000  
G26  23008444.885   120910145.856        3226.038          21.000  
G31  21184841.240   111327100.372         362.470          37.000  
G32  21315678.763   112014655.602         799.402          39.000    21315684.759    83647315.485         595.847          26.000  
R01  19740357.835   105523526.6431       1291.733          25.000  
R08  20636608.973   110508103.884       -1689.839          17.000  
R12  19887046.284   106233031.209        1427.260          24.000  
> 2021 11  6  7 28  8.9999588  0 18
C06  36834918.017   191808966.273        -230.549          25.000  
C07  37835943.321   197021708.817        1036.193          30.000  
C09  37674488.894   196181007.834        -321.202          24.000  
C10  38578474.078   200888275.601         929.905          31.000  
C16  37281814.437   194136197.396        -178.995          33.000  
C20  25801415.452   134354767.638        2620.015          28.000  
C23  22442317.707   116863045.941       -1876.503          35.000  
C32  22188209.422   115539832.048         948.980          34.000  
C37  22619641.948   117786420.678         780.514          31.000  
E02                                                                                                                                  23440467.402    91985418.561         631.503          28.000  
G10  20465635.236   107547631.887       -1762.870          35.000    20465635.236    80311524.472       -1316.007          30.000  
G23  22482942.283   118148636.9581      -3569.116          25.000  
G25  20991695.152   110312061.964       -1665.972          25.000  
G31  21184713.528   111326422.466         362.759          34.000  
G32  21315461.413   112013543.384         797.560          32.000    21315472.805    83646484.740         594.997          31.000  
R01  19740059.541   105521931.569        1288.443          28.000  
R08  20636861.698   110509456.997       -1689.664          24.000  
R12  19886724.607   106231312.662        1426.395          24.000  
> 2021 11  6  7 28  9.9999588  0 18
C06  36834960.288   191809196.588        -231.064          23.000  
C07  37835746.658   197020672.948        1036.001          29.000  
C09  37674550.651   196181328.495        -320.638          23.000  
C10  38578295.102   200887345.595         929.571          32.000  
C16  37281847.414   194136375.278        -177.497          35.000  
C20  25800914.798   134352147.339        2620.586          31.000  
C23  22442680.156   116864921.923       -1876.723          35.000  
C32  22188027.748   115538883.251         948.091          34.000  
C37  22619494.450   117785640.710         779.605          33.000  
E02                                                                                                                                  23440307.313    91984786.963         630.396          30.000  
G10  20465968.005   107549396.316       -1765.831          36.000    20465971.603    80312840.917       -1317.398          30.000  
G12  23448615.761   123223361.2891      -3110.228          23.000  
G23  22483620.713   118152206.398       -3569.279          29.000  
G25  20992008.135   110313728.148       -1666.630          18.000  
G31  21184646.075   111326060.333         362.139          33.000  
G32  21315310.917   112012746.337         798.973          33.000    21315321.410    83645889.855         594.677          29.000  
R01  19739822.405   105520664.253        1288.071          32.000  
R08  20637176.180   110511140.762       -1691.719          26.000  
> 2021 11  6  7 28 10.9999585  0 19
C06  36834915.918   191808959.791        -231.815          31.000  
C07  37835456.758   197019168.482        1036.205          26.000  
C09  37674522.171   196181179.669        -320.098          25.000  
C10  38578027.088   200885947.915         929.256          31.000  
C16  37281787.156   194136085.039        -177.000          33.000  
C20  25800321.209   134349057.770        2621.512          27.000  
C23  22442955.365   116866330.220       -1878.456          36.000  
C32  22187758.235                         943.581          33.000  
C37  22619253.117   117784392.692         779.650          31.000  
E02                                                                                                                                  23440055.787    91983802.723         631.233          30.000  
G10                                                                  20466218.032    80313805.495       -1317.869          30.000  
G12  23450897.781                       -3118.835          26.000  
G23  22484211.005   118155303.000       -3569.104          28.000  
G26  23006457.261   120899681.7751       3224.149          19.000  
G31  21184484.487   111325226.269         360.230          36.000  
G32  21315075.880   112011477.169         795.146          33.000    21315080.377    83644942.242         594.569          28.000  
R01  19739492.034   105518898.182        1286.230          27.000  
R08  20637398.926   110512333.946       -1693.805          26.000  
R12  19886117.228   106228068.1271       1421.733          30.000  
> 2021 11  6  7 28 11.9999583  0 16
C06  36834901.229   191808879.884        -232.594          31.000  
C07  37835198.937   197017819.262        1036.076          25.000  
C09  37674523.070   196181188.099        -322.135          26.000  
C10  38577790.252   200884706.681         928.988          31.000  
C16  37281761.973   194135951.363        -180.193          31.000  
C20  25799756.700   134346123.889        2621.305          26.000  
C23  22443257.556   116867895.337       -1877.687          38.000  
C32  22187514.803                         945.507          31.000  
C37  22619041.164   117783301.726         778.040          29.000  
E02                                                                                                                                  23439834.540    91982937.241         629.843          28.000  
G10  20466476.153   107552139.9051      -1766.374          32.000    20466495.040    80314888.867       -1319.025          28.000  
G12  23451432.011                       -3118.962          26.000  
G31  21184357.674   111324550.596         360.754          37.000  
G32  21314863.627   112010366.202         794.946          37.000    21314868.723    83644112.559         593.851          25.000  
R01  19739188.944   105517277.569        1283.846          28.000  
R08  20637656.448   110513712.740       -1692.719          25.000  
> 2021 11  6  7 28 12.9999580  0 18
C06  36834857.459   191808644.661        -233.646          31.000  
C07  37834909.937   197016315.336        1034.267          24.000  
C09  37674494.290   196181041.691        -320.847          26.000  
C10  38577522.837   200883310.034         927.871          30.000  
C16  37281707.711   194135661.738        -179.527          32.000  
C20  25799162.212   134343034.712        2620.579          26.000  
C23  22443527.070   116869304.876       -1878.925          38.000  
C32  22187242.292   115534805.4901        945.911          31.000  
C37  22618801.330   117782056.886         775.514          30.000  
E02                                                                                                                                  23439583.914    91981954.296         630.782          27.000  
G10  20466728.878   107553434.272       -1767.210          31.000    20466741.470    80315855.108       -1318.879          28.000  
G12  23451342.074                       -3118.962          27.000  
G26  23005077.616   120892446.7201       3223.139          20.000  
G31  21184200.283   111323718.007         359.110          36.000  
G32  21314621.994   112009098.025         795.231          38.000    21314627.690    83643165.745         594.476          24.000  
R01  19738857.973   105515508.566        1285.697          29.000  
R08  20637880.692   110514913.985       -1694.374          27.000  
R12  19885432.502   106224410.8801       1420.189          31.000  
> 2021 11  6  7 28 13.9999578  0 18
C06  36834844.268   191808566.572        -234.308          31.000  
C07  37834653.015   197014968.831        1033.648          26.000  
C09  37674496.689   196181049.600        -319.725          25.000  
C10  38577285.401   200882069.822         927.730          30.000  
C16  37281683.128   194135528.517        -178.894          32.000  
C20  25798598.902   134340101.385        2621.848          25.000  
C23  22443828.061   116870871.258       -1878.790          39.000  
C32  22186999.160   115533547.885         945.828          31.000  
C37  22618590.576   117780969.356         774.878          30.000  
E02                                                                                                                                  23439363.266    91981088.231         631.332          27.000  
G10  20467000.191   107554887.319       -1768.906          31.000    20467017.878    80316939.900       -1321.071          28.000  
G12  23452469.893                       -3121.707          27.000  
G25  20992974.966   110318821.9331      -1666.950          18.000  
G26  23004404.882   120888908.162        3223.157          21.000  
G31  21184071.672   111323043.734         358.240          36.000  
G32  21314410.641   112007987.883         795.692          38.000    21314416.936    83642336.980         593.223          24.000  
R01  19738557.281   105513901.186        1284.422          28.000  
R08  20638137.615   110516289.212       -1695.535          27.000  
> 2021 11  6  7 28 14.9999575  0 19
C06  36834799.899   191808332.694        -234.301          31.000  
C07  37834364.015   197013467.163        1032.967          25.000  
C09  37674466.709   196180902.048        -321.938          26.000  
C10  38577017.686   200880673.946         927.242          30.000  
C16  37281628.865   194135239.557        -178.369          32.000  
C20  25798006.212   134337011.795        2621.001          24.000  
C23  22444099.373   116872282.294       -1881.397          38.000  
C32  22186730.246   115532134.988         943.960          31.000  
C37  22618350.742   117779726.299         774.470          31.000  
E02                                                                                                                                  23439112.340    91980105.292         627.358          27.000  
G10  20467251.417   107556183.866       -1769.853          31.000    20467264.008    80317908.194       -1320.298          28.000  
G12  23452975.043                       -3122.484          27.000  
G23  22486633.627   118168009.9241      -3572.678          28.000  
G26  23003700.669   120885212.428        3222.732          22.000  
G31  21183912.782   111322212.789         359.639          36.000  
G32  21314169.907   112006720.894         793.235          38.000  
R01  19738225.111   105512125.824        1283.019          28.000  
R08  20638369.654   110517531.942       -1694.863          28.000  
R12  19884752.872   106220779.6921       1417.500          31.000  
> 2021 11  6  7 28 15.9999572  0 19
C06  36834755.529   191808098.540        -234.278          31.000  
C07  37834076.214   197011965.312        1033.941          25.000  
C09  37674440.028   196180755.349        -321.989          25.000  
C10  38576749.972   200879278.491         926.832          30.000  
C16  37281572.804   194134950.790        -178.703          32.000  
C20  25797412.923   134333922.974        2619.151          25.000  
C23  22444369.187   116873693.887       -1880.408          38.000  
C32  22186460.733   115530722.715         944.301          31.000  
C37  22618112.107   117778483.544         773.716          31.000  
E02                                                                                                                                  23438862.913    91979124.477         626.880          27.000  
G10  20467499.045   107557481.334       -1771.510          31.000    20467510.737    80318876.513       -1323.225          28.000  
G12  23453480.793   123248865.4371      -3123.184          27.000  
G23  22487223.319   118171110.346       -3573.736          28.000  
G25  20993430.351   110321213.1931      -1671.168          17.000  
G26  23003000.054   120881516.945        3222.603          22.000  
G31  21183754.192   111321382.521         358.180          36.000  
G32  21313927.375   112005454.217         793.638          38.000  
R08  20638597.196   110518750.443       -1696.361          29.000  
R12  19884401.515   106218903.427        1416.229          31.000  
> 2021 11  6  7 28 16.9999572  0 19
C06  36834801.398   191808333.483        -235.077          31.000  
C07  37833878.351   197010931.607        1033.407          25.000  
C09  37674501.186   196181077.199        -322.228          24.000  
C10  38576572.195   200878351.751         926.322          30.000  
C16  37281606.681   194135130.502        -178.794          32.000  
C20  25796909.271   134331304.825        2617.136          25.000  
C23  22444729.237   116875574.375       -1880.716          38.000  
C32  22186279.658   115529779.528         942.308          31.000  
C37  22617963.110   117777710.439         772.875          30.000  
E02                                                                                                                                  23438703.123    91978497.777         627.638          27.000  
G10  20467833.614   107559252.338       -1771.573          32.000    20467847.404    80320198.763       -1321.820          28.000  
G12  23454074.682   123251989.052       -3123.890          26.000  
G23  22487905.347   118174684.663       -3574.343          28.000  
G26  23002389.677   120878294.637        3221.965          25.000  
G31  21183684.640   111321025.483         357.801          36.000  
G32  21313778.978   112004660.602         793.161          37.000  
R01  19737658.204   105509095.1721       1282.886          28.000  
R08  20638916.176   110520458.745       -1698.786          27.000  
R12  19884140.096   106217506.413        1415.253          32.000  
> 2021 11  6  7 28 17.9999570  0 19
C06  36834781.611                        -233.917          31.000  
C07  37833617.532   197009585.334        1034.223          25.000  
C09  37674502.385   196181087.146        -322.022          26.000  
C10  38576334.160   200877112.809         926.876          30.000  
C16  37281580.599   194134998.223        -179.135          33.000  
C23  22445032.028   116877143.227       -1881.491          38.000  
C32  22186038.325   115528524.633         941.287          30.000  
C37  22617755.354   117776625.300         772.381          31.000  
E02                                                                                                                                  23438483.376    91977637.049         625.728          27.000  
G10  20468115.718   107560709.140       -1774.156          31.000    20468124.712    80321286.155       -1323.376          27.000  
G12  23454611.310   123254798.022       -3124.987          27.000  
G23  22488525.618   118177943.451       -3573.788          27.000  
G25  20994006.552   110324242.0001      -1673.570          19.000  
G26  23001717.243   120874756.354        3224.002          24.000  
G31  21183558.128   111320354.059         355.496          36.000  
G32  21313567.324   112003552.280         792.752          37.000  
R01  19737359.610   105507499.069        1281.035          29.000  
R08  20639172.498   110521830.997       -1699.817          29.000  
R12  19883818.719   106215789.943        1414.852          31.000  
> 2021 11  6  7 28 18.9999567  0 17
C06  36834743.837   191808139.5321       -234.809          30.000  
C07  37833329.131   197008084.389        1030.866          24.000  
C09  37674471.806   196180940.173        -321.690          25.000  
C10  38576066.145   200875718.042         925.502          30.000  
C16  37281525.437   194134710.235        -181.536          33.000  
C23  22445303.640   116878556.668       -1883.140          38.000  
C32  22185767.313   115527114.475         941.516          31.000  
C37  22617515.820   117775384.083         773.015          30.000  
E02                                                                                                                                  23438233.349    91976657.594         626.318          28.000  
G10  20468360.349   107562009.499       -1774.033          31.000    20468372.041    80322257.456       -1324.568          28.000  
G12  23455117.060   123257450.060       -3124.359          27.000  
G26  23001014.829   120871060.763        3222.265          24.000  
G31  21183398.938   111319525.884         354.813          35.000  
G32  21313325.392   112002287.008         792.994          37.000  
R01  19737029.539   105505734.623        1282.039          29.000  
R08  20639398.542   110523041.768       -1701.913          28.000  
R12  19883467.062   106213911.177        1413.062          30.000  
> 2021 11  6  7 28 19.9999565  0 18
C06  36834731.246   191808061.870        -236.211          30.000  
C07  37833071.610   197006740.768        1031.929          24.000  
C09  37674473.005   196180950.113        -322.204          24.000  
C10  38575828.410   200874480.388         926.005          30.000  
C16  37281499.655   194134578.147        -181.156          32.000  
C20  25795183.966   134322358.3451       2616.829          22.000  
C23  22445604.931   116880126.594       -1883.095          38.000  
C32  22185522.682   115525861.108         943.141          32.000  
C37  22617306.864   117774299.285         772.669          29.000  
E02                                                                                                                                  23438014.200    91975796.450         625.218          28.000  
G10  20468635.259   107563468.446       -1773.627          33.000    20468649.649    80323345.936       -1324.038          28.000  
G12  23455649.492   123260260.034       -3125.361          23.000  
G23  22489737.079   118184302.4311      -3573.825          28.000  
G26  23000343.893   120867525.267        3219.354          25.000  
G31  21183274.224   111318855.913         355.655          36.000  
G32  21313114.338   112001179.371         792.736          36.000  
R01  19736726.748   105504116.013        1280.314          28.000  
R08  20639654.564   110524412.254       -1702.959          27.000  
> 2021 11  6  7 28 20.9999565  0 19
C06  36834772.018   191808296.716        -234.201          29.000  
C07  37832874.046   197005708.415        1033.671          24.000  
C09  37674535.362   196181273.140        -322.816          26.000  
C10  38575650.933   200873554.027         926.597          30.000  
C16  37281536.529   194134758.664        -179.668          31.000  
C23  22445966.181   116882009.355       -1882.886          38.000  
C32  22185342.207   115524920.274         942.378          31.000  
C37  22617159.366   117773526.674         771.434          28.000  
E02                                                                                                                                  23437854.711    91975171.391         624.372          28.000  
G10  20468976.422   107565242.784       -1774.291          31.000    20468987.515    80324670.577       -1326.489          28.000  
G12  23456243.081   123263385.393       -3127.270          23.000  
G23  22490420.606   118187876.463       -3575.320          26.000  
G25  20994823.786   110328482.6201      -1676.676          21.000  
G26  22999733.216   120864305.349        3219.203          26.000  
G31  21183205.572   111318501.443         356.159          36.000  
G32  21312965.641   112000387.038         795.473          38.000  
R01  19736486.914   105502834.583        1278.726          28.000  
R08  20639970.846   110526105.716       -1702.518          25.000  
R12  19882874.073   106210743.7081       1411.556          28.000  
> 2021 11  6  7 28 21.9999562  0 19
C06  36834724.951   191808063.360        -235.752          26.000  
C07  37832583.547   197004206.633        1033.346          27.000  
C09  37674511.079   196181127.504        -323.719          23.000  
C10  38575381.719   200872159.165         926.380          31.000  
C16  37281483.766   194134470.996        -180.774          31.000  
C20  25794085.226   134316659.6521       2615.718          16.000  
C23  22446237.493   116883424.299       -1884.158          35.000  
C32  22185073.293   115523511.863         939.067          35.000  
C37  22616917.134   117772286.992         769.729          26.000  
E02                                                                                                                                  23437605.583    91974193.519         625.457          27.000  
G10  20469228.248   107566545.599       -1775.112          34.000    20469235.743    80325644.125       -1326.792          28.000  
G23  22491011.797   118190979.781       -3576.676          29.000  
G25  20995054.326   110329686.992       -1677.961          22.000  
G26  22999029.603   120860613.806        3218.473          25.000  
G31  21183045.783   111317674.949         354.980          35.000  
G32  21312725.507   111999120.647         792.621          32.000  
R01  19736154.445   105501056.471        1277.896          29.000  
R08  20640195.390   110527308.175       -1702.210          29.000  
R12  19882517.619   106208839.872        1410.669          29.000  
> 2021 11  6  7 28 22.9999560  0 20
C06  36834709.361   191807986.694        -235.836          28.000  
C07  37832326.325   197002861.391        1032.771          24.000  
C09  37674513.777   196181137.796        -321.197          25.000  
C10  38575143.684   200870920.696         926.126          31.000  
C16  37281458.883   194134339.771        -181.883          32.000  
C20  25793521.017   134313731.187        2616.502          17.000  
C23  22446539.984   116884996.126       -1884.710          37.000  
C32  22184833.759   115522260.406         938.372          34.000  
C37  22616708.179   117771204.498         770.010          27.000  
E02                                                                                                                                  23437387.334    91973334.049         622.978          25.000  
G10  20469508.254   107568007.076       -1777.643          34.000    20469513.051    80326734.515       -1325.620          28.000  
G12  23457283.061   123268851.9811      -3126.958          26.000  
G23  22491631.767   118194241.920       -3577.964          28.000  
G25  20995317.244   110331050.500       -1678.493          22.000  
G26  22998357.169   120857081.008        3218.062          25.000  
G31  21182920.769   111317006.946         353.851          35.000  
G32  21312516.252   111998013.415         791.445          27.000  
R01  19735852.554   105499442.730        1276.548          29.000  
R08  20640449.914   110528671.408       -1702.803          26.000  
R12  19882196.842   106207126.419        1409.308          27.000  
> 2021 11  6  7 28 23.9999560  0 16
C06  36834753.431   191808222.384        -236.087          28.000  
C07  37832127.863   197001828.209        1032.504          25.000  
C09  37674577.033   196181459.957        -323.886          24.000  
C10  38574964.708   200869994.895         924.860          30.000  
C16  37281489.162   194134521.240        -182.751          34.000  
C23  22446899.735   116886881.147       -1883.717          36.000  
C32  22184658.081   115521322.147         938.272          32.000  
C37  22616560.981   117770434.714         769.673          29.000  
E02                                                                                                                                  23437228.145    91972710.296         623.403          27.000  
G10  20469853.615   107569785.043       -1778.889          33.000    20469852.116    80328061.209       -1327.377          25.000  
G12  23457878.149   123271979.916       -3128.120          26.000  
G26  22997743.493   120853863.164        3217.040          25.000  
G31  21182850.917   111316654.282         349.562          35.000  
G32  21312366.955   111997222.140         790.575          31.000  
R08  20640760.799   110530336.038       -1704.532          25.000  
R12  19881932.724   106205715.410        1408.644          26.000  
> 2021 11  6  7 28 24.9999557  0 18
C06  36834707.563   191807991.163        -238.029          24.000  
C07  37831841.261   197000326.060        1033.795          25.000  
C09  37674548.853   196181316.262        -324.695          20.000  
C10  38574697.892   200868601.640         924.599          26.000  
C16  37281437.898   194134234.568        -182.278          31.000  
C23  22447174.944   116888299.064       -1889.329          32.000  
C32  22184387.068   115519915.424         938.651          26.000  
C37  22616324.145   117769197.323         769.074          27.000  
E02                                                                                                                                  23436979.617    91971734.029         621.763          24.000  
G10  20470098.546   107571090.163       -1778.392          29.000    20470100.944    80329035.740       -1327.560          21.000  
G12  23458381.500   123274635.824       -3128.987          22.000  
G23  22492901.988   118200923.4421      -3576.667          20.000  
G25  20995871.860   110333943.3401      -1685.583          21.000  
G31  21182695.025   111315830.805         350.386          30.000  
G32  21312126.522   111995959.770         789.452          31.000  
R01  19735285.346   105496411.4251       1275.085          23.000  
R08  20640986.243   110531544.083       -1704.634          18.000  
R12  19881576.871   106203814.047        1407.330          21.000  
> 2021 11  6  7 28 25.9999555  0 15
C06  36834692.573   191807916.481        -236.088          25.000  
C07  37831581.941   196998980.864        1032.609          27.000  
C09  37674551.850   196181328.428        -324.208          25.000  
C10  38574459.857   200867364.631         925.249          28.000  
C20  25791871.859   134305098.3831       2617.123          25.000  
C23  22447476.535   116889872.848       -1885.580          32.000  
C32  22184146.935   115518663.848         938.742          27.000  
C37  22616117.887   117768116.434         768.736          30.000  
G10                                                                  20470378.852    80330128.643       -1329.497          20.000  
G12  23458916.030   123277448.936       -3126.156          17.000  
G26  22996371.044   120846637.2731       3219.708          26.000  
G31  21182568.513   111315164.673         351.309          28.000  
G32  21311917.566   111994854.218         791.077          31.000  
R01  19734987.053   105494816.097        1275.471          29.000  
R12  19881249.497   106202065.704        1407.679          24.000  
> 2021 11  6  7 28 26.9999552  0 16
C09  37674525.769   196181184.675        -324.878          17.000  
C10  38574191.543   200865970.908         925.025          31.000  
C16  37281356.654   194133825.3951       -187.877          14.000  
C20  25791283.966   134302013.675        2615.234          26.000  
C23  22447746.948   116891290.681       -1886.235          28.000  
C32  22183876.522   115517257.358         936.699          27.000  
C37  22615881.651   117766881.117         766.211          25.000  
G10  20470617.486   107573861.1201      -1779.452          27.000    20470627.080    80331102.593       -1326.957          20.000  
G12  23459419.382   123280101.095       -3121.652          14.000  
G25  20996355.426   110336523.5041      -1684.076          20.000  
G26  22995667.730   120842945.061        3219.205          24.000  
G31  21182411.722   111314340.726         350.909          37.000  
G32  21311678.632   111993591.007         790.181          33.000  
R01  19734651.585   105493023.445        1274.112          28.000  
R08  20641478.202   110534177.7181      -1706.185          19.000  
R12  19880893.944   106200166.573        1406.422          19.000  
> 2021 11  6  7 28 27.9999549  0 16
C06  36834602.935   191807452.6601       -235.811          22.000  
C07  37831004.840   196995983.1741       1029.071          20.000  
C10  38573923.828   200864578.103         923.909          28.000  
C16  37281299.993   194133544.205        -187.181          14.000  
C20  25790694.873   134298930.392        2614.700          26.000  
C23  22448017.361   116892709.028       -1887.124          29.000  
C32  22183606.409   115515853.398         933.772          26.000  
C37  22615645.414   117765647.323         764.849          24.000  
G10  20470864.216   107575168.221       -1780.305          28.000    20470876.207    80332077.500       -1328.469          19.000  
G12  23459923.033   123282750.482       -3121.646          13.000  
G23  22494701.942   118210388.2201      -3571.953          15.000  
G26  22994967.116   120839254.829        3216.274          23.000  
G31  21182254.330   111313517.287         350.640          34.000  
G32  21311438.798   111992328.510         789.080          34.000  
R01  19734330.207   105491304.819        1273.346          27.000  
R08  20641708.443   110535410.749       -1707.703          20.000  
> 2021 11  6  7 28 28.9999547  0 15
C07  37830749.417   196994642.489        1027.672          25.000  
C10  38573686.992   200863342.017         923.654          29.000  
C16  37281273.911   194133417.364        -183.904          17.000  
C20  25790136.360   134296002.952        2615.368          27.000  
C23  22448318.053   116894282.722       -1884.874          27.000  
C32  22183368.074   115514606.679         934.793          31.000  
C37  22615439.157   117764570.251         764.376          29.000  
G10  20471140.624   107576633.727       -1781.207          30.000    20471155.314    80333172.098       -1331.876          28.000  
G12  23460456.364   123285558.621       -3124.319          14.000  
G25  20996843.788   110339106.0071      -1685.544          20.000  
G26  22994292.882   120835723.924        3215.981          26.000  
G31  21182131.715                         348.962          34.000  
G32  21311232.841                         788.289          34.000  
R01  19734031.614   105489708.979        1273.022          28.000  
R12  19880215.213   106196540.4791       1404.616          25.000  
> 2021 11  6  7 28 29.9999544  0 16
C06  36834546.274   191807144.3691       -237.969          16.000  
C07  37830465.214   196993146.125        1028.644          25.000  
C09  37674476.003   196180904.1111       -318.890          18.000  
C10  38573421.076   200861949.879         923.916          31.000  
C16  37281218.450   194133131.827        -182.438          30.000  
C20  25789546.369   134292919.642        2615.330          30.000  
C23  22448591.464   116895699.754       -1886.543          24.000  
C32  22183099.160   115513203.483         934.702          33.000  
C37  22615203.221   117763337.826         764.237          32.000  
G10  20471388.852   107577944.112       -1784.067          32.000    20471405.041    80334151.309       -1331.942          28.000  
G12  23460959.416   123288209.401       -3124.488          14.000  
G25  20997073.429   110340318.288       -1685.346          24.000  
G26  22993588.970   120832035.148        3215.744          25.000  
G31  21181981.519   111312032.0681        347.937          36.000  
G32  21310990.308   111990022.6651        786.194          32.000  
R01  19733706.939   105487973.541        1272.827          29.000  
> 2021 11  6  7 28 30.9999542  0 14
C06  36834530.985   191807071.443        -240.082          15.000  
C07  37830208.292   196991805.592        1028.702          26.000  
C10  38573185.439   200860714.372         923.094          32.000  
C16  37281193.567   194133001.795        -182.167          29.000  
C20  25788985.457   134289992.259        2614.506          29.000  
C23  22448893.055   116897273.804       -1887.783          25.000  
C32  22182860.225   115511957.074         933.788          33.000  
C37  22614997.863   117762261.077         763.897          32.000  
G10  20471670.957   107579413.277       -1784.279          31.000    20471683.848    80335247.225       -1331.643          28.000  
G25  20997333.049   110341689.365       -1686.837          24.000  
G26  22992916.835   120828504.652        3214.968          24.000  
G31  21181854.707   111311368.978         348.168          36.000  
G32  21310780.454   111988919.250         788.834          32.000  
R01  19733414.342   105486409.479        1272.547          29.000  
> 2021 11  6  7 28 31.9999542  0 13
C07  37830013.127   196990776.959        1028.334          25.000  
C10  38573012.459                         924.341          31.000  
C16  37281228.942   194133183.259        -181.251          30.000  
C20  25788483.604   134287378.067        2613.757          29.000  
C23  22449257.303   116899161.742       -1889.210          26.000  
C32  22182680.350   115511023.094         932.509          33.000  
C37  22614856.661   117761498.036         763.225          32.000  
G10  20472010.922   107581196.534       -1783.774          31.000    20472022.913    80336578.661       -1330.356          27.000  
G26  22992303.160   120825290.951        3213.475          25.000  
G31  21181787.853   111311021.560         347.493          35.000  
G32  21310633.555   111988131.307         789.492          31.000  
R01  19733180.503   105485158.968        1268.658          29.000  
R12  19879275.064   106191518.2911       1401.345          27.000  
> 2021 11  6  7 28 32.9999539  0 18
C06  36834535.182   191807087.6941       -248.528          13.000  
C07  37829724.727   196989280.174        1028.026          25.000  
C09  37674514.976   196181088.5021       -323.076          18.000  
C10  38572744.445   200858406.7491        921.757          31.000  
C16  37281174.380   194132896.089        -181.234          30.000  
C20  25787892.414   134284296.352        2612.676          29.000  
C23  22449526.816   116900582.865       -1890.757          25.000  
C32  22182409.338                         932.041          34.000  
C37  22614624.921                         764.061          32.000  
G10  20472260.349   107582508.121       -1785.262          32.000    20472273.240    80337557.356       -1331.933          27.000  
G23  22497786.506   118226711.6391      -3584.621          18.000  
G25  20997887.965   110344590.4481      -1688.708          25.000  
G26  22991599.247   120821604.470        3213.835          25.000  
G31  21181630.163   111310202.161         346.265          36.000  
G32  21310390.424   111986871.117         786.219          30.000  
R01  19732853.730   105483412.831        1269.051          29.000  
R08  20642992.753   110542288.3061      -1711.032          19.000  
R12  19878921.009   106189627.398        1399.759          28.000  
> 2021 11  6  7 28 33.9999537  0 17
C07  37829466.305   196987940.519        1028.401          24.000  
C10  38572513.005   200857172.190         923.329          31.000  
C16  37281149.797   194132765.149        -181.681          30.000  
C20  25787329.703   134281371.393        2612.973          29.000  
C23  22449830.206   116902161.562       -1890.284          26.000  
C32  22182171.602   115508381.6121        931.670          34.000  
C37  22614417.165   117759211.0701        763.389          33.000  
G10  20472545.452   107583978.174       -1786.587          31.000    20472552.647    80338655.035       -1333.762          28.000  
G12  23463138.907   123299626.4601      -3134.636          18.000  
G23  22498407.676   118229980.928       -3584.351          19.000  
G25  20998148.784   110345963.218       -1687.537          25.000  
G26  22990927.412   120818075.412        3213.778          25.000  
G31  21181504.550   111309541.007         346.621          37.000  
G32  21310184.166   111985768.847         787.210          31.000  
R01  19732559.633   105481841.021        1268.865          29.000  
R08  20643251.774   110543675.533       -1713.474          19.000  
R12  19878594.835   106187885.205        1399.384          27.000  
> 2021 11  6  7 28 34.9999534  0 14
C07  37829179.704   196986443.780        1028.620          24.000  
C10  38572241.693   200855781.814         921.268          31.000  
C16  37281095.235   194132478.648        -182.578          31.000  
C20  25786738.213   134278289.321        2614.342          29.000  
C23  22450102.118   116903584.527       -1893.038          26.000  
C32  22181900.590   115506981.513         931.325          33.000  
C37  22614178.530   117757980.773         762.399          32.000  
G10  20472795.778   107585292.678       -1788.519          32.000    20472802.973    80339636.910       -1336.590          28.000  
G25  20998379.324   110347178.445       -1688.325          25.000  
G26  22990224.998   120814389.219        3213.563          25.000  
G31  21181347.758   111308722.992         344.218          37.000  
G32  21309944.033   111984509.463         786.513          30.000  
R01  19732234.358   105480101.740        1268.488          27.000  
R12  19878240.780   106185993.277        1398.766          27.000  
> 2021 11  6  7 28 35.9999532  0 15
C07  37828920.683   196985102.789        1028.622          25.000  
C09  37674490.693   196180966.8481       -326.746          16.000  
C10  38572002.458   200854547.872         920.588          32.000  
C16  37281070.652   194132349.190        -183.048          30.000  
C20  25786176.102   134275363.316        2613.609          29.000  
C23  22450405.208   116905164.484       -1891.973          25.000  
C32  22181663.454   115505738.083         929.511          33.000  
C37  22613973.772   117756907.063         758.741          32.000  
G10  20473074.585                       -1788.873          32.000    20473083.579    80340737.101       -1335.974          29.000  
G23  22499610.744   118236362.3241      -3584.589          19.000  
G25  20998640.444   110348552.853       -1690.601          25.000  
G26  22989552.264   120810860.924        3212.873          25.000  
G31  21181223.344   111308063.071         343.636          36.000  
G32  21309731.780   111983408.025         785.758          30.000  
R12  19877921.801   106184290.296        1395.372          27.000  
> 2021 11  6  7 28 36.9999532  0 15
C07  37828724.619   196984074.782        1026.875          25.000  
C10  38571827.380   200853626.470         920.165          31.000  
C16  37281105.728   194132532.213        -183.409          29.000  
C20  25785672.750   134272750.595        2611.988          29.000  
C23  22450765.858   116907056.466       -1890.942          21.000  
C32  22181485.677   115504807.602         930.015          33.000  
C37  22613827.173   117756146.445         760.188          32.000  
G10  20473416.948   107588521.2011      -1789.748          32.000    20473423.844    80342074.010       -1337.997          28.000  
G23  22500289.774   118239947.462       -3585.189          19.000  
G25  20998962.421   110350244.613       -1692.847          24.000  
G26  22988939.788   120807648.122        3212.571          25.000  
G31  21181157.690   111307718.957         343.434          37.000  
G32  21309578.886   111982622.084         785.126          32.000    21309579.485    83623340.6481        587.133          31.000  
R01  19731692.633   105477206.4001       1266.137          28.000  
R12  19877655.286   106182865.729        1394.876          27.000  
> 2021 11  6  7 28 37.9999529  0 17
C07  37828438.917   196982579.475        1026.922          26.000  
C09  37674523.970   196181145.8291       -323.377          17.000  
C10  38571559.965   200852237.040         921.540          31.000  
C16  37281051.165   194132247.307        -183.034          30.000  
C20  25785080.360   134269669.504        2612.215          28.000  
C23  22451039.869   116908479.789       -1891.435          24.000  
C32  22181214.665   115503409.423         929.117          33.000  
C37  22613592.136   117754918.106         759.061          32.000  
G10  20473671.472   107589838.340       -1793.219          31.000    20473674.770    80343058.539       -1336.877          28.000  
G23  22500881.864   118243059.991       -3585.660          19.000  
G25  20999194.160   110351465.268       -1694.329          23.000  
G26  22988238.574   120803963.359        3212.067          26.000  
G31  21181002.397   111306902.869         343.493          37.000  
G32                                                                  21309339.651    83622401.261         586.245          30.000  
R01  19731364.061   105475449.669        1265.093          28.000  
R08  20644314.538   110549366.4791      -1718.070          25.000  
R12  19877305.428   106180997.750        1393.408          26.000  
> 2021 11  6  7 28 38.9999526  0 17
C07  37828150.516   196981084.638        1026.566          26.000  
C09  37674495.190   196181001.034        -323.219          17.000  
C10  38571292.250   200850847.619         920.651          32.000  
C16  37280997.502   194131962.741        -184.105          31.000  
C20  25784488.270   134266588.873        2612.110          29.000  
C23  22451315.378   116909903.679       -1892.513          26.000  
C32  22180946.950   115502011.632         928.799          33.000  
C37  22613353.501                         761.039          32.000  
G10                                                                  20473925.696    80344042.665       -1337.225          28.000  
G23  22501472.155   118246173.218       -3586.527          19.000  
G25  20999423.801   110352687.095       -1694.638          24.000  
G26  22987539.158   120800278.988        3211.296          26.000  
G31  21180847.105   111306087.178         342.643          37.000  
G32  21309102.216   111980105.8011        786.343          30.000    21309100.117    83621461.913         586.520          30.000  
R01  19731034.289   105473686.357        1264.488          27.000  
R08  20644545.079   110550600.878       -1716.352          25.000  
R12  19876957.968   106179141.631        1393.053          26.000  
> 2021 11  6  7 28 39.9999524  0 17
C07  37827892.395   196979746.237        1025.540          26.000  
C09  37674497.288   196181010.816        -320.377          18.000  
C10  38571056.014   200849614.775         920.471          31.000  
C16  37280972.620   194131834.342        -183.961          29.000  
C20  25783925.560   134263664.664        2612.032          29.000  
C23  22451618.768   116911483.765       -1891.698          22.000  
C32  22180707.416   115500770.632         927.906          33.000  
C37  22613149.043   117752619.6251        758.185          32.000  
G10  20474198.507   107592632.4421      -1790.286          33.000    20474206.302    80345144.851       -1337.442          28.000  
G23  22502097.822   118249445.015       -3586.925          19.000  
G25  20999684.621   110354067.820       -1696.243          24.000  
G26  22986870.021   120796752.663        3210.692          25.000  
G31  21180722.391   111305429.685         342.674          37.000  
G32  21308899.256   111979005.752         785.253          31.000    21308891.162    83620640.477         585.235          31.000  
R01  19730739.893   105472113.421        1265.618          28.000  
R08  20644810.995   110552025.128       -1715.720          24.000  
R12  19876640.788   106177446.835        1392.784          25.000  
> 2021 11  6  7 28 40.9999524  0 14
C07  37827696.031   196978720.662        1026.156          26.000  
C10  38570877.037   200848694.305         919.901          30.000  
C16  37281010.394   194132018.394        -184.286          30.000  
C20  25783424.007   134261052.798        2611.652          30.000  
C23  22451983.315   116913375.645       -1892.592          26.000  
C32  22180530.538   115499842.549         927.284          33.000  
C37  22613003.044   117751861.508         756.674          32.000  
E02                                                                                                                                  23433464.850    91957941.5381        615.863          24.000  
G10  20474540.870   107594424.770       -1792.554          34.000    20474547.166    80346482.384       -1337.353          27.000  
G26  22986261.143   120793541.949        3210.445          22.000  
G31  21180656.137   111305088.019         342.204          37.000  
G32  21308751.159   111978221.177         786.939          32.000    21308741.865    83620055.107         585.334          31.000  
R01  19730503.057   105470847.181        1264.072          28.000  
R12  19876379.369   106176050.481        1393.105          25.000  
> 2021 11  6  7 28 41.9999521  0 17
C03  36378095.469   189430290.5661       -350.386          29.000  
C07  37827409.130   196977226.594        1025.096          27.000  
C10  38570611.721   200847305.983         921.051          31.000  
C16  37280955.831   194131734.474        -184.645          31.000  
C20  25782832.217   134257972.502        2611.908          29.000  
C23  22452256.127   116914800.440       -1892.848          25.000  
C32  22180261.924   115498446.815         929.302          31.000  
C37  22612766.208   117750635.772         756.766          32.000  
E02                                                                                                                                  23433218.121    91956973.359         614.177          24.000  
G10  20474792.096   107595745.389       -1795.026          34.000    20474798.392    80347468.247       -1339.828          28.000  
G23  22503377.636   118256146.5951      -3587.257          20.000  
G25  21000238.338   110356989.4711      -1698.856          25.000  
G26  22985559.628   120789858.827        3210.285          26.000  
G31  21180500.245   111304274.370         340.668          36.000  
G32  21308512.224   111976964.376         784.230          31.000    21308502.631    83619117.051         584.465          31.000  
R01  19730175.983   105469098.130        1263.333          27.000  
R12  19876022.316   106174142.717        1390.436          26.000  
> 2021 11  6  7 28 42.9999519  0 16
C07  37827151.908   196975889.113        1025.071          26.000  
C10  38570371.887   200846073.721         920.181          32.000  
C16  37280932.747   194131606.207        -184.090          29.000  
C20  25782270.406   134255047.661        2612.931          29.000  
C23  22452557.118   116916383.027       -1896.596          18.000  
C32  22180020.591   115497207.545         926.593          32.000  
C37  22612561.150   117749566.449         758.236          32.000  
E02                                                                                                                                  23433002.570    91956125.419         611.617          24.000  
G10  20475078.098   107597224.153       -1793.142          33.000    20475079.897    80348574.023       -1342.856          28.000  
G23  22504000.605   118259419.176       -3587.686          20.000  
G25  21000501.555   110358374.372       -1701.209          22.000  
G26  22984888.093   120786333.531        3209.972          25.000  
G31  21180379.728   111303618.675         340.495          37.000  
G32  21308293.076   111975865.261         784.726          31.000    21308293.076    83618297.064         584.706          30.000  
R01  19729876.191   105467495.956        1262.690          28.000  
R12  19875700.939   106172426.240        1389.805          27.000  
> 2021 11  6  7 28 43.9999516  0 17
C07  37826864.407   196974394.962        1026.076          30.000  
C09  37674505.083   196181053.8351       -324.979          19.000  
C10  38570105.372   200844684.863         920.258          32.000  
C16  37280877.585   194131321.383        -183.110          27.000  
C20  25781679.215   134251967.008        2611.655          28.000  
C23  22452833.227   116917811.373       -1896.718          29.000  
C32  22179754.975   115495813.053         928.689          26.000  
C37  22612325.213   117748341.099         757.529          32.000  
E02                                                                                                                                  23432755.241    91955158.445         615.555          24.000  
G10  20475328.125   107598545.391       -1793.181          33.000    20475331.423    80349563.515       -1341.720          22.000  
G12  23468505.792   123327708.4961      -3137.387          19.000  
G23  22504596.892   118262534.685       -3588.097          19.000  
G26  22984188.078   120782650.784        3210.260          27.000  
G31  21180218.740   111302805.249         338.817          36.000  
G32  21308048.745   111974608.936         784.636          32.000    21308052.043    83617358.096         586.727          29.000  
R01  19729550.916   105465757.235        1261.366          29.000  
R12  19875352.280   106170564.170        1391.021          27.000  
> 2021 11  6  7 28 44.9999514  0 12
C07  37826606.285   196973056.845        1025.871          33.000  
C09  37674508.081   196181066.627        -324.751          26.000  
C10  38569865.238   200843453.301         920.528          32.000  
C20  25781118.303   134249043.339        2611.055          28.000  
C23  22453139.015   116919395.611       -1896.422          32.000  
C32  22179517.540   115494572.939         926.990          30.000  
C37  22612122.553   117747273.084         755.960          30.000  
G10  20475607.832   107600025.952       -1796.335          32.000    20475612.628    80350669.564       -1341.787          28.000  
G26  22983518.941   120779125.969        3209.226          28.000  
G32  21307838.291   111973510.093         783.314          35.000    21307843.387    83616535.994         586.591          21.000  
R01  19729256.520   105464183.167        1261.032          26.000  
R12  19875028.504   106168834.354        1386.544          25.000  
> 2021 11  6  7 28 45.9999511  0 16
C07  37826319.084   196971562.700        1025.550          34.000  
C09  37674481.699   196180923.254        -325.146          25.000  
C10  38569603.219   200842065.988         917.156          31.000  
C16  37280799.040   194130905.6121       -182.468          22.000  
C20  25780527.712   134245964.058        2610.637          29.000  
C23  22453415.424   116920824.072       -1896.846          32.000  
C32  22179250.125   115493178.069         926.277          30.000  
C37  22611886.617   117746049.506         757.132          30.000  
G10  20475860.257   107601349.891       -1798.053          37.000    20475864.754    80351659.002       -1341.948          26.000  
G12  23469548.769   123333199.5311      -3142.264          24.000  
G26  22982820.724   120775443.932        3209.187          27.000  
G31  21179935.436   111301336.1651        339.478          27.000  
G32  21307599.356   111972254.168         783.226          28.000    21307603.253    83615596.417         587.561          24.000  
R01  19728920.752   105462388.660        1264.048          23.000  
R08  20646348.330   110560257.1941      -1723.502          19.000  
R12  19874678.646   106166965.328        1384.715          25.000  
> 2021 11  6  7 28 46.9999508  0 14
C07  37826031.883   196970069.428        1024.670          30.000  
C09  37674454.418   196180780.092        -325.641          23.000  
C10  38569336.704   200840679.693         921.029          31.000  
C16  37280744.478   194130620.852        -184.574          23.000  
C20  25779935.622   134242884.328        2610.993          28.000  
C23  22453688.835   116922250.516       -1895.580          30.000  
C32  22178983.309   115491783.805         925.088          30.000  
C37  22611651.280   117744826.713         754.389          28.000  
G10  20476113.582   107602675.512       -1802.070          36.000    20476115.680    80352645.438       -1337.520          24.000  
G26  22982118.610   120771763.924        3206.995          23.000  
G31  21179781.642   111300525.146         337.845          28.000  
G32  21307360.421   111970998.495         782.890          32.000    21307365.518    83614657.042         584.220          23.000  
R01  19728597.576   105460660.661        1260.872          26.000  
R12  19874334.784   106165128.699        1384.097          25.000  
> 2021 11  6  7 28 47.9999506  0 17
C03  36378044.804   189430043.2801       -348.410          28.000  
C07  37825774.361   196968731.716        1025.382          27.000  
C09  37674458.015   196180793.848        -325.858          23.000  
C10  38569101.067   200839448.268         916.044          30.000  
C16  37280716.597   194130492.969        -185.435          26.000  
C20  25779373.511   134239961.957        2610.021          26.000  
C23  22453994.323   116923835.251       -1897.778          31.000  
C32  22178744.974   115490547.072         924.299          28.000  
C37  22611445.322   117743759.994         753.803          28.000  
G10  20476396.286   107604158.529       -1799.417          34.000    20476396.885    80353748.674       -1338.909          26.000  
G12  23470591.148   123338697.7601      -3145.185          20.000  
G25  21001722.310   110364811.9891      -1695.666          17.000  
G26  22981450.073   120768241.172        3207.770          24.000  
G31  21179658.128   111299872.895         336.717          34.000  
G32  21307153.265   111969901.361         782.268          32.000    21307158.061    83613838.244         583.051          25.000  
R01  19728304.979   105459096.647        1257.880          28.000  
R12  19874015.805   106163424.263        1384.142          28.000  
> 2021 11  6  7 28 48.9999506  0 16
C07  37825576.798   196967707.545        1022.701          29.000  
C09  37674522.171   196181120.962        -327.844          23.000  
C10  38568922.091   200838530.763         917.974          33.000  
C16  37280752.872   194130678.871        -186.113          23.000  
C20  25778872.258   134237352.258        2610.045          26.000  
C23  22454359.770   116925733.614       -1898.840          29.000  
C32  22178565.998   115489623.582         922.386          31.000  
C37  22611300.522   117743006.765         752.083          31.000  
G10  20476733.552   107605958.378       -1801.364          32.000    20476740.448    80355089.817       -1343.853          29.000  
G12  23471189.833   123341842.794       -3145.690          20.000  
G26  22980839.996   120765034.446        3205.413          26.000  
G31  21179598.169   111299536.283         336.097          36.000  
G32  21307013.861   111969119.600         781.386          33.000    21307009.964    83613255.098         582.950          31.000  
R01  19728071.141   105457846.487        1257.249          32.000  
R08  20647157.470   110564590.3871      -1727.098          20.000  
R12  19873758.283   106162049.258        1383.491          27.000  
> 2021 11  6  7 28 49.9999503  0 16
C07  37825294.693   196966217.214        1022.439          25.000  
C09  37674494.890   196180981.641        -330.418          20.000  
C10  38568657.374   200837144.540         918.193          31.000  
C16  37280698.310   194130396.967        -186.282          32.000  
C20  25778280.768   134234274.450        2609.163          26.000  
C23  22454634.680   116927164.368       -1899.870          32.000  
C32  22178300.382   115488233.150         921.530          34.000  
C37  22611064.286   117741787.259         750.717          29.000  
G10  20476988.976   107607286.102       -1800.602          34.000    20476994.372    80356081.920       -1346.401          30.000  
G23  22508332.006   118282030.3421      -3593.500          27.000  
G26  22980141.779   120761355.744        3205.984          28.000  
G31  21179446.175                         331.413          35.000  
G32  21306773.727   111967865.081         781.790          30.000    21306771.929    83612319.558         582.193          32.000  
R01  19727745.866   105456108.313        1256.829          28.000  
R08  20647389.510   110565833.211       -1726.690          26.000  
R12  19873412.923   106160204.226        1383.444          31.000  
> 2021 11  6  7 28 50.9999501  0 16
C03  36378094.869   189430309.0531       -349.551          27.000  
C07  37825038.071   196964881.802        1023.254          27.000  
C09  37674499.687   196180999.446        -327.906          21.000  
C10  38568422.936   200835915.253         917.246          30.000  
C16  37280676.725   194130271.302        -188.170          30.000  
C20  25777718.657   134231353.783        2607.807          25.000  
C23  22454941.667   116928752.451       -1900.552          27.000  
C32  22178064.146   115487000.066         919.606          29.000  
C37  22610860.427   117740724.637         749.858          33.000  
G10  20477275.577   107608772.492       -1800.815          37.000    20477277.975    80357192.385       -1346.549          27.000  
G25  21002547.939   110369119.9021      -1701.606          17.000  
G26  22979472.342   120757834.363        3206.392          29.000  
G31  21179324.459                         334.716          36.000  
G32  21306565.372   111966768.469         780.853          27.000    21306562.973    83611501.006         583.823          32.000  
R01  19727454.767   105454552.496        1255.525          28.000  
R12  19873094.543   106158502.996        1381.986          29.000  
> 2021 11  6  7 28 51.9999498  0 17
C07  37824751.469   196963390.613        1023.433          27.000  
C10  38568154.922   200834529.947         914.212          30.000  
C16  37280624.561   194129989.722        -185.508          23.000  
C20  25777124.468   134228277.073        2608.823          27.000  
C23  22455218.076   116930185.122       -1901.731          26.000  
C32  22177796.731   115485612.007         920.176          30.000  
C37  22610627.189   117739506.677         749.383          34.000  
G10  20477527.103   107610102.225       -1803.915          35.000    20477531.300    80358185.904       -1346.571          29.000  
G12  23472748.754   123350017.8671      -3144.352          15.000  
G23  22509544.367   118288430.8411      -3592.796          17.000  
G25  21002780.578   110370345.943       -1696.754          16.000  
G26  22978771.428   120754155.506        3205.718          28.000  
G31  21179167.068   111297283.6761        333.580          35.000  
G32  21306327.636   111965515.310         780.174          36.000    21306324.339                         582.448          33.000  
R01  19727130.991   105452821.469        1254.975          32.000  
R08  20647886.865   110568496.0791      -1737.748          17.000  
R12  19872746.484   106156643.753        1380.985          31.000  
> 2021 11  6  7 28 52.9999496  0 16
C07  37824494.547   196962055.049        1023.271          24.000  
C09  37674473.904   196180872.6791       -325.539          25.000  
C10  38567919.285   200833302.994         914.447          29.000  
C16  37280600.577   194129862.860        -184.971          25.000  
C20  25776562.057   134225355.211        2609.832          27.000  
C23  22455525.663   116931775.034       -1901.841          26.000  
C32  22177560.494   115484379.435         920.280          34.000  
C37  22610423.629   117738447.067         747.684          31.000  
G10  20477807.709   107611590.914       -1803.764          35.000    20477814.304    80359296.976       -1346.434          29.000  
G23  22510167.036   118291708.329       -3593.715          20.000  
G25  21003044.695   110371729.178       -1701.492          15.000  
G26  22978099.892   120750635.713        3203.357          27.000  
G31  21179041.754   111296635.516         334.180          37.000  
G32  21306114.784   111964419.894         781.887          34.000    21306116.582    83609773.8771        584.512          32.000  
R08  20648152.481   110569918.566       -1732.831          16.000  
R12  19872431.102   106154959.092        1379.310          30.000  
> 2021 11  6  7 28 53.9999496  0 16
C07  37824297.883   196961032.214        1022.830          25.000  
C09  37674534.463   196181198.389        -326.370          24.000  
C10  38567744.206   200832388.352         913.927          24.000  
C16  37280635.353   194130048.398        -186.256          28.000  
C20  25776061.704   134222745.938        2608.804          27.000  
C23  22455889.911   116933676.671       -1901.609          34.000  
C32  22177383.917   115483459.235         920.080          37.000  
C37  22610282.727   117737698.042         749.432          29.000  
G10  20478154.569   107613395.249       -1802.137          33.000    20478156.967    80360643.959       -1347.779          27.000  
G25  21003369.370   110373432.641       -1704.910          17.000  
G26  22977489.815   120747431.291        3204.016          20.000  
G31  21178976.400   111296302.006         332.626          37.000  
G32  21305960.690                         779.561          32.000    21305967.885    83609191.568         582.386          30.000  
R01  19726605.755   105450013.7131       1254.308          18.000  
R08  20648472.060   110571630.171       -1731.135          19.000  
R12  19872172.681   106153579.243        1378.000          30.000  
> 2021 11  6  7 28 54.9999493  0 13
C07  37824008.284   196959541.679        1022.156          24.000  
C09  37674506.882   196181056.228        -327.336          24.000  
C16  37280579.592   194129765.823        -185.872          32.000  
C20  25775472.012   134219669.093        2608.045          31.000  
C23  22456163.322   116935110.027       -1901.905          39.000  
C32  22177117.701   115482071.679         918.813          35.000  
C37  22610049.788   117736479.776         750.062          33.000  
G10  20478414.489   107614727.486       -1803.148          32.000    20478410.891    80361638.630       -1348.196          28.000  
G26  22976787.701   120743754.779        3204.597          20.000  
G31  21178825.005   111295496.519         332.580          35.000  
G32  21305719.957   111962326.8741        779.575          36.000    21305729.550    83608256.758         581.328          27.000  
R08  20648704.699   110572875.288       -1730.769          25.000  
R12  19871825.821   106151725.686        1377.560          24.000  
> 2021 11  6  7 28 55.9999491  0 15
C07  37823754.660   196958207.222        1022.092          26.000  
C09  37674511.378   196181072.407        -328.981          28.000  
C10  38567244.452   200829782.1151        914.486          24.000  
C16  37280550.212   194129639.740        -187.314          32.000  
C20  25774912.300   134216749.028        2607.366          32.000  
C23  22456467.611   116936699.972       -1902.370          37.000  
C32  22176880.865   115480841.157         917.571          30.000  
C37  22609846.229   117735417.034         749.345          33.000  
G10  20478694.795   107616217.915       -1804.301          31.000    20478694.495    80362750.925       -1347.642          27.000  
G23  22512072.217   118301697.4031      -3589.915          18.000  
G31  21178706.886   111294849.648         330.360          35.000  
G32  21305514.599                         778.010          35.000    21305522.394    83607441.547         578.536          25.000  
R01  19725985.185   105446696.7151       1252.007          26.000  
R08  20648972.114   110574307.878       -1731.012          22.000  
R12  19871507.741   106150026.913        1376.169          29.000  
> 2021 11  6  7 28 56.9999488  0 17
C03  36378101.165   189430329.3181       -352.934          28.000  
C07  37823469.557   196956716.896        1021.168          25.000  
C09  37674486.196   196180933.605        -330.656          24.000  
C10  38566978.536   200828398.317         916.541          25.000  
C16  37280495.350   194129358.693        -186.873          33.000  
C20  25774323.507   134213673.712        2607.312          28.000  
C23  22456744.919                       -1903.524          37.000  
C32  22176612.850   115479455.251         917.758          29.000  
C37  22609613.590   117734200.839         746.562          30.000  
G10  20478945.721   107617551.655       -1809.564          31.000    20478947.819    80363746.213       -1348.762          29.000  
G12  23475449.584   123364190.7221      -3150.843          17.000  
G25  21004111.356   110377296.5351      -1710.904          18.000  
G26  22975410.454   120736558.4921       3204.181          25.000  
G31  21178552.793   111294045.195         332.095          36.000  
G32  21305275.665   111959982.8501        777.863          37.000    21305284.359    83606510.209         578.917          25.000  
R01  19725658.711   105444951.538        1251.358          30.000  
R12  19871160.882   106148174.045        1376.151          30.000  
> 2021 11  6  7 28 57.9999488  0 15
C06  36834149.949   191805169.9411       -241.535          27.000  
C07  37823273.792   196955696.288        1020.764          30.000  
C09  37674551.251   196181264.567        -331.271          21.000  
C10  38566802.258   200827481.824         916.090          32.000  
C16  37280535.223   194129545.231        -186.678          35.000  
C23  22457110.366   116940066.2111      -1903.381          38.000  
C32  22176436.273   115478537.457         917.245          30.000  
C37  22609466.092                         746.501          30.000  
G10                                                                  20479291.082    80365094.829       -1348.854          23.000  
G12  23476049.769   123367342.173       -3152.692          17.000  
G25  21004440.229   110379008.298       -1712.675          28.000  
G31  21178493.434   111293714.571         330.414          35.000  
G32  21305128.766   111959204.796         777.116          38.000    21305134.163    83605930.451         580.505          28.000  
R01  19725423.074   105443691.684        1250.358          30.000  
R12  19870902.460   106146794.252        1375.229          27.000  
> 2021 11  6  7 28 58.9999485  0 15
C03  36378153.029   189430574.2841       -360.130          31.000  
C06  36834104.680   191804942.963        -241.741          26.000  
C07  37822987.491   196954206.920        1020.828          32.000  
C10  38566533.644   200826098.680         914.056          28.000  
C16  37280480.061   194129263.679        -185.771          35.000  
C20  25773237.359   134207992.5011       2607.509          20.000  
C23  22457386.175   116941501.614       -1904.262          35.000  
C32  22176171.856   115477152.176         916.364          30.000  
C37  22609234.053   117732208.6781        745.333          29.000  
G10  20479531.815   107620694.7091      -1808.143          28.000    20479545.606    80366092.677       -1352.469          23.000  
G25  21004677.364   110380249.142       -1714.392          27.000  
G31  21178341.439   111292911.870         331.254          35.000  
G32  21304891.930   111957954.521         778.706          40.000    21304894.029    83604997.417         579.046          20.000  
R01  19725098.998   105441958.911        1249.584          34.000  
R12  19870554.401   106144934.144        1374.758          28.000  
> 2021 11  6  7 28 59.9999483  0 13
C06  36834089.391   191804872.809        -242.418          23.000  
C07  37822731.168   196952874.426        1019.668          32.000  
C10  38566296.808   200824871.914         915.071          27.000  
C16  37280458.775                        -186.668          32.000  
C23  22457691.364   116943093.754       -1904.741          34.000  
C32  22175937.418   115475923.840         915.838          30.000  
C37  22609033.192   117731151.096         745.346          28.000  
G10  20479816.318   107622188.308       -1809.499          28.000    20479830.109    80367208.999       -1352.013          22.000  
G25  21004944.180   110381648.146       -1713.741          24.000  
G31  21178214.627   111292267.294         328.986          35.000  
G32  21304684.474   111956862.235         776.929          40.000  
R01  19724803.703   105440380.158        1248.647          34.000  
R12  19870233.024   106143217.404        1373.096          27.000  
> 2021 11  6  7 29  0.9999480  0 15
C03  36378146.133   189430516.8231       -362.289          31.000  
C06  36834043.522   191804646.029        -241.117          26.000  
C07  37822443.367   196951386.013        1019.090          32.000  
C10  38566030.293   200823486.953         916.879          25.000  
C16  37280403.614   194128850.6811       -188.158          34.000  
C23  22457965.974   116944530.277       -1906.500          36.000  
C32  22175672.701   115474540.939         913.569          31.000  
C37  22608799.953   117729938.298         744.105          29.000  
E08                                                                                                                                  24060785.065    94419688.4361       1128.751          26.000  
G10  20480072.641   107623526.096       -1811.090          29.000    20480084.033    80368208.335       -1351.989          21.000  
G25  21005180.716   110382890.294       -1714.993          26.000  
G31  21178062.632   111291465.795         328.072          36.000  
G32  21304447.038   111955612.689         776.077          39.000  
R01  19724482.025   105438660.862        1248.327          35.000  
R12  19869887.363   106141371.295        1372.714          28.000  
> 2021 11  6  7 29  1.9999478  0 16
C03  36378153.628   189430564.879        -359.670          32.000  
C06  36834028.233   191804575.249        -241.935          26.000  
C07  37822188.544   196950055.310        1019.295          31.000  
C10  38565792.557   200822258.831         915.240          26.000  
C16  37280377.532   194128726.331        -187.509          35.000  
C23  22458272.362   116946123.978       -1905.885          36.000  
C32  22175437.964   115473315.298         913.306          32.000  
C37  22608596.994   117728881.681         744.599          29.000  
E08                                                                                                                                  24060438.205    94418324.308        1128.726          26.000  
G10  20480358.943   107625022.906       -1812.547          30.000    20480367.337    80369323.766       -1350.604          21.000  
G25  21005447.231   110384290.520       -1716.101          25.000  
G26  22972072.865   120718970.1621       3204.579          15.000  
G31  21177940.317   111290823.016         326.313          35.000  
G32  21304237.483   111954521.619         776.239          39.000  
R01  19724191.227   105437106.186        1247.660          35.000  
R12  19869568.684   106139668.659        1371.307          27.000  
> 2021 11  6  7 29  2.9999475  0 15
C06  36833983.864   191804349.216        -242.566          24.000  
C07  37821906.139                        1017.493          32.000  
C10  38565526.641   200820875.744         913.749          26.000  
C16  37280326.267   194128446.152        -187.737          34.000  
C23  22458546.372   116947562.268       -1906.671          35.000  
C32  22175174.146   115471932.694         913.905          32.000  
C37  22608364.955   117727669.339         743.087          29.000  
E08                                                                                                                                  24060061.366    94416842.695        1127.253          26.000  
G10  20480615.865   107626363.071       -1813.323          30.000    20480623.060    80370321.847       -1350.037          22.000  
G25  21005685.866   110385534.440       -1717.626          25.000  
G26  22971369.552   120715289.717        3204.133          14.000  
G31  21177785.025   111290023.585         325.376          35.000  
G32  21303999.148   111953273.546         775.637          39.000  
R01  19723871.948   105435399.474        1246.123          35.000  
R12  19869217.627   106137793.205        1368.739          27.000  
> 2021 11  6  7 29  3.9999473  0 15
C06  36833968.574   191804278.887        -240.772          24.000  
C07  37821645.919   196947259.5801       1020.917          31.000  
C09  37674491.292   196180921.4181       -328.186          16.000  
C10  38565286.807   200819650.810         911.316          25.000  
C16  37280301.384   194128321.822        -188.097          34.000  
C23  22458850.661   116949156.768       -1904.459          35.000  
C32  22174938.210                         913.883          32.000  
C37  22608162.295   117726615.127         740.718          28.000  
E08                                                                                                                                  24059713.607    94415479.769        1128.520          26.000  
G10  20480903.066   107627861.398       -1813.583          31.000    20480907.863    80371439.399       -1355.571          23.000  
G25  21005950.583   110386936.760       -1718.206          25.000  
G31  21177659.411   111289381.765         328.160          35.000  
G32  21303791.692   111952182.917         776.191          39.000  
R01  19723578.451   105433831.185        1245.848          35.000  
R12  19868905.543   106136126.712        1367.623          27.000  
> 2021 11  6  7 29  4.9999470  0 17
C03  36378117.653   189430389.8061       -356.459          32.000  
C06  36833923.006   191804050.399        -239.352          23.000  
C07  37821360.817   196945773.193        1018.465          30.000  
C09  37674462.512   196180780.333        -327.331          23.000  
C10  38565020.292   200818271.506         910.121          25.000  
C16  37280240.527   194128041.191        -188.397          35.000  
C23  22459127.669   116950595.280       -1908.130          36.000  
C32  22174671.095   115469341.1611        912.314          33.000  
C37  22607929.056   117725406.256         740.433          28.000  
E08                                                                                                                                  24059336.168    94413998.377        1126.696          26.000  
G10  20481158.189   107629201.722       -1811.918          31.000    20481162.686    80372441.205       -1355.477          26.000  
G25  21006185.021   110388182.031       -1718.124          27.000  
G26  22970011.492   120708098.9191       3198.657          16.000  
G31  21177510.115   111288583.312         325.469          35.000  
G32  21303556.055   111950934.819         774.571          40.000  
R01  19723257.373   105432114.289        1245.306          34.000  
R12  19868556.285   106134261.133        1366.088          25.000  
> 2021 11  6  7 29  5.9999468  0 14
C06  36833911.913   191803978.192        -240.886          26.000  
C07  37821105.693   196944443.405        1017.741          27.000  
C09  37674463.711   196180796.195        -330.031          24.000  
C16  37280218.941   194127917.265        -188.474          31.000  
C23  22459436.755   116952190.850       -1908.784          39.000  
C32  22174429.762   115468117.007         911.550          33.000  
C37  22607726.397   117724353.815         740.347          32.000  
E08                                                                                                                                  24058986.910    94412636.864        1127.068          26.000  
G10  20481442.093   107630700.297       -1814.512          29.000    20481449.288    80373561.211       -1356.346          30.000  
G12  23480274.144   123389445.9511      -3161.035          17.000  
G25  21006449.438   110389585.356       -1718.975          22.000  
G31  21177386.900   111287942.885         326.483          34.000  
G32  21303349.798   111949844.924         773.892          40.000  
R01  19722969.572   105430576.374        1245.466          31.000  
> 2021 11  6  7 29  6.9999468  0 15
C06  36833959.880   191804220.237        -242.318          31.000  
C07  37820911.128   196943425.723        1018.008          26.000  
C09  37674525.769   196181126.276        -330.037          27.000  
C16  37280255.516   194128105.636        -188.999          30.000  
C23  22459802.502   116954099.163       -1910.137          35.000  
C32  22174254.083   115467205.598         910.554          35.000  
C37  22607583.995   117723613.275         740.623          32.000  
E08                                                                                                                                  24058697.310    94411509.586        1128.316          26.000  
G10                                                                  20481796.148    80374917.484       -1356.758          29.000  
G23  22518891.896   118337616.3201      -3587.577          16.000  
G25  21006775.312   110391304.261       -1720.250          23.000  
G26  22968738.873   120701383.4321       3200.116          24.000  
G31  21177322.145   111287617.831         324.233          35.000  
G32  21303203.799   111949070.448         774.198          34.000  
R12  19867994.474   106131260.1601       1366.732          30.000  
> 2021 11  6  7 29  7.9999465  0 15
C06  36833918.209   191803994.419        -242.624          32.000  
C07  37820624.826   196941937.869        1019.775          20.000  
C09  37674498.787   196180987.919        -330.284          23.000  
C10  38564350.855   200814756.4521        913.089          20.000  
C16  37280196.757   194127825.493        -184.993          31.000  
C23  22460076.513   116955539.503       -1908.728          33.000  
C32  22173993.863   115465826.342         910.633          35.000  
C37  22607348.059   117722402.061         741.517          26.000  
E08                                                                                                                                  24058319.872    94410027.810        1128.214          26.000  
G10                                                                  20482051.271    80375920.123       -1355.776          29.000  
G26  22968038.558   120697711.229        3198.847          26.000  
G31  21177173.148   111286820.653         323.599          32.000  
G32  21302963.365   111947823.377         774.365          37.000  
R01  19722417.355   105427624.5341       1244.513          22.000  
R12  19867656.608   106129454.889        1368.684          26.000  
> 2021 11  6  7 29  8.9999462  0 15
C06  36833877.437   191803769.236        -243.648          30.000  
C07  37820337.625   196940451.451        1017.388          23.000  
C09  37674470.307   196180849.768        -330.119          23.000  
C10  38564086.438   200813374.922         913.266          25.000  
C16  37280142.794   194127546.090        -189.543          28.000  
C23  22460351.722   116956981.333       -1910.856          27.000  
C32  22173727.648   115464447.691         909.816          34.000  
C37  22607115.719   117721193.593         739.593          31.000  
E08                                                                                                                                  24057942.433    94408546.180        1128.230          27.000  
G10  20482301.298   107635202.5341      -1816.067          33.000    20482306.994    80376923.901       -1357.396          29.000  
G26  22967343.039   120694040.651        3197.422          22.000  
G31  21177019.355   111286024.701         324.545          33.000  
G32  21302716.936   111946576.783         773.172          31.000  
R01  19722095.677   105425904.740        1243.046          28.000  
R12  19867312.746   106127618.474        1365.255          22.000  
> 2021 11  6  7 29  9.9999462  0 14
C06  36833923.006   191804012.517        -242.941          31.000  
C07  37820142.760   196939434.736        1016.158          28.000  
C09  37674531.764   196181180.040        -330.711          28.000  
C10  38563913.158   200812463.319         910.651          22.000  
C16  37280177.570   194127735.024        -188.726          24.000  
C23  22460718.968   116958891.909       -1910.522          30.000  
C32  22173549.571   115463537.900         908.911          34.000  
C37  22606973.618   117720454.884         738.225          32.000  
E08                                                                                                                                  24057654.033    94407417.600        1128.685          28.000  
G10  20482643.061   107637018.905       -1816.917          31.000    20482653.254    80378281.617       -1358.598          29.000  
G23  22520778.789   118347470.8101      -3610.538          18.000  
G26  22966739.557   120690843.537        3196.671          25.000  
G31  21176954.000   111285701.228         323.548          33.000  
G32  21302577.532   111945803.166         773.257          30.000  
> 2021 11  6  7 29 10.9999460  0 15
C06  36833909.815   191803943.219        -242.717          32.000  
C07  37819888.836   196938107.219        1015.074          27.000  
C09  37674533.263   196181197.717        -329.099          27.000  
C10  38563681.419   200811241.010         910.597          23.000  
C16  37280154.786   194127610.750        -187.150          28.000  
C23  22461025.955   116960489.974       -1910.051          34.000  
C32  22173314.234   115462316.503         909.256          35.000  
C37  22606772.757   117719405.037         737.144          35.000  
E08                                                                                                                                  24057305.074    94406053.597        1128.106          26.000  
G10  20482928.464   107638521.707       -1818.802          32.000    20482939.556    80379405.165       -1358.663          29.000  
G12  23483031.635   123403982.0681      -3161.834          18.000  
G23  22521408.054   118350770.452       -3618.092          16.000  
G31  21176831.984   111285063.407         321.693          32.000  
G32  21302373.973   111944714.708         773.279          36.000  
R12  19866729.349   106124502.0891       1362.050          20.000  
> 2021 11  6  7 29 11.9999457  0 15
C06  36833867.244   191803717.995        -244.014          31.000  
C07  37819604.333   196936623.956        1015.017          26.000  
C09  37674505.682   196181058.757        -328.987          26.000  
C10  38563417.602   200809862.510         910.154          26.000  
C16  37280101.123   194127329.783        -187.720          27.000  
C23  22461303.563   116961932.106       -1911.157          32.000  
C32  22173050.716   115460939.460         908.467          35.000  
C37  22606543.116   117718199.834         736.651          35.000  
E08                                                                                                                                  24056928.535    94404573.744        1127.221          24.000  
G10                                                                  20483195.579    80380411.176       -1358.362          29.000  
G12  23483544.281   123406677.017       -3170.161          16.000  
G23  22522003.741   118353911.795       -3609.955          16.000  
G31  21176683.887   111284268.315         322.786          32.000  
G32  21302135.039   111943468.869         773.334          35.000  
R12  19866381.590   106122643.627        1362.192          19.000  
> 2021 11  6  7 29 12.9999455  0 12
C06  36833856.152                        -242.846          31.000  
C07  37819351.907   196935295.829        1016.891          21.000  
C09  37674506.282   196181076.121        -331.515          17.000  
C10  38563183.763   200808639.723         910.182          27.000  
C16  37280080.437   194127205.813        -189.146          27.000  
C23  22461611.450   116963530.148       -1910.394          31.000  
C32  22172822.574   115459719.277         907.372          34.000  
C37  22606344.353                         736.039          34.000  
E08                                                                                                                                  24056582.874    94403212.700        1125.278          26.000  
G10  20483479.182                       -1820.357          33.000    20483481.581    80381534.456       -1358.135          28.000  
G31  21176570.865   111283631.666         322.503          33.000  
G32                                                                  21301934.478    83593365.2821        578.322          32.000  
> 2021 11  6  7 29 13.9999452  0 13
C06  36833814.481   191803329.0101       -243.594          31.000  
C07  37819071.602   196933810.360        1017.298          22.000  
C09  37674477.502   196180940.090        -333.949          15.000  
C10  38562919.047   200807260.876         911.077          27.000  
C16  37280029.772   194126927.039        -189.388          26.000  
C23  22461889.358   116964972.954       -1911.464          31.000  
C32  22172558.757   115458343.498         906.637          34.000  
C37  22606110.515   117715961.9831        734.526          33.000  
E08                                                                                                                                  24056206.635    94401733.160        1127.612          28.000  
G10  20483740.901   107642757.7571      -1820.723          33.000    20483737.903    80382541.195       -1361.303          28.000  
G23  22523231.092   118360338.7051      -3605.658          18.000  
G31  21176418.271   111282838.005         321.114          34.000  
G32  21301698.841   111941136.0491        773.765          32.000    21301696.742    83592435.652         575.216          31.000  
> 2021 11  6  7 29 14.9999450  0 12
C06  36833801.890   191803260.173        -242.821          32.000  
C09  37674481.399   196180962.198        -333.052          24.000  
C10  38562681.611   200806037.449         911.444          27.000  
C16  37280006.089   194126805.228        -191.115          25.000  
C23  22462198.743   116966572.508       -1912.435          31.000  
C32  22172324.019   115457124.222         907.755          33.000  
E08                                                                                                                                  24055860.075    94400369.972        1128.996          26.000  
G10                                                                  20484025.105    80383667.249       -1361.997          30.000  
G26  22963344.108   120672966.5571       3195.222          19.000  
G31  21176295.656   111282202.296         319.944          34.000  
G32  21301492.584   111940048.422         773.542          30.000    21301488.087    83591623.705         576.133          31.000  
R12  19865410.263   106117455.7351       1362.258          23.000  
> 2021 11  6  7 29 15.9999447  0 13
C06  36833761.418   191803035.303        -243.340          32.000  
C07  37818528.677   196930995.3801       1015.425          24.000  
C09  37674457.116   196180827.240        -332.895          25.000  
C16  37279953.325   194126528.321        -192.080          24.000  
C23  22462474.852   116968017.310       -1913.708          28.000  
C32  22172061.102   115455749.392         906.230          34.000  
C37  22605682.412   117713711.5221        734.647          25.000  
E08                                                                                                                                  24055483.235    94398888.218        1129.251          25.000  
G10  20484274.532   107645614.7201      -1824.195          33.000    20484281.427    80384676.421       -1361.350          29.000  
G23  22524463.538   118366760.7481      -3604.898          20.000  
G31  21176144.560   111281409.662         319.526          34.000  
G32  21301257.546   111938802.404         772.958          25.000    21301251.550    83590694.312         575.672          30.000  
R12  19865063.403   106115602.769        1358.760          21.000  
> 2021 11  6  7 29 16.9999444  0 14
C06  36833716.449   191802810.520        -244.406          32.000  
C07  37818244.474   196929511.417        1016.050          26.000  
C09  37674430.135   196180691.537        -332.331          26.000  
C10  38562146.781   200803278.9151        910.704          26.000  
C16  37279900.562   194126250.572        -189.037          20.000  
C23  22462752.160   116969462.172       -1913.281          28.000  
C32  22171796.685   115454375.129         905.417          35.000  
C37  22605452.171   117712508.193         736.027          27.000  
E08                                                                                                                                  24055107.596    94397407.692        1126.672          26.000  
G10  20484535.651   107646965.665       -1824.436          33.000    20484538.049    80385684.844       -1361.351          28.000  
G23  22525063.723   118369893.322       -3605.993          24.000  
G31  21175996.762   111280617.614         318.961          35.000  
G32  21301020.710   111937557.564         771.624          30.000    21301015.914    83589765.149         577.568          30.000  
R12  19864721.939   106113778.031        1357.741          20.000  
> 2021 11  6  7 29 17.9999444  0 14
C06  36833763.816   191803054.178        -241.388          32.000  
C07  37818049.309   196928497.920        1012.865          25.000  
C09  37674495.789   196181023.903        -332.639          25.000  
C10  38561971.702   200802369.336         909.053          26.000  
C16  37279936.537   194126439.575        -189.114          20.000  
C23  22463119.406   116971375.119       -1912.468          27.000  
C32  22171621.606   115453469.868         905.589          34.000  
C37  22605310.369   117711771.408         736.470          27.000  
E08                                                                                                                                  24054820.694    94396281.225        1124.901          26.000  
G10  20484880.412   107648790.147       -1825.581          33.000    20484884.310    80387046.745       -1362.769          28.000  
G23  22525751.747   118373499.454       -3606.398          24.000  
G31  21175935.905   111280298.788         318.315          35.000  
G32  21300874.112   111936786.225         770.855          30.000    21300868.116    83589189.261         575.598          31.000  
R12  19864464.717   106112404.729        1356.297          19.000  
> 2021 11  6  7 29 18.9999442  0 14
C06  36833747.327   191802985.762        -244.864          32.000  
C07  37817792.987   196927173.211        1012.840          25.000  
C09  37674500.286   196181044.384        -332.037          26.000  
C10  38561736.965   200801147.423         910.405          25.000  
C16  37279913.753   194126316.352        -189.518          23.000  
C23  22463426.094   116972975.334       -1913.163          30.000  
C32  22171390.166   115452252.867         904.462          36.000  
C37  22605109.209   117710724.451         733.406          27.000  
E08                                                                                                                                  24054474.734    94394920.927        1125.933          26.000  
G10                                                                  20485171.211    80388175.016       -1364.976          27.000  
G23  22526377.713   118376791.124       -3606.171          26.000  
G31  21175816.887   111279665.386         317.924          35.000  
G32  21300666.955   111935700.677         769.779          31.000    21300662.158    83588378.259         574.855          30.000  
R12  19864151.434   106110731.029        1355.812          19.000  
> 2021 11  6  7 29 19.9999439  0 14
C06  36833704.157   191802761.173        -244.626          32.000  
C07  37817509.383   196925692.170        1013.395          24.000  
C09  37674475.403   196180907.869        -332.046          26.000  
C10  38561471.349   200799768.365         910.503          26.000  
C16  37279859.490   194126037.482        -188.689          25.000  
C23  22463704.601   116974420.691       -1914.420          31.000  
C32  22171125.149   115450880.277         903.425          35.000  
C37  22604878.368   117709523.288         731.735          28.000  
E08                                                                                                                                  24054096.695    94393441.975        1127.203          27.000  
G10  20485420.039   107651653.5991      -1826.434          32.000    20485429.033    80389186.299       -1363.765          28.000  
G25  21010186.351   110409166.9781      -1732.870          21.000  
G31  21175662.494   111278874.983         316.474          35.000  
G32  21300430.719   111934458.478         769.660          30.000    21300425.622    83587449.779         574.012          30.000  
R12  19863813.268   106108924.687        1355.274          25.000  
> 2021 11  6  7 29 20.9999437  0 17
C06  36833693.664   191802692.922        -243.077          32.000  
C07  37817252.461   196924366.891        1012.395          23.000  
C09  37674477.502   196180926.118        -330.122          21.000  
C10  38561236.611   200798545.360         910.278          26.000  
C16  37279835.207   194125913.961        -187.286          22.000  
C23  22464013.087   116976022.828       -1913.663          24.000  
C32  22170891.311   115449664.389         903.449          36.000  
C37  22604678.107   117708479.057         731.625          31.000  
E08                                                                                                                                  24053748.936    94392080.299        1126.654          27.000  
G10                                                                  20485716.234    80390314.111       -1364.883          28.000  
G12  23488328.968   123432010.4911      -3157.548          16.000  
G23  22527604.464   118383217.8771      -3609.991          23.000  
G25  21010453.466   110410584.444       -1733.692          22.000  
G31  21175541.078   111278242.671         316.108          36.000  
G32                                                                  21300219.365    83586639.197         577.487          32.000  
R01  19718561.424   105407011.9811       1235.247          30.000  
R12  19863500.884   106107256.351        1352.985          28.000  
> 2021 11  6  7 29 21.9999434  0 17
C06  36833653.193   191802468.571        -244.355          32.000  
C07  37816968.857   196922885.455        1013.582          24.000  
C09  37674452.020   196180788.375        -330.786          24.000  
C10  38560971.595   200797166.624         910.270          26.000  
C16  37279781.244   194125632.817        -188.243          14.000  
C20  25760193.689   134140179.9961       2602.976          25.000  
C23  22464289.196   116977468.783       -1914.477          20.000  
C32  22170628.094   115448292.909         903.414          35.000  
C37  22604448.166   117707278.972         731.482          30.000  
E08                                                                                                                                  24053371.497    94390600.563        1127.339          27.000  
G10  20485963.563   107654519.8041      -1827.838          26.000    20485974.955    80391325.931       -1364.669          28.000  
G23  22528199.852   118386353.996       -3608.072          24.000  
G25  21010690.602   110411845.054       -1732.771          24.000  
G31  21175393.280   111277453.370         315.183          35.000  
G32  21299987.326   111932131.2221        770.125          33.000    21299983.129    83585711.144         573.503          30.000  
R01  19718239.147   105405289.361        1234.330          31.000  
R12  19863155.823   106105412.287        1352.265          27.000  
> 2021 11  6  7 29 22.9999432  0 15
C06  36833636.104   191802400.394        -244.435          32.000  
C07  37816714.034   196921559.783        1013.279          25.000  
C09  37674458.315   196180807.354        -332.027          25.000  
C10  38560736.857   200795944.461         909.681          27.000  
C20  25759635.176   134137264.895        2602.802          24.000  
C32  22170395.455   115447078.067         901.578          35.000  
C37  22604247.305   117706235.171         731.226          30.000  
E08                                                                                                                                  24053024.638    94389238.573        1125.067          27.000  
G10                                                                  20486263.055    80392455.634       -1365.897          28.000  
G23  22528823.120   118389649.295       -3612.100          22.000  
G25  21010959.515   110413262.234       -1732.425          23.000  
G31  21175274.263   111276822.127         315.596          35.000  
G32  21299780.469   111931046.080         769.961          33.000    21299776.572    83584900.993         573.931          31.000  
R01  19717948.348   105403734.948        1233.310          30.000  
R12  19862842.240   106103737.100        1351.212          28.000  
> 2021 11  6  7 29 23.9999429  0 15
C06  36833592.335   191802176.301        -244.173          33.000  
C07  37816430.430   196920077.425        1015.032          24.000  
C09  37674433.432   196180672.824        -334.734          23.000  
C10  38560473.640   200794567.143         908.552          26.000  
C20  25759045.484   134134194.188        2602.024          22.000  
C32  22170132.237   115445707.741         902.401          35.000  
C37  22604017.065   117705035.615         730.572          31.000  
E08                                                                                                                                  24052647.199    94387759.278        1126.246          27.000  
G10  20486504.688   107657388.5291      -1828.535          27.000    20486520.877    80393468.809       -1366.541          28.000  
G23  22529420.607   118392787.483       -3610.587          23.000  
G25  21011197.251   110414522.255       -1733.656          23.000  
G31  21175124.067   111276033.943         316.945          34.000  
G32  21299543.933                         769.547          33.000    21299540.035    83583973.456         574.753          30.000  
R01  19717627.570   105402020.200        1232.415          31.000  
R12  19862501.676   106101918.691        1350.098          29.000  
> 2021 11  6  7 29 24.9999427  0 15
C06  36833580.043   191802108.271        -245.321          32.000  
C07  37816175.606   196918751.590        1013.124          24.000  
C09  37674439.428   196180695.371        -333.977          25.000  
C10  38560238.902   200793348.467         905.681          26.000  
C20  25758485.472   134131279.973        2601.749          25.000  
C32  22169898.699   115444494.020         902.019          35.000  
C37  22603816.503   117703992.909         729.887          31.000  
E08                                                                                                                                  24052300.639    94386398.322        1125.542          28.000  
G10  20486791.889   107658902.640       -1830.837          28.000    20486809.577    80394600.183       -1366.448          28.000  
G23  22530050.171   118396083.356       -3610.739          22.000  
G25  21011467.364   110415940.702       -1734.476          23.000  
G31  21175001.452   111275403.825         313.892          35.000  
G32  21299333.778   111928774.3721        768.674          33.000    21299333.778    83583163.681         574.514          31.000  
R01  19717338.271   105400473.728        1231.376          31.000  
R12  19862189.292   106100249.417        1349.592          28.000  
> 2021 11  6  7 29 25.9999427  0 14
C06  36833627.710   191802352.503        -244.255          32.000  
C07  37815982.540   196917739.599        1011.483          26.000  
C10  38560064.723   200792441.981         907.784          27.000  
C20  25757986.917   134128679.300        2599.794          25.000  
C32  22169728.117   115443592.973         900.971          35.000  
C37  22603676.201   117703263.353         728.995          32.000  
E08                                                                                                                                  24052013.737    94385272.333        1124.819          27.000  
G10  20487141.447   107660733.528       -1831.112          28.000    20487158.235    80395967.175       -1366.795          28.000  
G23  22530735.796   118399693.454       -3608.889          23.000  
G25  21011795.337   110417675.690       -1735.607          24.000  
G31  21174938.795   111275089.271         313.043          34.000  
G32  21299186.280   111928005.261         768.439          34.000    21299187.479    83582589.357         573.322          31.000  
R01  19717105.932   105399231.335        1231.037          32.000  
R12  19861938.366   106098909.653        1348.046          31.000  
> 2021 11  6  7 29 26.9999424  0 15
C021792368672.899                        -187.803          30.000  
C06  36833580.043   191802128.614        -245.580          32.000  
C07  37815699.236   196916259.468        1012.631          24.000  
C10  38559800.606   200791065.324         909.769          28.000  
C20  25757399.623   134125611.268        2599.998          25.000  
C32  22169462.201   115442224.105         900.183          35.000  
C37  22603445.360   117702065.734         729.162          32.000  
E08                                                                                                                                  24051636.898    94383794.171        1126.897          28.000  
G10  20487399.868   107662091.579       -1830.690          30.000    20487417.256    80396982.069       -1367.905          27.000  
G12  23491555.634   123448913.2101      -3170.121          18.000  
G25  21012035.171   110418940.792       -1739.784          24.000  
G31  21174793.995   111274302.559         314.093          35.000  
G32  21298952.442   111926763.914         768.850          35.000    21298950.643    83581662.487         573.171          30.000  
R01  19716784.254   105397511.968        1230.233          32.000  
R12  19861596.303   106097082.221        1347.687          30.000  
> 2021 11  6  7 29 27.9999424  0 15
C06  36833625.911   191802372.318        -239.323          28.000  
C07  37815502.273   196915246.681        1013.658          26.000  
C09  37674545.855   196181224.0441       -331.127          19.000  
C10  38559627.026   200790155.708         909.429          27.000  
C23  22466202.472   116987404.4581      -1920.869          26.000  
C32  22169287.122   115441324.129         897.582          34.000  
C37  22603303.858   117701336.786         728.626          30.000  
E08                                                                                                                                  24051349.997    94382667.372        1127.165          27.000  
G10                                                                  20487766.215    80398350.231       -1368.417          29.000  
G23  22532024.304   118406441.9341      -3612.406          23.000  
G25  21012366.741   110420681.536       -1741.257          22.000  
G26  22954649.227   120627331.7241       3190.995          24.000  
G31  21174731.638   111273989.161         313.770          36.000  
G32  21298808.242   111925993.659         768.209          34.000    21298803.145    83581088.701         573.095          31.000  
R01  19716551.915   105396270.173        1229.606          31.000  
> 2021 11  6  7 29 28.9999421  0 14
C06  36833582.741   191802148.033        -244.910          27.000  
C10  38559363.808   200788778.203         908.680          26.000  
C20  25756311.976   134119940.8611       2600.772          21.000  
C23  22466480.979   116988857.096       -1921.377          34.000  
C32  22169023.604   115439956.370         898.284          35.000  
C37  22603072.119   117700140.189         727.893          31.000  
E08                                                                                                                                  24050972.258    94381188.215        1126.544          26.000  
G10                                                                  20488026.135    80399366.104       -1369.422          29.000  
G23  22532624.788   118409581.400       -3612.156          27.000  
G25  21012605.376   110421949.714       -1741.342          26.000  
G26  22953951.610   120623669.183        3188.330          24.000  
G31  21174585.040   111273203.558         312.510          37.000  
G32  21298573.804   111924752.654         768.711          31.000    21298566.909    83580161.994         573.493          30.000  
R12  19861011.708   106093958.7311       1347.236          19.000  
> 2021 11  6  7 29 29.9999419  0 17
C06  36833568.951   191802080.226        -244.074          27.000  
C07  37814961.747   196912440.1181       1012.694          26.000  
C09  37674522.171   196181106.0831       -331.135          22.000  
C10  38559129.970   200787557.383         908.114          27.000  
C20  25755751.065   134117028.049        2600.840          27.000  
C23  22466790.065   116990465.384       -1919.615          29.000  
C32  22168792.764   115438745.143         896.693          34.000  
C37  22602871.258   117699100.055         727.781          33.000  
E08                                                                                                                                  24050625.398    94379826.677        1125.080          27.000  
G10  20488312.137                       -1834.096          38.000    20488315.135    80400500.200       -1369.470          28.000  
G23  22533252.554   118412879.467       -3612.934          24.000  
G25  21012874.590   110423375.753       -1740.826          23.000  
G26  22953284.272   120620166.228        3186.926          25.000  
G31  21174466.022   111272575.820         312.228          38.000  
G32  21298368.147   111923668.617         768.852          29.000    21298361.251    83579353.251         573.476          30.000  
R01  19715938.540   105392991.7331       1228.368          25.000  
R12  19860698.125   106092284.460        1344.739          21.000  
> 2021 11  6  7 29 30.9999416  0 15
C06  36833525.481   191801856.544        -244.926          28.000  
C07  37814676.644   196910959.489        1011.858          26.000  
C09  37674496.389   196180969.733        -329.836          20.000  
C10  38558866.152   200786181.809         906.973          28.000  
C23  22467067.972   116991916.022       -1919.232          24.000  
C32  22168529.846   115437378.236         896.148          33.000  
C37  22602638.919   117697904.961         726.182          32.000  
E08                                                                                                                                  24050248.260    94378347.859        1125.791          28.000  
G10  20488575.354   107668168.3041      -1835.676          36.000    20488573.855    80401516.511       -1369.512          29.000  
G23  22533853.038   118416019.390       -3611.709          27.000  
G25  21013111.725   110424642.899       -1738.778          22.000  
G26  22952586.955   120616505.441        3188.998          23.000  
G31  21174317.925   111271791.190         310.545          37.000  
G32  21298128.313   111922425.448         770.944          27.000    21298125.914    83578426.808         574.045          30.000  
R01  19715615.663   105391265.217        1228.167          30.000  
> 2021 11  6  7 29 31.9999414  0 18
C06  36833513.189   191801789.221        -245.506          29.000  
C07  37814424.219   196909635.895        1010.784          23.000  
C09  37674496.988   196180987.741        -330.179          24.000  
C10  38558632.914   200784962.553         907.057          27.000  
C20  25754597.763   134111044.2511       2601.241          26.000  
C23  22467374.960   116993522.931       -1918.620          29.000  
C32  22168296.308   115436167.943         896.788          35.000  
C37  22602442.555                         726.835          35.000  
E08                                                                                                                                  24049901.400    94376986.726        1125.418          27.000  
G10  20488865.853   107669688.242       -1834.866          37.000    20488863.455    80402651.181       -1371.047          29.000  
G12  23494274.152   123463216.9001      -3174.973          16.000  
G23  22534483.502   118419316.702       -3612.977          23.000  
G26  22951919.017   120613001.751        3188.742          22.000  
G31  21174199.806   111271164.452         311.847          37.000  
G32  21297920.257   111921339.677         769.602          26.000    21297919.357    83577618.346         572.556          30.000  
J02  37864129.808                       -1133.658          25.000  
R01  19715322.466   105389697.759        1228.509          23.000  
R12  19860047.575   106088809.3321       1344.906          22.000  
> 2021 11  6  7 29 32.9999411  0 17
C06  36833471.818   191801566.483        -246.038          27.000  
C07  37814140.016   196908157.413        1010.710          27.000  
C09  37674467.609   196180849.570        -331.337          26.000  
C10  38558369.097   200783586.585         907.711          27.000  
C20  25754009.270   134107975.010        2600.935          28.000  
C23  22467652.568   116994972.932       -1918.433          27.000  
C32  22168037.887   115434801.491         899.009          34.000  
C37  22602214.413   117695654.7251        724.868          34.000  
E08                                                                                                                                  24049524.860    94375508.827        1125.459          27.000  
G10                                                                  20489122.176    80403668.995       -1370.547          26.000  
G25  21013626.469   110427332.4121      -1739.227          21.000  
G26  22951219.901   120609339.775        3189.610          21.000  
G31  21174051.109   111270380.621         311.690          38.000  
G32  21297684.920   111920098.236         767.942          28.000    21297683.121    83576691.769         576.182          30.000  
J02  37864254.522                       -1134.054          25.000  
R01  19715003.187   105387991.295        1226.308          26.000  
R12  19859704.013   106086973.391        1342.239          24.000  
