     3.03           OBSERVATION DATA    M: Mixed            RINEX VERSION / TYPE
Geo++ RINEX Logger  Geo++               20210912 103049 UTC PGM / RUN BY / DATE
************************************************************COMMENT
This file was generated by the Geo++ RINEX Logger App       COMMENT
for Android devices (Version 2.1.6). If you encounter       COMMENT
any issues, please send an email to android@geopp.de        COMMENT
Filtering Mode: BEST                                        COMMENT
************************************************************COMMENT
Geo++                                                       MARKER NAME
GEODETIC                                                    MARKER TYPE
Geo++               Geo++                                   OBSERVER / AGENCY
unknown             HUAWEI              ELS-AN00            REC # / TYPE / VERS
unknown             ELS-AN00                                ANT # / TYPE
 -2417109.6643  5385878.7752  2406617.3697                  APPROX POSITION XYZ
        0.0000        0.0000        0.0000                  ANTENNA: DELTA H/E/N
G    8 C1C L1C D1C S1C C5Q L5Q D5Q S5Q                      SYS / # / OBS TYPES
R    4 C1C L1C D1C S1C                                      SYS / # / OBS TYPES
E   12 C1B L1B D1B S1B C1C L1C D1C S1C C5Q L5Q D5Q S5Q      SYS / # / OBS TYPES
C    4 C2I L2I D2I S2I                                      SYS / # / OBS TYPES
J    8 C1C L1C D1C S1C C5Q L5Q D5Q S5Q                      SYS / # / OBS TYPES
  2021     9    12    10    31    7.9995812     GPS         TIME OF FIRST OBS
 24 R01  1 R02 -4 R03  5 R04  6 R05  1 R06 -4 R07  5 R08  6 GLONASS SLOT / FRQ #
    R09 -2 R10 -5 R11  0 R12 -1 R13 -2 R14 -7 R15  0 R16 -1 GLONASS SLOT / FRQ #
    R17  4 R18 -3 R19  3 R20  2 R21  4 R22 -3 R23  3 R24  2 GLONASS SLOT / FRQ #
G L1C                                                       SYS / PHASE SHIFT
G L5Q -0.25000                                              SYS / PHASE SHIFT
R L1C                                                       SYS / PHASE SHIFT
E L1B                                                       SYS / PHASE SHIFT
E L1C +0.50000                                              SYS / PHASE SHIFT
E L5Q -0.25000                                              SYS / PHASE SHIFT
C L2I                                                       SYS / PHASE SHIFT
J L1C                                                       SYS / PHASE SHIFT
J L5Q -0.25000                                              SYS / PHASE SHIFT
 C1C    0.000 C1P    0.000 C2C    0.000 C2P    0.000        GLONASS COD/PHS/BIS
                                                            END OF HEADER
> 2021  9 12 10 31  7.9995812  2  0
> 2021  9 12 10 31  7.9995812  0 13
C06  36693326.639   191071779.8551      -1459.633          20.000  
C13  36929288.186   192300494.2631      -2860.385          20.000  
C25  21803951.339   113538896.2311      -1509.644          32.000  
C33  22245515.050   115838234.1591      -1599.769          26.000  
G10  20153939.818   105909668.1111      -1193.153          28.000  
G12  22398049.453   117702544.0691      -2817.549          13.000  
G23  21153616.056   111163002.3761      -3592.329          22.000  
G25  20791959.026   109262481.4841      -1088.083          24.000  
G31  21840776.645   114774055.5981        399.143          23.000  
G32  21840560.794   114772920.7601       -157.790          33.000  
J01  38067020.950   200043545.1151       -233.386          29.000  
J02  37881803.473   199070220.5561      -2040.876          23.000  
R12  19078305.764   101912884.5361      -1789.682          30.000  
> 2021  9 12 10 31  8.9995802  0 12
C06  36693305.353   191071678.127       -1459.143          23.000  
C13  36929538.213   192301793.173       -2860.842          23.000  
C25  21803940.246   113538845.532       -1510.874          30.000  
C33  22245521.346   115838273.027       -1599.485          24.000  
G10  20153868.767   105909286.171       -1193.741          27.000  
G23  21154002.489   111165018.982       -3591.955          21.000  
G25  20791867.590   109261994.914       -1089.407          25.000  
G31  21840399.806   114772080.833         399.144          22.000  
G32  21840294.878   114771504.179        -157.037          32.000  
J01  38066765.227   200042202.457        -232.297          28.000  
J02  37881893.111   199070685.898       -2041.389          22.000  
R12  19078339.640   101913065.478       -1791.988          28.000  
> 2021  9 12 10 31  9.9995794  0 12
C16  37340064.411   194439513.6531      -1440.175          23.000  
C25  21803990.012   113539108.482       -1512.782          30.000  
C33  22245587.001   115838624.755       -1600.314          23.000  
G10  20153857.375   105909219.940       -1194.443          28.000  
G12  22398591.778   117705343.5521      -2813.839          14.000  
G23  21154446.182   111167351.348       -3593.944          21.000  
G25  20791835.212   109261824.502       -1090.494          26.000  
G31  21840083.225   114770421.090         399.738          22.000  
G32  21840082.925   114770402.893        -158.302          32.000  
J01  38066568.563   200041174.235        -232.054          27.000  
J02  37882038.510   199071467.468       -2042.862          22.000  
R12  19078439.771   101913600.080       -1792.319          27.000  
> 2021  9 12 10 31 10.9995784  0 11
C06  36693326.938   191071785.8771      -1458.455          20.000  
C13  36930100.623   192304705.6021      -2861.757          21.000  
C16  37340041.927   194439392.811       -1440.547          23.000  
C25  21803980.119   113539060.539       -1513.866          33.000  
C33  22245594.795   115838664.325       -1601.304          26.000  
G10  20153783.926   105908839.267       -1195.046          28.000  
G12  22398832.511   117706580.387       -2815.064          12.000  
G25  20791742.576   109261338.962       -1090.549          26.000  
G31  21839706.686   114768446.565         398.708          22.000  
G32  21839810.714   114768986.845        -159.874          28.000  
J01  38066312.840   200039831.326        -233.455          27.000  
> 2021  9 12 10 31 11.9995776  0 13
C13  36930410.609   192306320.064       -2864.651          23.000  
C16  37340079.101   194439583.985       -1440.388          20.000  
C24  24419518.819   127158841.9221      -4047.349          20.000  
C25  21804031.383   113539325.781       -1515.625          32.000  
C33  22245664.347   115839016.663       -1602.239          24.000  
G10  20153770.735   105908774.776       -1196.790          27.000  
G23  21155267.613   111171703.2441      -3593.777          17.000  
G25  20791711.098   109261168.871       -1090.124          26.000  
G31  21839394.902   114766787.575         397.662          21.000  
G32  21839600.259   114767886.195        -159.689          31.000  
J01  38066117.076   200038804.464        -234.011          25.000  
J02  37882274.447   199072719.3071      -2045.292          19.000  
R12  19078571.979   101914306.1331      -1794.355          30.000  
> 2021  9 12 10 31 12.9995768  0 11
C06  36693408.782   191072208.0831      -1460.913          21.000  
C16  37340115.976   194439775.026       -1440.103          19.000  
C25  21804082.348   113539591.961       -1515.056          30.000  
C33  22245732.700   115839369.862       -1602.444          24.000  
G10  20153761.141   105908711.401       -1197.522          30.000  
G23  21155708.907   111174037.384       -3594.358          17.000  
G25  20791680.519   109260999.244       -1091.797          26.000  
G31  21839080.719   114765129.797         396.590          18.000  
G32  21839391.004   114766785.525        -159.807          34.000  
J01  38065920.711   200037778.414        -234.031          28.000  
R12  19078666.714   101914812.856       -1796.757          29.000  
> 2021  9 12 10 31 13.9995758  0 12
C06  36693390.794   191072107.842       -1463.061          25.000  
C16  37340091.393   194439654.534       -1441.171          20.000  
C24  24420532.417   127164127.3721      -4048.119          20.000  
C25  21804075.453   113539546.100       -1515.635          28.000  
C33  22245741.693   115839411.545       -1602.980          30.000  
G12  22399662.936   117710946.0151      -2821.575          11.000  
G23  21156093.241   111176056.732       -3594.681          17.000  
G25  20791587.583   109260516.615       -1093.583          23.000  
G31  21838705.079   114763158.253         395.496          23.000  
G32  21839126.287   114765370.033        -160.221          34.000  
J01  38065664.689   200036437.128        -234.341          30.000  
R12  19078701.190   101914996.837       -1798.035          30.000  
> 2021  9 12 10 31 14.9995748  0 10
C06  36693372.807   191072009.475       -1462.948          22.000  
C16  37340066.210   194439533.657       -1439.283          20.000  
C24  24421008.787   127166613.724       -4047.040          20.000  
C25  21804065.859   113539500.658       -1516.645          28.000  
C33  22245750.387   115839453.357       -1602.398          31.000  
G10  20153622.038   105907952.0991      -1196.094          25.000  
G32  21838857.973                        -160.094          33.000  
J01  38065408.066   200035095.950        -234.345          30.000  
J02  37882612.613   199074436.9521      -2043.640          22.000  
R12  19078732.968   101915166.377       -1798.145          29.000  
> 2021  9 12 10 31 15.9995743  0 12
C06  36693505.015   191072691.955       -1461.740          23.000  
C16  37340191.224   194440191.978       -1439.069          24.000  
C25  21804206.462   113540237.872       -1518.078          29.000  
C33  22245909.277   115840275.995       -1603.784          28.000  
G10  20153702.382   105908361.531       -1198.335          27.000  
G23  21157010.606   111180886.5021      -3596.933          17.000  
G25  20791546.212   109260341.8481      -1093.830          26.000  
G31  21838112.389   114760005.5331        393.917          22.000  
G32  21838733.559   114763345.7481       -161.172          34.000  
J01  38065301.640   200034542.250        -233.569          29.000  
J02  37882853.646   199075693.467       -2044.236          22.000  
R12  19078918.839   101916159.164       -1797.182          29.000  
> 2021  9 12 10 31 16.9995732  0 12
C16  37340137.860   194439914.225       -1438.667          25.000  
C24  24422083.244   127172206.8531      -4045.122          21.000  
C25  21804167.789   113540037.599       -1517.795          30.000  
C33  22245887.093   115840162.308       -1603.534          29.000  
G10  20153601.952   105907827.954       -1200.247          27.000  
G23  21157364.661   111182750.509       -3597.002          17.000  
G25  20791424.496   109259703.097       -1095.917          27.000  
G31  21837707.969   114757878.625         393.777          19.000  
G32  21838431.069   114761773.601        -160.514          33.000  
J01  38065015.938   200033042.404        -233.128          29.000  
J02  37882913.605   199076004.444       -2043.995          23.000  
R12  19078923.336   101916183.348       -1799.665          28.000  
> 2021  9 12 10 31 17.9995722  0 12
C06  36693441.159   191072340.3451      -1463.480          19.000  
C16  37340116.875   194439792.288       -1440.131          25.000  
C24  24422561.712   127174691.257       -4046.360          21.000  
C25  21804159.694   113539994.968       -1519.254          30.000  
C33  22245894.887   115840205.445       -1604.813          28.000  
G10  20153530.002   105907453.628       -1201.921          30.000  
G25  20791336.357   109259223.803       -1096.732          27.000  
G31  21837335.028   114755909.631         393.155          22.000  
G32  21838166.952   114760359.282        -161.530          32.000  
J01  38064759.315   200031700.902        -234.940          28.000  
J02  37883002.043   199076474.112       -2045.785          22.000  
R12  19078957.812   101916367.370       -1799.196          30.000  
> 2021  9 12 10 31 18.9995715  0 13
C06  36693512.210   191072711.533       -1463.892          21.000  
C16  37340183.429   194440138.720       -1440.050          23.000  
C24  24423131.318   127177645.622       -4047.348          21.000  
C25  21804240.938   113540421.083       -1519.631          28.000  
C33  22245993.519   115840717.955       -1606.544          26.000  
G10  20153547.389   105907553.736       -1203.700          30.000  
G23  21158220.868   111187275.1441      -3609.727          17.000  
G25  20791336.058   109259218.530       -1097.943          26.000  
G31  21837051.724   114754413.747         392.514          22.000  
G32  21837986.177   114759418.482        -165.323          34.000  
J01  38064594.430   200030832.801        -234.389          28.000  
J02  37883180.720   199077416.767       -2046.646          21.000  
R12  19079082.526   101917034.206       -1800.479          29.000  
> 2021  9 12 10 31 19.9995707  0 11
C16  37340221.802   194440331.162       -1442.455          24.000  
C24  24423669.146   127180444.180       -4047.682          21.000  
C25  21804292.502   113540692.205       -1520.112          31.000  
C33  22246063.970   115841075.829       -1606.991          28.000  
G10  20153538.396   105907497.632       -1204.577          30.000  
G25  20791305.479   109259056.789       -1098.902          26.000  
G31  21836737.541   114752762.012         388.993          22.000  
G32  21837776.322   114758320.143        -160.286          32.000  
J01  38064398.665   200029806.872        -234.478          29.000  
J02  37883333.014   199078204.562       -2047.723          18.000  
R12  19079177.260   101917540.319       -1803.614          31.000  
> 2021  9 12 10 31 20.9995697  0 12
C06  36693538.292   191072832.0851      -1466.624          21.000  
C16  37340200.817   194440213.740       -1443.087          23.000  
C24  24424147.914   127182931.367       -4049.784          21.000  
C25  21804285.607   113540651.008       -1520.521          31.000  
C33  22246072.664   115841121.872       -1607.877          29.000  
E21                                                                                                                                  24171584.160    94854487.6721      -1359.514          23.000  
G10  20153468.244   105907126.870       -1205.421          28.000  
G25  20791216.141   109258580.708       -1099.869          28.000  
G32  21837506.809   114756906.880        -161.174          32.000  
J01  38064144.441   200028466.655        -236.087          30.000  
J02  37883426.849   199078675.222       -2045.391          21.000  
R12  19079216.833   101917751.729       -1804.526          31.000  
> 2021  9 12 10 31 21.9995689  0 11
C06  36693579.364   191073048.984       -1464.709          21.000  
C16  37340238.291   194440406.870       -1442.431          24.000  
C25  21804338.071   113540923.030       -1521.097          31.000  
C33  22246141.017   115841481.163       -1608.913          26.000  
E21                                                                                                                                  24171690.587    94854905.900       -1359.350          25.000  
G10  20153456.253   105907072.281       -1205.984          28.000  
G25  20791186.761   109258420.916       -1100.660          27.000  
G32  21837299.652   114755809.003        -160.091          33.000  
J01  38063948.976   200027442.082        -235.750          28.000  
J02  37883575.846   199079460.010       -2044.516          21.000  
R12  19079316.364   101918283.016       -1806.758          32.000  
> 2021  9 12 10 31 22.9995679  0 11
C06  36693561.376   191072952.428       -1464.382          22.000  
C16  37340217.605   194440288.678       -1442.869          24.000  
C24  24425163.012   127188223.3541      -4051.077          21.000  
C25  21804331.775   113540883.299       -1522.145          31.000  
C33  22246150.011   115841528.565       -1608.422          30.000  
E21                                                                                                                                  24171737.654    94855087.896       -1358.695          25.000  
G10  20153389.699   105906702.041       -1205.112          26.000  
G25  20791097.423   109257947.398       -1101.499          27.000  
G32  21837028.640   114754396.106        -162.298          34.000  
J01  38063693.553   200026102.846        -236.194          30.000  
R12  19079356.237   101918495.521       -1807.554          31.000  
> 2021  9 12 10 31 23.9995671  0 12
C06  36693602.448   191073167.939       -1465.282          22.000  
C16  37340251.482   194440482.339       -1442.849          24.000  
C25  21804384.539   113541156.714       -1522.634          31.000  
C33  22246218.363   115841888.441       -1609.642          29.000  
E21                                                                                                                                  24171844.980    94855506.694       -1362.491          24.000  
G10  20153379.805   105906646.018       -1204.130          27.000  
G23  21160351.194   111198382.4981      -3601.969          18.000  
G25  20791065.645   109257788.559       -1102.033          27.000  
G32  21836820.284   114753298.722        -163.501          33.000  
J01  38063500.187   200025079.241        -237.165          29.000  
J02  37883815.380   199080714.8551      -2047.094          21.000  
R12  19079453.669   101919016.838       -1808.083          30.000  
> 2021  9 12 10 31 24.9995663  0 11
C06  36693643.819   191073383.898       -1464.560          24.000  
C16  37340289.256   194440675.987       -1443.280          24.000  
C24  24426241.965   127193827.7981      -4050.438          21.000  
C25  21804438.202   113541430.836       -1522.958          30.000  
C33  22246288.815   115842249.574       -1609.888          28.000  
E21                                                                                                                                  24171951.406    94855927.714       -1361.408          24.000  
G10  20153369.013   105906590.081       -1204.947          22.000  
G25  20791034.766   109257630.417       -1102.199          27.000  
G32  21836608.031   114752201.444        -164.020          34.000  
J01  38063304.423   200024055.642        -236.554          30.000  
R12  19079551.401   101919538.918       -1809.021          30.000  
> 2021  9 12 10 31 25.9995653  0 12
C06  36693625.232   191073285.575       -1461.786          21.000  
C16  37340266.771   194440557.846       -1442.686          21.000  
C24  24426723.431   127196318.636       -4052.112          21.000  
C25  21804430.707   113541392.896       -1523.489          30.000  
C33  22246297.209   115842297.831       -1609.418          28.000  
E21                                                                                                                                  24171999.073    94856112.245       -1359.694          25.000  
G10  20153302.759   105906219.494       -1204.643          21.000  
G23  21161185.216   111202742.7471      -3598.429          18.000  
G32  21836336.119   114750789.005        -162.714          32.000  
J01  38063050.199   200022715.997        -235.543          29.000  
J02  37884055.214   199081974.7321      -2046.543          21.000  
R12  19079589.175   101919739.962       -1808.795          30.000  
> 2021  9 12 10 31 26.9995643  0 11
C16  37340243.687   194440438.838       -1442.333          24.000  
C24  24427203.999   127198808.497       -4050.469          20.000  
C25  21804422.612   113541355.640       -1524.910          32.000  
C33  22246305.603   115842346.804       -1612.320          24.000  
E21                                                                                                                                  24172047.040    94856298.351       -1364.877          24.000  
G10  20153231.708   105905848.269       -1203.972          19.000  
G23  21161573.148   111204768.018       -3604.931          19.000  
G25  20790859.388   109256687.4831      -1105.369          29.000  
G32  21836065.406   114749377.021        -162.019          32.000  
J01  38062798.373   200021376.120        -235.611          28.000  
R12  19079629.647   101919956.098       -1809.987          31.000  
> 2021  9 12 10 31 27.9995638  0 13
C13  36935099.962   192330641.2391      -2867.455          19.000  
C16  37340369.000   194441100.636       -1443.220          25.000  
C24  24427831.164   127202077.670       -4050.386          20.000  
C25  21804565.613   113542100.316       -1525.801          31.000  
C33  22246465.093   115843178.633       -1613.250          25.000  
E21                                                                                                                                  24172244.603    94857074.076       -1362.542          24.000  
G10  20153309.954   105906267.717       -1209.242          21.000  
G25  20790920.845   109257005.230       -1105.708          28.000  
G31  21834066.091   114738783.2411        385.529          16.000  
G32  21835953.284   114748752.827        -162.821          30.000  
J01  38062694.645   200020824.525        -236.446          28.000  
J02  37884383.187   199083705.7721      -2047.897          21.000  
R12  19079823.613   101920992.741       -1812.227          31.000  
> 2021  9 12 10 31 28.9995628  0 11
C06  36693712.771   191073765.8341      -1461.034          19.000  
C23  23962064.608   124776758.0101        976.648          24.000  
C24  24428309.034   127204566.552       -4049.686          20.000  
C25  21804561.116   113542065.099       -1527.460          31.000  
C33  22246474.986   115843231.096       -1613.201          26.000  
E21                                                                                                                                  24172293.769    94857262.177       -1365.855          25.000  
G10  20153238.903   105905903.122       -1212.878          21.000  
G25  20790833.006   109256536.172       -1106.958          29.000  
G32  21835683.471   114747340.018        -162.486          28.000  
J01  38062441.620   200019485.657        -236.505          28.000  
R12  19079868.882   101921233.868       -1813.455          33.000  
> 2021  9 12 10 31 29.9995617  0 13
C13  36935569.737   192333097.8821      -2867.823          20.000  
C16  37340293.153   194440705.2111      -1441.564          23.000  
C23  23961545.367   124774064.125         976.077          25.000  
C25  21804523.343                       -1526.408          31.000  
C33  22246457.298   115843126.941       -1612.620          21.000  
E21                                                                                                                                  24172312.956    94857333.757       -1364.931          26.000  
G10  20153139.672   105905383.604       -1214.286          27.000  
G25  20790713.688   109255910.384       -1107.378          27.000  
G31  21833294.725   114734707.5971        382.911          17.000  
G32  21835383.379   114745770.243        -163.982          29.000  
J01  38062158.316   200017989.685        -235.969          26.000  
J02  37884531.585   199084492.5601      -2047.458          23.000  
R12  19079883.871   101921313.943       -1813.527          32.000  
> 2021  9 12 10 31 30.9995610  0 13
C06  36693737.654   191073882.1681      -1465.260          20.000  
C16  37340359.407   194441055.035       -1442.445          20.000  
C23  23961146.943   124771995.727         974.788          26.000  
C24  24429321.732   127209863.1651      -4054.749          20.000  
C25  21804605.486   113542308.4951      -1526.860          32.000  
C33  22246558.928   115843647.279       -1613.483          25.000  
E21                                                                                                                                  24172450.561    94857874.552       -1364.081          23.000  
G23  21163330.531   111214001.1481      -3608.308          18.000  
G25  20790717.286   109255914.852       -1107.462          25.000  
G32  21835203.203   114744832.157        -164.867          32.000  
J01  38061994.330   200017123.530        -237.454          20.000  
J02  37884711.460   199085437.831       -2048.877          23.000  
R12  19080013.981   101922009.227       -1815.648          31.000  
> 2021  9 12 10 31 31.9995602  0 11
C06  36693780.225   191074098.713       -1466.357          23.000  
C16  37340397.781   194441248.445       -1442.814          23.000  
C23  23960718.840   124769772.122         974.881          24.000  
C25  21804659.448                       -1527.904          30.000  
C33  22246629.079   115844012.074       -1613.286          29.000  
E21                                                                                                                                  24172559.385    94858298.419       -1367.043          24.000  
G10  20153152.263   105905450.7231      -1215.185          24.000  
G25  20790689.705   109255763.304       -1110.677          27.000  
G32  21834993.349   114743736.775        -165.040          32.000  
J01  38061797.666   200016100.635        -237.013          29.000  
R12  19080109.915   101922521.825       -1816.044          30.000  
> 2021  9 12 10 31 32.9995592  0 10
C06  36693762.237   191074002.835       -1464.846          23.000  
C16  37340375.296   194441130.150       -1442.978          22.000  
C25  21804655.551   113542555.5431      -1529.343          29.000  
C33  22246638.972   115844063.862       -1613.613          28.000  
E21                                                                                                                                  24172607.652    94858489.003       -1367.663          25.000  
G10  20153083.910   105905090.449       -1215.250          28.000  
G32  21834727.133   114742326.472        -166.117          35.000  
J01  38061541.343   200014763.295        -238.649          26.000  
J02  37884947.097   199086700.3731      -2049.421          21.000  
R12  19080148.888   101922730.564       -1817.551          25.000  
> 2021  9 12 10 31 33.9995584  0 14
C06  36693804.508   191074218.483       -1465.653          28.000  
C13  36936779.700   192339423.3061      -2869.623          19.000  
C16  37340414.269   194441324.487       -1444.327          23.000  
C23  23959800.875   124765011.7341        974.187          24.000  
C24  24430871.959   127217967.5451      -4053.369          20.000  
C25  21804707.415   113542835.547       -1529.255          27.000  
C33  22246710.323   115844428.427       -1611.354          32.000  
E21                                                                                                                                  24172716.177    94858915.030       -1366.862          26.000  
G10  20153074.317   105905045.448       -1215.421          27.000  
G25  20790573.386   109255148.4921      -1110.543          28.000  
G31  21832011.613   114727973.1651        382.720          18.000  
G32  21834522.674                        -164.742          33.000  
J01  38061346.178   200013741.436        -238.101          28.000  
R12  19080258.612   101923316.732       -1819.595          23.000  
> 2021  9 12 10 31 34.9995574  0 14
C06  36693785.621   191074122.423       -1464.718          23.000  
C16  37340392.684   194441207.781       -1443.719          20.000  
C23  23959313.412   124762476.503         974.516          24.000  
C24  24431351.927   127220461.013       -4054.398          19.000  
C25  21804700.520   113542803.531       -1529.101          28.000  
C33  22246720.516   115844479.090       -1612.692          25.000  
E21                                                                                                                                  24172763.544    94859105.507       -1370.362          25.000  
G10  20153004.166   105904685.619       -1215.843          24.000  
G23  21165000.375   111222771.3611      -3613.728          17.000  
G25  20790484.647   109254683.517       -1110.512          27.000  
G32  21834260.056   114739780.6241       -162.362          29.000  
J01  38061091.055   200012404.244        -238.041          25.000  
J02  37885183.633   199087964.7671      -2051.711          21.000  
R12  19080299.384   101923534.500       -1818.516          28.000  
> 2021  9 12 10 31 35.9995566  0 11
C06  36693827.292   191074338.023       -1464.531          23.000  
C13  36937340.012   192342350.0271      -2868.265          17.000  
C24  24431890.054   127223266.336       -4054.976          19.000  
C25  21804754.183   113543083.741       -1529.608          31.000  
C33  22246792.166   115844843.257       -1614.351          24.000  
E21                                                                                                                                  24172872.369    94859533.532       -1367.417          26.000  
G25  20790457.066   109254534.444       -1111.436          27.000  
G32  21834052.300   114738686.836        -166.567          26.000  
J01  38060895.590   200011382.259        -239.265          26.000  
J02  37885332.930   199088755.303       -2050.074          21.000  
R12  19080398.315   101924062.144       -1819.679          30.000  
> 2021  9 12 10 31 36.9995558  0 12
C16  37340465.534   194441603.2251      -1447.825          11.000  
C23  23958453.008   124758029.3231        975.560          19.000  
C24  24432429.381   127226072.577       -4054.935          19.000  
C25  21804808.145   113543365.105       -1530.184          31.000  
C33  22246862.617   115845209.524       -1616.240          27.000  
E21                                                                                                                                  24172979.095    94859959.724       -1366.988          25.000  
G25  20790427.986   109254385.916       -1112.796          27.000  
G31  21830997.715   114722720.8691        385.367          16.000  
G32  21833843.045   114737592.644        -165.939          22.000  
J01  38060701.924   200010361.333        -238.859          27.000  
J02  37885481.927   199089544.795       -2049.521          22.000  
R12  19080496.347   101924585.885       -1820.863          31.000  
> 2021  9 12 10 31 37.9995548  0 11
C16  37340442.150   194441487.478       -1442.656          10.000  
C23  23957961.648   124755491.956         976.160          21.000  
C24  24432909.049   127228567.206       -4056.050          19.000  
C25  21804800.950   113543334.421       -1531.448          30.000  
C33  22246874.909   115845264.570       -1616.352          28.000  
E21                                                                                                                                  24173028.561    94860151.754       -1369.118          24.000  
G25  20790338.648   109253923.524       -1112.867          27.000  
G32  21833575.031   114736182.130        -164.669          22.000  
J01  38060447.401   200009025.140        -239.575          26.000  
J02  37885571.864   199090017.762       -2047.576          24.000  
R12  19080536.819   101924802.274       -1821.315          30.000  
> 2021  9 12 10 31 38.9995538  0 11
C13  36938145.254   192346589.4711      -2872.360          19.000  
C23  23957473.886   124752956.761         973.203          21.000  
C25  21804795.254   113543305.312       -1532.404          31.000  
C33  22246886.901   115845320.516       -1617.650          28.000  
E21                                                                                                                                  24173078.626    94860344.539       -1369.659          25.000  
G10  20152832.984   105903887.5971      -1219.394          20.000  
G23  21166663.024   111231552.5001      -3615.359          15.000  
G25  20790248.710   109253462.178       -1115.712          27.000  
G32  21833305.517   114734771.737        -165.407          26.000  
J01  38060192.277   200007689.684        -240.649          27.000  
J02  37885660.303   199090490.495       -2047.700          24.000  
> 2021  9 12 10 31 39.9995533  0 13
C06  36693959.800   191075042.1101      -1461.785          19.000  
C23  23957136.619   124751203.026         971.191          23.000  
C24  24434011.686   127234336.5161      -4055.012          19.000  
C25  21804940.054   113544057.569       -1533.603          31.000  
C33  22247049.088   115846158.200       -1618.482          30.000  
E21                                                                                                                                  24173277.688    94861127.075       -1370.857          26.000  
G10  20152916.027   105904319.124       -1219.839          24.000  
G25  20790310.468   109253791.551       -1117.654          27.000  
G31  21830026.987   114717626.8351        386.784          12.000  
G32  21833183.801   114734149.583        -165.689          28.000  
J01  38060086.450   200007142.545        -240.685          25.000  
J02  37885900.137   199091750.546       -2048.393          22.000  
R12  19080762.863   101926010.0081      -1823.430          31.000  
> 2021  9 12 10 31 40.9995523  0  9
C06  36693939.714   191074944.150       -1463.902          22.000  
C16  37340518.597   194441907.4271      -1440.361          16.000  
C23  23956647.958   124748671.551         969.507          22.000  
C25  21804935.857   113544030.917       -1534.872          29.000  
C33  22247061.080   115846216.593       -1619.587          30.000  
G25  20790220.830   109253334.066       -1119.089          27.000  
G32  21832913.988   114732740.505        -166.753          32.000  
J01  38059832.226   200005807.397        -239.916          26.000  
R12  19080802.735   101926223.035       -1824.949          30.000  
> 2021  9 12 10 31 41.9995515  0 10
C06  36693984.083   191075160.098       -1465.969          24.000  
C13  36939104.890   192351622.0691      -2875.182          19.000  
C16  37340553.972   194442097.917       -1440.092          16.000  
C23  23956219.255   124746453.371         969.168          22.000  
C25  21804991.918   113544317.529       -1535.580          27.000  
C33  22247132.730   115846587.846       -1619.752          31.000  
G23  21168036.373   111238769.9511      -3610.604          12.000  
G31  21829337.164   114714027.2171        377.942          14.000  
G32  21832704.733   114731647.523        -167.940          33.000  
J01  38059637.062   200004786.248        -240.135          26.000  
> 2021  9 12 10 31 42.9995505  0 10
C23  23955729.993   124743923.335         969.116          22.000  
C24  24435512.747   127242139.6381      -4057.123          18.000  
C25  21804986.822   113544291.651       -1535.945          24.000  
C33  22247145.622   115846646.779       -1620.447          30.000  
G23  21168422.506   111240806.951       -3612.868          11.000  
G25  20790104.210   109252739.2781      -1120.497          24.000  
G32  21832435.220   114730240.110        -168.027          31.000  
J01  38059384.936   200003450.918        -240.617          25.000  
J02  37886231.408   199093496.5181      -2054.395          20.000  
R12  19080948.434   101927000.6721      -1828.254          25.000  
> 2021  9 12 10 31 43.9995497  0 10
C06  36694010.465   191075288.2321      -1471.363          23.000  
C24  24436051.174   127244948.077       -4057.866          18.000  
C25  21805041.384   113544579.251       -1537.361          27.000  
C33  22247217.572   115847018.766       -1621.027          29.000  
G10  20152784.418   105903535.3371      -1224.561          24.000  
G25  20790077.229   109252599.275       -1120.829          23.000  
G32  21832228.363   114729147.766        -168.204          31.000  
J01  38059193.968   200002432.365        -243.210          25.000  
J02  37886382.803   199094291.612       -2056.098          20.000  
R12  19081052.162   101927555.170       -1828.054          25.000  
> 2021  9 12 10 31 44.9995489  0  9
C06  36694053.036   191075510.967       -1471.989          23.000  
C25  21805096.546   113544867.828       -1537.764          29.000  
C33  22247291.620   115847391.275       -1621.288          28.000  
G10  20152778.122   105903500.277       -1226.288          27.000  
G25  20790050.248   109252460.219       -1122.286          26.000  
G32  21832020.307   114728055.788        -168.757          35.000  
J01  38059003.600   200001413.998        -241.831          24.000  
J02  37886532.100   199095087.000       -2055.625          22.000  
R12  19081152.593   101928091.794       -1830.104          25.000  
> 2021  9 12 10 31 45.9995479  0  8
C06  36694034.449   191075420.130       -1470.271          24.000  
C25  21805092.349   113544845.107       -1538.933          22.000  
C33  22247304.811   115847452.454       -1623.434          26.000  
G10  20152716.065   105903151.492       -1227.243          25.000  
G25  20789963.008   109252006.987       -1122.827          26.000  
J01  38058751.175   200000080.174        -241.407          20.000  
J02  37886620.538   199095566.736       -2054.509          21.000  
R12  19081193.065   101928307.513       -1831.063          26.000  
> 2021  9 12 10 31 46.9995469  0 11
C06  36694015.562   191075328.469       -1468.733          24.000  
C13  36940475.841   192358813.2021      -2876.196          21.000  
C25  21805089.950   113544823.226       -1539.093          25.000  
C33  22247317.103   115847514.893       -1623.911          28.000  
G10  20152651.909   105902803.531       -1227.675          25.000  
G25  20789876.368   109251553.953       -1122.119          24.000  
G31  21827592.372   114704920.0571        372.198          18.000  
G32  21831491.773   114725243.4871       -169.713          34.000  
J01  38058494.253   199998745.993        -240.955          25.000  
J02  37886709.577   199096045.044       -2053.875          22.000  
R12  19081233.837   101928525.277       -1834.503          26.000  
> 2021  9 12 10 31 47.9995464  0 10
C06  36694148.370   191076016.276       -1469.258          24.000  
C25  21805235.050   113545581.121       -1539.258          26.000  
C33  22247481.089   115848357.904       -1623.824          29.000  
G10  20152731.055   105903243.621       -1228.201          29.000  
G25  20789938.725   109251889.157       -1123.481          26.000  
G31  21827374.123   114703761.022         375.965          17.000  
G32  21831373.055                        -171.086          30.000  
J01  38058391.124   199998199.057        -240.997          20.000  
J02  37886949.411   199097310.014       -2051.777          20.000  
R12  19081423.006   101929535.928       -1834.348          28.000  
> 2021  9 12 10 31 48.9995453  0 11
C06  36694101.902   191075768.186       -1469.117          22.000  
C13  36941102.407   192362072.6391      -2882.056          20.000  
C25  21805201.773   113545404.067       -1541.762          27.000  
C33  22247462.502   115848265.754       -1626.023          28.000  
G10  20152633.922   105902739.099       -1228.289          26.000  
G25  20789823.605   109251280.569       -1125.847          24.000  
G31  21826975.999   114701650.627         380.499          14.000  
G32  21831074.462   114723077.0001       -171.004          29.000  
J01  38058108.420   199996708.056        -242.535          22.000  
J02  37887008.770   199097630.173       -2054.820          22.000  
R12  19081440.094   101929627.463       -1837.225          29.000  
> 2021  9 12 10 31 49.9995443  0  9
C06  36694085.113   191075676.730       -1469.416          20.000  
C25  21805198.775   113545384.820       -1542.160          31.000  
C33  22247473.595   115848330.553       -1626.618          29.000  
G10  20152565.569   105902391.517       -1227.854          27.000  
G25  20789735.466   109250831.712       -1127.246          23.000  
G31  21826603.357   114699695.258         378.538          12.000  
G32  21830812.143   114721673.463        -175.616          28.000  
J01  38057854.795   199995376.914        -245.405          24.000  
J02  37887097.808   199098109.588       -2054.487          23.000  
> 2021  9 12 10 31 50.9995436  0  7
C25  21805284.216   113545835.305       -1544.389          31.000  
C33  22247575.824   115848864.713       -1628.278          29.000  
G10  20152588.653   105902518.495       -1230.604          29.000  
G25  20789736.965   109250857.141       -1129.878          22.000  
G32  21830634.666   114720741.789        -170.974          29.000  
J01  38057692.008   199994519.410        -245.011          23.000  
J02  37887273.786   199099061.380       -2056.133          21.000  
> 2021  9 12 10 31 51.9995428  0  6
C13  36942013.176   192366815.9491      -2880.321          19.000  
C25  21805339.977   113546130.678       -1544.351          31.000  
C33  22247648.374   115849244.581       -1629.588          28.000  
G10  20152582.957   105902490.957       -1234.337          32.000  
G32  21830426.610   114719652.654        -171.487          32.000  
R12  19081729.094   101931171.7291      -1840.245          31.000  
> 2021  9 12 10 31 52.9995418  0  8
C06  36694178.349   191076189.8871      -1471.946          20.000  
C25  21805337.579   113546114.292       -1545.006          28.000  
C33  22247661.265   115849313.679       -1630.407          29.000  
G10  20152517.303   105902150.034       -1234.967          30.000  
G32  21830157.097   114718249.086        -172.338          31.000  
J01  38057244.418   199992178.6381       -247.846          19.000  
J02  37887526.211   199100342.3071      -2057.432          22.000  
R12  19081773.163   101931406.779       -1841.341          28.000  
> 2021  9 12 10 31 53.9995410  0  9
C06  36694219.121   191076413.308       -1471.913          22.000  
C25  21805393.640   113546409.660       -1544.096          30.000  
C33  22247734.114   115849695.252       -1630.261          30.000  
G10  20152510.707   105902125.358       -1236.053          28.000  
G25  20789598.460   109250157.1171      -1133.854          23.000  
G32  21829946.942   114717161.314        -173.380          31.000  
J01  38057051.951   199991164.436        -244.984          24.000  
J02  37887679.405   199101139.503       -2058.511          23.000  
R12  19081879.290   101931973.144       -1842.147          31.000  
> 2021  9 12 10 31 54.9995400  0  9
C13  36942834.008   192371087.6171      -2879.551          19.000  
C25  21805391.841   113546393.839       -1546.453          32.000  
C33  22247747.005   115849764.430       -1630.572          30.000  
G10  20152445.352   105901786.439       -1236.491          29.000    20152454.346    79082559.2181       -921.551          27.000  
G25  20789517.517   109249715.815       -1133.431          22.000  
G32  21829678.928   114715758.975        -172.555          32.000  
J01  38056798.627   199989833.696        -244.636          25.000  
J02  37887771.442   199101621.647       -2056.793          23.000  
R12  19081924.559   101932214.966       -1842.351          32.000  
> 2021  9 12 10 31 55.9995392  0  9
C13  36943147.291   192372718.465       -2879.952          19.000  
C25  21805453.898   113546691.980       -1548.147          32.000  
C33  22247820.155   115850146.420       -1630.949          30.000  
G10  20152439.956   105901762.883       -1237.266          26.000    20152450.149    79082540.543        -921.877          27.000  
G25  20789494.133   109249589.147       -1134.230          21.000  
G32  21829471.172   114714671.148        -172.675          30.000  
J01  38056604.661   199988818.432        -245.038          26.000  
J02  37887923.137   199102418.660       -2057.445          22.000  
R12  19082028.287   101932769.187       -1844.346          32.000  
> 2021  9 12 10 31 56.9995384  0  9
C13  36943459.975   192374349.700       -2880.101          18.000  
C25  21805509.060                       -1548.285          31.000  
C33  22247893.004   115850528.638       -1631.578          29.000  
G10  20152436.059   105901739.669       -1237.413          30.000    20152445.952    79082521.837        -923.289          27.000  
G25  20789472.548   109249463.888       -1136.197          23.000  
G32  21829265.514   114713583.617        -172.944          31.000  
J01  38056410.995   199987802.468        -244.456          26.000  
J02  37888074.232   199103215.765       -2057.809          24.000  
R12  19082132.015   101933323.854       -1845.489          31.000  
> 2021  9 12 10 31 57.9995374  0  9
C06  36694268.586   191076671.5671      -1470.089          21.000  
C23  23949035.028   124709034.2891        958.446          20.000  
C25  21805509.360   113546993.8301      -1550.467          32.000  
C33  22247906.495   115850598.667       -1631.569          29.000  
G10  20152373.102   105901402.531       -1238.918          30.000    20152381.796    79082269.719        -925.073          28.000  
G25  20789390.105   109249025.157       -1137.138          25.000  
J01  38056156.171   199986471.143        -244.516          25.000  
J02  37888164.769   199103698.561       -2058.894          23.000  
R12  19082177.284   101933565.261       -1846.245          31.000  
> 2021  9 12 10 31 58.9995366  0  8
C06  36694311.457   191076892.749       -1469.383          22.000  
C25  21805568.119   113547293.053       -1549.043          29.000  
C33  22247978.745   115850981.825       -1632.664          28.000  
G10  20152369.205   105901382.109       -1240.615          25.000    20152378.798    79082254.255        -926.351          26.000  
G25  20789368.220   109248902.116       -1137.596          26.000  
J01  38055963.105   199985454.879        -244.271          24.000  
J02  37888315.265   199104496.425       -2058.283          24.000  
R12  19082284.010   101934135.787       -1847.239          29.000  
> 2021  9 12 10 31 59.9995356  0  8
C06  36694296.467   191076802.180       -1471.109          23.000  
C25  21805566.021   113547280.879       -1549.401          27.000  
C33  22247991.036   115851053.573       -1633.454          30.000  
G10  20152306.249   105901046.170       -1239.776          29.000    20152315.542    79082005.100        -927.370          27.000  
G25  20789283.678   109248463.956       -1137.512          26.000  
G32  21828531.622   114709692.5861       -173.246          32.000  
J02  37888408.501   199104980.607       -2060.751          24.000  
R12  19082329.278   101934377.255       -1849.098          30.000  
> 2021  9 12 10 32  0.9995348  0 10
C06  36694339.038   191077023.176       -1470.481          22.000  
C25  21805622.082   113547581.880       -1550.501          29.000  
C33  22248066.284   115851438.670       -1634.726          30.000  
E21                                                                                                                                  24175099.227    94868277.3801      -1382.566          26.000  
G10  20152303.850   105901025.947       -1240.722          28.000    20152311.045    79081991.191        -929.632          27.000  
G25  20789260.894   109248340.820       -1137.921          26.000  
G32  21828324.166   114708606.427        -174.662          32.000  
J01  38055517.314   199983111.3661       -247.747          21.000  
J02  37888565.292   199105780.512       -2057.952          22.000  
R12  19082435.705   101934945.488       -1849.939          29.000  
> 2021  9 12 10 32  1.9995338  0  9
C06  36694324.048   191076933.040       -1469.641          22.000  
C25  21805617.585   113547571.688       -1550.919          30.000  
C33  22248080.974   115851513.898       -1637.055          26.000  
E21                                                                                                                                  24175151.691    94868483.138       -1384.108          25.000  
G10  20152243.292   105900692.187       -1242.393          26.000    20152248.988    79081744.271        -927.920          19.000  
G25  20789178.451   109247903.989       -1139.604          21.000  
G32  21828055.252   114707205.710        -174.737          36.000  
J01  38055265.788   199981782.902        -247.418          21.000  
R12  19082480.973   101935187.205       -1851.237          31.000  
> 2021  9 12 10 32  2.9995331  0  8
C06  36694398.996   191077310.914       -1472.306          26.000  
C25  21805705.424   113548029.949       -1550.807          27.000  
C33  22248184.103   115852058.123       -1637.434          28.000  
E21                                                                                                                                  24175295.291    94869042.699       -1382.678          23.000  
G10  20152272.972   105900832.132       -1243.225          30.000    20152275.370    79081850.361        -932.858          22.000  
G32  21827879.274                        -177.229          35.000  
J01  38055101.501   199980926.803        -246.856          26.000  
J02  37888836.904   199107215.1091      -2056.081          20.000  
> 2021  9 12 10 32  3.9995323  0  9
C06  36694443.365   191077534.430       -1472.448          28.000  
C25  21805765.982   113548332.216       -1553.541          25.000  
C33  22248258.151   115852446.181       -1636.523          28.000  
E21                                                                                                                                  24175410.412    94869484.404       -1383.550          22.000  
G10  20152269.674   105900815.629       -1244.418          32.000    20152271.473    79081842.467        -937.467          19.000  
G25  20789165.860   109247824.3531      -1146.221          15.000  
G32  21827674.815   114705194.6571       -175.567          33.000  
J02  37888990.098   199108011.349       -2056.055          19.000  
R12  19082724.405   101936488.0721      -1855.910          23.000  
> 2021  9 12 10 32  4.9995313  0 10
C06  36694426.577   191077445.495       -1472.231          30.000  
C25  21805763.584   113548324.520       -1553.957          22.000  
C33  22248272.841   115852521.513       -1636.279          29.000  
E21                                                                                                                                  24175464.674    94869691.397       -1384.483          27.000  
G10  20152206.118   105900484.920       -1245.244          32.000    20152208.816    79081601.426        -932.441          18.000  
G25  20789081.618   109247395.026       -1145.643          15.000  
G32  21827409.499   114703792.882        -176.610          30.000  
J01  38054651.513   199978589.6601       -249.929          20.000  
J02  37889078.237   199108490.390       -2053.922          19.000  
R12  19082772.072   101936742.539       -1852.213          20.000  
> 2021  9 12 10 32  5.9995302  0  9
C06  36694380.109   191077201.113       -1474.285          27.000  
C23  23945406.640   124690139.2481        955.935          18.000  
C25  21805731.206   113548161.588       -1554.270          30.000  
C33  22248257.552   115852440.595       -1636.648          31.000  
E21                                                                                                                                  24175487.758    94869782.170       -1384.982          27.000  
G10  20152111.084   105899997.569       -1245.226          35.000    20152114.681    79081238.609        -930.948          24.000  
G25  20788970.695   109246807.702       -1144.742          19.000  
J01  38054367.310   199977106.823        -249.621          24.000  
R12  19082791.858   101936848.866       -1853.989          27.000  
> 2021  9 12 10 32  6.9995297  0  9
C06  36694512.917   191077893.778       -1472.436          27.000  
C25  21805878.704   113548935.414       -1555.103          33.000  
C33  22248423.337   115853297.085       -1637.384          31.000  
E21                                                                                                                                  24175690.118    94870579.466       -1386.366          25.000  
G10  20152197.124                       -1246.879          37.000    20152201.621    79081581.528        -931.512          27.000  
G25  20789039.348   109247164.097       -1143.730          23.000  
G32  21826992.787   114701624.5291       -176.123          30.000  
J01  38054263.881   199976568.623        -249.616          27.000  
R12  19082987.323   101937892.841       -1856.387          33.000  
> 2021  9 12 10 32  7.9995287  0  9
C06  36694495.230   191077805.231       -1473.198          27.000  
C25  21805877.205   113548929.399       -1554.986          33.000  
C33  22248438.626   115853374.217       -1640.022          29.000  
E21                                                                                                                                  24175741.383    94870788.431       -1385.750          28.000  
G10  20152135.967   105900182.0621      -1248.353          36.000    20152138.964    79081337.044        -932.266          29.000  
G25  20788957.504   109246732.575       -1144.307          24.000  
G32  21826724.173   114700225.322        -176.417          33.000  
J01  38054010.257   199975242.500        -249.391          28.000  
R12  19083032.591   101938134.043       -1858.506          34.000  
> 2021  9 12 10 32  8.9995277  0  9
C06  36694480.840   191077718.594       -1475.209          24.000  
C25  21805874.807                       -1555.931          32.000  
C33  22248453.316   115853452.620       -1639.509          26.000  
E21                                                                                                                                  24175794.146    94870997.400       -1385.992          27.000  
G10  20152076.608   105899855.262       -1248.999          38.000    20152076.907    79081092.495        -931.935          30.000  
G31  21820345.489   114666688.6111        356.653          29.000  
G32  21826456.758   114698826.516        -176.800          32.000  
J01  38053759.930   199973916.671        -249.842          28.000  
R12  19083077.860   101938376.103       -1858.887          32.000  
> 2021  9 12 10 32  9.9995269  0 11
C06  36694525.209   191077944.011       -1474.271          25.000  
C16  37340966.187   194444192.9031      -1451.503          23.000  
C25  21805932.367   113549219.6181      -1556.426          33.000  
C33  22248529.763   115853843.427       -1639.897          27.000  
E21                                                                                                                                  24175907.767    94871444.267       -1389.093          28.000  
G10  20152073.610   105899844.410       -1251.545          37.000    20152075.109    79081083.674        -933.253          30.000  
G25  20788850.178   109246184.6321      -1144.915          20.000  
G31  21820039.101   114665071.956         355.634          27.000  
G32  21826249.602   114697743.582        -177.965          29.000  
J01  38053567.463   199972905.389        -248.138          28.000  
R12  19083183.387   101938939.375       -1860.429          34.000  
> 2021  9 12 10 32 10.9995261  0  8
C06  36694566.580   191078168.893       -1474.447          24.000  
C25  21805993.225   113549528.872       -1558.397          33.000  
C33  22248606.510   115854234.929       -1640.887          28.000  
G10  20152071.211   105899834.715       -1251.807          37.000    20152073.910    79081076.412        -935.130          31.000  
G31  21819731.814   114663456.302         354.771          26.000  
G32  21826042.445   114696661.096        -177.920          29.000  
J01  38053374.997   199971893.826        -249.613          28.000  
R12  19083294.010   101939530.826       -1861.361          34.000  
> 2021  9 12 10 32 11.9995251  0 10
C06  36694549.192   191078081.958       -1474.207          24.000  
C16  37340976.080   194444285.1511      -1449.421          19.000  
C23  23942784.056   124676453.2151        947.506          17.000  
C25  21805995.923   113549525.382       -1556.721          34.000  
C33  22248622.399   115854314.512       -1640.572          29.000  
G10  20152010.054   105899509.757       -1249.383          36.000    20152012.152    79080834.931        -934.334          28.000  
G31  21819363.369   114661526.428         352.873          24.000  
G32  21825775.030   114695263.328        -177.500          33.000  
J01  38053123.171   199970567.562        -248.204          28.000  
R12  19083348.273   101939820.301       -1862.291          35.000  
> 2021  9 12 10 32 12.9995241  0  9
C06  36694532.104   191077993.843       -1471.636          32.000  
C16  37340954.495   194444172.510       -1447.406          24.000  
C25  21805997.422   113549522.417       -1557.412          32.000  
C33  22248639.787   115854394.648       -1641.263          29.000  
G10  20151954.892   105899185.369       -1250.860          34.000    20151950.695    79080592.917        -934.307          22.000  
G31  21818990.727   114659597.567         353.852          21.000  
G32  21825509.414   114693865.021        -176.789          31.000  
J01  38052869.846   199969240.487        -248.401          24.000  
R12  19083398.638   101940089.422       -1862.701          29.000  
> 2021  9 12 10 32 13.9995233  0  9
C06  36694574.075   191078216.864       -1472.953          28.000  
C16  37340992.569   194444371.861       -1449.514          23.000  
C25  21806055.882   113549831.065       -1558.858          27.000  
C33  22248716.234   115854787.473       -1642.801          28.000  
G10  20151955.192   105899178.390       -1255.481          32.000    20151947.697    79080586.822        -935.867          26.000  
G31  21818678.943   114657983.374         353.494          22.000  
G32  21825304.356   114692781.665        -178.035          29.000  
J01  38052677.080   199968228.727        -249.093          25.000  
R12  19083508.662   101940677.317       -1863.966          31.000  
> 2021  9 12 10 32 14.9995226  0  9
C06  36694648.124   191078597.443       -1473.924          31.000  
C16  37341061.821   194444728.645       -1448.896          23.000  
C25  21806143.721   113550297.751       -1560.622          27.000  
C33  22248819.962   115855338.304       -1644.258          28.000  
G10  20151980.374   105899329.942       -1254.026          26.000    20151975.578    79080698.784        -934.321          21.000  
G31  21818404.633   114656527.873         352.557          20.000  
G32  21825129.277   114691856.935        -178.207          31.000  
J01  38052514.293   199967375.207        -250.165          24.000  
R12  19083648.365   101941423.905       -1864.872          27.000  
> 2021  9 12 10 32 15.9995215  0  8
C06  36694601.356   191078354.201       -1473.529          32.000  
C16  37341011.456   194444460.886       -1449.961          22.000  
C25  21806112.243   113550141.811       -1562.249          27.000  
C33  22248802.574   115855265.638       -1644.287          31.000  
G10                                                                  20151883.841    79080341.014        -937.951          22.000  
G31  21818006.508   114654442.504         352.134          23.000  
J01  38052233.987   199965893.072        -251.246          28.000  
R12  19083672.648   101941553.075       -1864.321          27.000  
> 2021  9 12 10 32 16.9995208  0  7
C06  36694673.906   191078733.963       -1472.890          32.000  
C16  37341081.008   194444818.520       -1450.601          23.000  
C25  21806202.480   113550611.150       -1562.309          31.000  
C33  22248909.600   115855817.479       -1645.125          29.000  
G10  20151912.621   105899002.7871      -1254.730          35.000    20151913.820    79080459.180        -945.449          20.000  
J01  38052072.099   199965040.264        -248.907          27.000  
R12  19083812.651   101942301.563       -1866.409          16.000  
> 2021  9 12 10 32 17.9995197  0  9
C06  36694625.939   191078489.848       -1473.676          29.000  
C16  37341029.443   194444550.647       -1448.452          22.000  
C25  21806172.801   113550455.886       -1561.673          29.000  
C33  22248893.112   115855744.339       -1643.750          29.000  
G10  20151820.285   105898524.543       -1255.337          33.000    20151822.983    79080109.410        -943.645          21.000  
G25  20788462.247   109244045.1481      -1150.384          18.000  
G31  21817333.774   114650899.5961        359.097          12.000  
J01  38051787.895   199963555.643        -247.890          23.000  
R12  19083835.436   101942423.149       -1865.688          18.000  
> 2021  9 12 10 32 18.9995190  0  7
C06  36694697.889   191078870.743       -1475.014          24.000  
C25  21806260.340   113550924.483       -1561.038          27.000  
C33  22248995.941   115856296.064       -1645.193          24.000  
G10  20151849.665   105898677.326       -1255.694          28.000  
G32  21824193.625                        -177.723          38.000    21824192.426    85642818.5211       -133.067          31.000  
J01  38051626.607   199962701.128        -249.625          26.000  
R12  19083974.839   101943167.198       -1869.383          29.000  
> 2021  9 12 10 32 19.9995182  0  7
C06  36694740.760   191079098.116       -1476.919          23.000  
C25  21806324.795   113551237.346       -1563.034          21.000  
C33  22249070.289   115856692.371       -1645.825          29.000  
G10  20151848.466   105898673.152       -1256.988          33.000  
G32  21823990.666                        -176.621          37.000    21823987.368    85642010.906        -132.854          32.000  
J01  38051433.541   199961689.955        -250.436          25.000  
R12  19084083.364   101943747.408       -1871.266          25.000  
> 2021  9 12 10 32 20.9995172  0  9
C06  36694724.871   191079012.806       -1475.061          28.000  
C16  37341121.779   194444995.2131      -1449.776          21.000  
C25  21806326.594   113551239.437       -1563.516          28.000  
C33  22249086.778   115856776.795       -1645.102          29.000  
G10  20151786.409   105898355.122       -1257.929          32.000  
G31  21816383.132   114645891.3941        354.768          20.000  
G32  21823723.551   114684432.9911       -179.261          32.000    21823721.752    85640966.748        -131.600          30.000  
J01  38051179.317   199960366.302        -251.665          22.000  
R12  19084142.723   101944064.715       -1870.996          24.000  
> 2021  9 12 10 32 21.9995162  0  8
C06  36694709.281   191078926.006       -1474.049          27.000  
C25  21806325.695   113551242.295       -1564.209          26.000  
C33  22249100.868   115856860.673       -1646.111          26.000  
G10  20151730.947   105898037.396       -1256.848          31.000  
G25  20788302.158   109243139.8391      -1157.011          17.000  
G32  21823453.138   114683035.567        -175.949          37.000    21823456.136    85639922.257        -131.567          29.000  
J01  38050930.789   199959041.962        -250.264          26.000  
R12  19084188.591   101944309.243       -1871.443          20.000  
> 2021  9 12 10 32 22.9995156  0  9
C06  36694812.710   191079462.348       -1473.078          29.000  
C16  37341196.727   194445399.0001      -1448.552          17.000  
C25  21806446.211   113551870.143       -1564.708          30.000  
C33  22249237.873   115857570.886       -1647.949          20.000  
G10  20151790.306   105898349.960       -1258.384          30.000  
G25  20788347.726   109243352.453       -1158.988          24.000  
G32  21823307.439   114682268.047        -178.276          39.000    21823311.636    85639349.763        -135.029          26.000  
J01  38050801.278   199958347.228        -250.189          24.000  
R12  19084358.274   101945215.523       -1871.384          25.000  
> 2021  9 12 10 32 23.9995146  0  8
C06  36694795.022   191079373.566       -1471.856          32.000  
C16  37341174.843   194445286.168       -1447.687          20.000  
C25  21806447.411   113551872.615       -1562.564          27.000  
G10  20151728.549   105898033.021       -1258.999          30.000  
G25  20788273.977   109242936.234       -1159.379          26.000  
G31  21815397.115   114640741.3701        348.869          27.000  
G32  21823041.823   114680870.430        -177.557          42.000    21823046.020    85638307.535        -133.731          22.000  
J01  38050550.952   199957021.761        -248.907          28.000  
> 2021  9 12 10 32 24.9995136  0  9
C06  36694781.831   191079284.076       -1471.587          32.000  
C16  37341153.557   194445173.015       -1448.356          26.000  
C25  21806445.612   113551873.086       -1561.114          20.000  
G10  20151666.492   105897716.955       -1259.757          31.000  
G25  20788196.631   109242520.702       -1160.339          27.000  
G31  21815030.768   114638816.560         349.133          26.000  
G32  21822776.806   114679472.755        -177.730          41.000  
J01  38050299.126   199955696.390        -250.332          25.000  
R12  19084456.905   101945742.5071      -1873.270          34.000  
> 2021  9 12 10 32 25.9995126  0  8
C06  36694768.041                       -1471.911          32.000  
C16  37341130.773   194445060.117       -1448.129          26.000  
G10  20151604.734   105897401.216       -1260.115          30.000  
G25  20788120.184   109242105.385       -1160.237          26.000  
G31  21814664.722   114636892.015         348.642          26.000  
G32  21822511.190   114678075.124        -177.382          41.000  
J01  38050048.799   199954370.401        -248.542          27.000  
R12  19084510.268   101946027.634       -1875.857          33.000  
> 2021  9 12 10 32 26.9995121  0  8
C06  36694900.549   191079978.1331      -1472.833          32.000  
C16  37341258.485   194445728.155       -1449.387          26.000  
G10  20151692.574   105897874.856       -1262.133          30.000  
G25  20788195.132   109242478.487       -1161.004          26.000  
G31  21814450.070   114635756.046         348.243          26.000  
G32  21822394.271   114677465.213        -178.871          40.000  
J01  38049946.270   199953831.774        -249.891          26.000  
R12  19084712.029   101947105.377       -1875.524          33.000  
> 2021  9 12 10 32 27.9995110  0  9
C06  36694850.783   191079733.385       -1471.814          31.000  
C16  37341207.220   194445460.652       -1449.882          26.000  
C33  22249422.545   115858616.2311      -1645.430          19.000  
G10  20151600.837   105897403.667       -1261.827          31.000  
G25  20788087.806   109241907.132       -1163.182          25.000  
G31  21814054.344   114633674.762         348.314          26.000  
G32  21822097.776   114675910.361        -178.582          40.000  
J01  38049664.166   199952349.361        -250.881          26.000  
R12  19084731.216   101947208.494       -1876.512          34.000  
> 2021  9 12 10 32 28.9995100  0 10
C06  36694835.794   191079644.649       -1472.701          31.000  
C16  37341186.834   194445349.648       -1450.704          28.000  
C25  21806563.730   113552494.1861      -1560.881          15.000  
C33  22249439.334   115858700.832       -1645.422          20.000  
G10  20151540.579   105897090.342       -1262.432          31.000  
G25  20788007.462   109241494.165       -1162.250          25.000  
G31  21813688.598   114631751.410         346.991          27.000  
G32  21821832.160   114674513.032        -177.988          41.000  
J01  38049412.340   199951024.554        -250.223          26.000  
R12  19084780.082   101947468.841       -1876.207          34.000  
> 2021  9 12 10 32 29.9995092  0  7
C06  36694875.666   191079867.946       -1470.957          32.000  
C16  37341226.407   194445550.795       -1449.137          27.000  
G10  20151539.080   105897092.173       -1262.446          30.000  
G31  21813384.908   114630143.556         348.226          28.000  
G32  21821625.903   114673430.660        -178.604          41.000  
J01  38049221.972   199950014.358        -250.483          27.000  
R12  19084889.806   101948055.708       -1876.451          32.000  
> 2021  9 12 10 32 30.9995085  0  8
C06  36694946.717   191080247.144       -1472.049          31.000  
C16  37341294.160   194445907.223       -1449.123          26.000  
C25  21806715.425   113553278.4231      -1568.140          14.000  
G10  20151566.960   105897251.799       -1263.207          30.000  
G31  21813109.998   114628692.925         347.415          29.000  
G32  21821449.025   114672505.800        -177.336          41.000  
J01  38049061.883   199949162.145        -250.193          27.000  
R12  19085029.809   101948803.195       -1877.966          32.000  
> 2021  9 12 10 32 31.9995075  0  7
C06  36694930.528   191080157.830       -1472.947          32.000  
C16  37341271.076   194445794.457       -1448.517          27.000  
C25  21806715.725   113553282.200       -1563.984          14.000  
G31  21812746.650   114626771.142         345.768          28.000  
G32  21821183.409   114671108.137        -177.965          41.000  
J01  38048810.956   199947836.316        -248.530          26.000  
R12  19085081.073   101949077.010       -1879.279          33.000  
> 2021  9 12 10 32 32.9995067  0  8
C06  36694978.495   191080380.557       -1471.378          31.000  
C16  37341309.150   194445993.435       -1447.697          27.000  
C25  21806777.482   113553597.623       -1564.450          13.000  
C33  22249711.845   115860136.8441      -1651.575          19.000  
G31  21812442.360   114625165.048         345.787          27.000  
G32  21820977.751   114670025.523        -177.939          41.000  
J01  38048618.190   199946825.443        -250.119          27.000  
R12  19085189.598   101949656.874       -1879.319          33.000  
> 2021  9 12 10 32 33.9995057  0  8
C06  36694960.208   191080290.958       -1471.883          32.000  
C16  37341287.864   194445880.150       -1448.159          26.000  
C23  23932977.844   124625349.1761        940.027          23.000  
G25  20787829.385   109240544.5741      -1168.952          13.000  
G31  21812078.113   114623243.846         345.213          27.000  
G32  21820711.836   114668627.887        -177.358          40.000  
J01  38048366.064   199945499.050        -248.348          27.000  
R12  19085242.062   101949937.162       -1880.610          33.000  
> 2021  9 12 10 32 34.9995049  0 10
C06  36695002.778   191080513.451       -1471.527          32.000  
C16  37341326.538   194446079.068       -1447.164          27.000  
C23  23932555.736   124623160.074         940.599          23.000  
C25  21806840.139   113553917.4991      -1567.695          15.000  
G10  20151470.427                       -1265.271          34.000  
G25  20787811.398   109240454.511       -1171.808          10.000  
G31  21811773.823   114621638.383         344.971          26.000  
G32  21820505.878   114667545.204        -178.521          39.000  
J01  38048174.497   199944486.623        -246.717          26.000  
R12  19085350.887   101950518.054       -1880.198          33.000  
> 2021  9 12 10 32 35.9995039  0  9
C06  36694986.889   191080423.328       -1470.155          32.000  
C16  37341304.953   194445964.431       -1446.169          27.000  
C23  23932072.771   124620658.325         940.880          23.000  
C25  21806842.237   113553923.177       -1566.970          24.000  
G10  20151411.368   105896381.4691      -1266.162          35.000  
G31  21811408.376   114619717.847         345.156          26.000  
G32  21820239.962   114666147.229        -177.533          39.000  
J01  38047921.472   199943158.740        -248.045          26.000  
R12  19085403.050   101950797.061       -1881.212          32.000  
> 2021  9 12 10 32 36.9995031  0 10
C06  36695025.862   191080645.381       -1471.382          31.000  
C16  37341344.825   194446161.330       -1445.711          27.000  
C23  23931651.263   124618468.118         942.388          23.000  
C25  21806904.294   113554242.559       -1569.245          23.000  
G10  20151408.970   105896387.736       -1266.440          34.000    20151408.970    79078484.9341       -945.532          25.000  
G25  20787712.466   109239977.4331      -1186.708          12.000  
G31  21811103.487   114618112.674         344.438          25.000  
G32  21820033.705   114665064.356        -177.139          39.000  
J01  38047729.605   199942146.392        -248.078          26.000  
R12  19085515.473   101951397.417       -1882.678          32.000  
> 2021  9 12 10 32 37.9995021  0  9
C06  36695009.673   191080555.021       -1469.711          31.000  
C16  37341323.839   194446046.337       -1447.343          28.000  
C23  23931167.697   124615964.652         942.254          22.000  
C25  21806908.791   113554251.348       -1570.492          25.000  
G10  20151355.907   105896079.514       -1266.615          35.000    20151350.211    79078252.827        -943.236          26.000  
G31  21810738.340   114616192.964         344.219          24.000  
G32  21819766.290   114663666.335        -177.549          39.000  
J01  38047477.479   199940818.694        -247.274          25.000  
R12  19085568.236   101951679.560       -1882.579          32.000  
> 2021  9 12 10 32 38.9995013  0  9
C06  36695052.544   191080776.709       -1471.711          32.000  
C16  37341361.913   194446244.868       -1447.851          28.000  
C23  23930744.390   124613773.423         943.195          18.000  
C25  21806970.548   113554573.145       -1570.460          27.000  
G10                                                                  20151351.410    79078256.209        -945.529          24.000  
G25  20787624.327   109239521.6171      -1191.618          13.000  
G31  21810431.652   114614588.375         343.938          24.000  
G32  21819561.232   114662583.269        -177.054          40.000  
J01  38047283.814   199939805.745        -248.228          25.000  
> 2021  9 12 10 32 39.9995005  0  7
C06  36695097.213   191080998.122       -1470.860          32.000  
C16  37341399.087   194446443.788       -1448.205          28.000  
C25  21807034.404   113554894.108       -1569.418          25.000  
G10  20151349.911   105896094.6891      -1267.343          34.000    20151352.909    79078260.616        -945.993          25.000  
G25  20787609.637   109239450.159       -1189.070          12.000  
G32  21819355.874   114661500.108        -178.098          40.000  
J01  38047089.548   199938794.047        -249.424          26.000  
> 2021  9 12 10 32 40.9994995  0  9
C06  36695080.125   191080907.190       -1468.971          31.000  
C16  37341377.202   194446329.545       -1446.598          27.000  
C25  21807038.002   113554902.270       -1569.868          27.000  
G10  20151291.151   105895788.017       -1268.446          35.000    20151294.749    79078031.291        -948.748          25.000  
G25  20787530.492   109239059.610       -1184.420          12.000  
G31  21809759.518   114611065.8151        342.860          22.000  
G32  21819087.860   114660101.827        -177.168          38.000  
J01  38046837.123   199937468.529        -250.764          25.000  
R12  19085849.741   101953183.1501      -1885.371          32.000  
> 2021  9 12 10 32 41.9994985  0  8
C06  36695061.538   191080816.068       -1468.491          31.000  
C16  37341355.917   194446214.887       -1445.954          26.000  
C25  21807039.501   113554911.469       -1570.619          28.000  
G10  20151236.889   105895481.842       -1269.953          35.000    20151236.589    79077804.081        -947.928          24.000  
G25  20787445.051   109238663.230       -1177.938          10.000  
G32  21818821.644   114658703.427        -177.304          38.000  
J01  38046583.498   199936143.207        -248.488          24.000  
R12  19085902.804   101953466.265       -1885.324          32.000  
> 2021  9 12 10 32 42.9994980  0  9
C06  36695190.148   191081505.377       -1467.932          31.000  
C16  37341483.929   194446879.992       -1445.533          27.000  
C23  23929025.680   124604844.5621        942.078          19.000  
C25  21807191.196   113555702.405       -1571.812          27.000  
G10  20151324.428   105895964.008       -1269.729          34.000    20151328.026    79078164.857        -948.723          25.000  
G31  21809173.423   114608017.2081        342.563          19.000  
G32  21818706.824   114658092.764        -177.264          39.000  
J01  38046480.670   199935603.982        -248.965          24.000  
R12  19086108.762   101954566.253       -1886.352          31.000  
> 2021  9 12 10 32 43.9994970  0  8
C06  36695172.161   191081414.028       -1470.031          32.000  
C16  37341462.643   194446764.731       -1445.983          27.000  
C23  23928543.314   124602339.297         942.929          18.000  
C25  21807192.994   113555714.224       -1573.585          31.000  
G10  20151264.170   105895659.178       -1270.175          31.000    20151269.267    79077937.696        -949.765          23.000  
G31  21808809.775   114606099.139         342.661          27.000  
G32  21818441.507   114656694.192        -177.298          38.000  
R12  19086166.022   101954872.841       -1887.665          30.000  
> 2021  9 12 10 32 44.9994959  0  8
C06  36695126.592   191081165.599       -1470.023          33.000  
C16  37341409.580   194446493.685       -1445.330          24.000  
C25  21807166.013   113555570.457       -1573.328          30.000  
G10  20151181.427   105895196.527       -1269.904          35.000    20151182.327    79077591.821        -948.056          25.000  
G31  21808413.150   114604023.448         342.437          25.000  
G32  21818144.713   114655137.318        -176.386          40.000  
J01  38045942.242   199932793.1611       -247.520          26.000  
R12  19086190.605   101955004.371       -1888.171          31.000  
> 2021  9 12 10 32 45.9994952  0  7
C06  36695200.941   191081541.408       -1469.680          31.000  
C25  21807257.750   113556051.041       -1572.809          30.000  
G10  20151212.006   105895364.507       -1272.236          34.000    20151214.704    79077717.261        -948.748          28.000  
G31  21808133.144   114602577.800         342.931          17.000  
G32  21817965.137   114654210.507        -176.832          39.000  
J01  38045777.356   199931936.759        -244.987          26.000  
R12  19086333.306   101955766.195       -1887.884          29.000  
> 2021  9 12 10 32 46.9994944  0  7
C06  36695238.715   191081760.979       -1468.108          29.000  
C25  21807319.207   113556375.328       -1573.984          30.000  
G10  20151210.807   105895375.455       -1271.676          35.000    20151216.503    79077724.611        -948.998          29.000  
G25  20787295.755   109238042.6371      -1167.440          20.000  
G32  21817760.679   114653126.150        -175.765          38.000  
J01  38045588.787   199930921.553        -245.681          25.000  
R12  19086452.024   101956399.953       -1887.616          26.000  
> 2021  9 12 10 32 47.9994934  0  8
C06  36695221.027   191081668.253       -1469.117          29.000  
C16  37341484.228   194446926.2221      -1444.413          17.000  
C25  21807320.406   113556387.931       -1573.474          29.000  
G10  20151157.444   105895072.029       -1272.640          37.000    20151159.243    79077497.397        -949.553          27.000  
G31  21807471.202   114599057.4081        341.906          19.000  
G32  21817492.664   114651726.751        -175.509          37.000  
J01  38045336.062   199929591.804        -245.504          22.000  
R12  19086507.786   101956698.178       -1888.269          25.000  
> 2021  9 12 10 32 48.9994926  0  9
C06  36695264.497   191081888.292       -1468.484          28.000  
C13  36958568.615   192453010.0901      -2894.559          20.000  
C16  37341520.203   194447121.753       -1443.540          17.000  
C25  21807382.763   113556711.967       -1572.624          30.000  
G10  20151163.140   105895084.969       -1273.956          37.000    20151162.241    79077507.072        -952.496          28.000  
G31  21807169.311   114597455.385         340.782          19.000  
G32  21817287.906   114650643.030        -176.712          37.000  
J01  38045144.794   199928577.267        -246.458          23.000  
R12  19086617.809   101957286.210       -1891.973          24.000  
> 2021  9 12 10 32 49.9994916  0  9
C06  36695245.610   191081795.315       -1468.581          28.000  
C16  37341496.220   194447002.091       -1441.271          17.000  
C25  21807384.862   113556724.081       -1573.317          31.000  
G10  20151103.781   105894782.779       -1273.750          36.000    20151104.980    79077281.937        -950.936          28.000  
G31  21806805.663   114595539.199         340.530          19.000  
G32  21817018.692   114649243.614        -175.239          37.000  
J01  38044889.971   199927249.214        -248.381          26.000  
J02  37894862.732   199138760.7551      -2063.416          26.000  
R12  19086674.470   101957589.034       -1893.221          26.000  
> 2021  9 12 10 32 50.9994908  0  9
C06  36695289.979   191082014.290       -1469.954          29.000  
C13  36959137.921   192455983.9291      -2890.153          24.000  
C23  23925418.278   124586021.2951        940.720          11.000  
C25  21807446.919   113557048.595       -1574.094          30.000  
G10  20151106.479   105894796.137       -1272.375          37.000    20151107.379    79077292.019        -952.182          28.000  
G32  21816814.234   114648159.174        -175.790          37.000  
J01  38044695.405   199926237.183        -246.653          24.000  
J02  37895018.924   199139563.208       -2061.817          27.000  
R12  19086785.393   101958181.590       -1891.574          25.000  
> 2021  9 12 10 32 51.9994898  0 11
C06  36695269.893   191081921.050       -1466.960          28.000  
C13  36959392.145   192457312.151       -2888.057          22.000  
C25  21807450.816   113557061.789       -1574.836          31.000  
C33  22250717.049   115865134.3271      -1654.532          25.000  
G10  20151048.919   105894495.142       -1273.338          37.000    20151049.818    79077067.230        -952.840          28.000  
G25  20787032.537   109236652.1721      -1176.512          22.000  
G31  21806135.926   114592023.0501        339.187          23.000  
G32  21816546.819   114646759.652        -176.074          37.000  
J01  38044441.181   199924908.521        -248.322          24.000  
J02  37895110.961   199140050.031       -2063.851          26.000  
R12  19086839.656   101958470.717       -1892.294          23.000  
> 2021  9 12 10 32 52.9994890  0 10
C06  36695314.862   191082139.545       -1465.476          28.000  
C13  36959706.028   192458951.446       -2887.891          19.000  
C25  21807514.372   113557387.679       -1575.279          31.000  
C33  22250796.194   115865540.282       -1654.707          26.000  
G10  20151051.917   105894509.512       -1274.752          37.000    20151052.217    79077078.847        -953.394          27.000  
G25  20787014.549   109236568.063       -1175.531          22.000  
G32  21816339.962   114645674.998        -175.044          37.000  
J01  38044247.216   199923895.428        -247.759          25.000  
J02  37895262.056   199140853.331       -2064.324          25.000  
R12  19086956.875   101959097.584       -1892.981          24.000  
> 2021  9 12 10 32 53.9994880  0  9
C06  36695295.675   191082045.767       -1467.932          28.000  
C25  21807517.670   113557402.016       -1575.817          31.000  
C33  22250813.282   115865634.067       -1655.762          26.000  
G10  20150992.258   105894209.459       -1276.856          36.000    20150995.556    79076856.529        -953.986          27.000  
G31  21805467.089   114588509.6891        339.271          21.000  
G32  21816073.147   114644274.959        -173.999          37.000  
J01  38043994.491   199922566.628        -246.001          26.000  
J02  37895351.694   199141342.687       -2065.380          26.000  
R12  19087009.039   101959376.281       -1894.095          21.000  
> 2021  9 12 10 32 54.9994872  0 10
C06  36695335.248   191082264.561       -1467.299          28.000  
C13  36960273.235   192461919.0791      -2888.896          23.000  
C25  21807581.226   113557728.215       -1574.164          32.000  
G10  20150992.558   105894224.863       -1275.300          35.000    20150997.055    79076869.217        -952.196          27.000  
G25  20786920.115   109236077.8651      -1171.363          22.000  
G31  21805162.800   114586910.199         339.004          30.000  
G32  21815873.485   114643190.655        -179.235          29.000    21815873.785    85610164.1361       -132.258          25.000  
J01  38043801.424   199921552.437        -246.401          21.000  
J02  37895505.787   199142147.946       -2066.563          24.000  
R12  19087119.962   101959968.146       -1894.897          24.000  
> 2021  9 12 10 32 55.9994865  0  9
C06  36695402.701   191082638.291       -1466.448          24.000  
C13  36960618.896   192463715.702       -2889.872          26.000  
C25  21807673.862   113558209.841       -1575.229          27.000  
G10  20151024.036   105894398.050       -1276.438          37.000    20151029.433    79076998.854        -954.104          18.000  
G31  21804889.389   114585468.471         338.905          28.000  
G32  21815694.509   114642263.089        -175.014          26.000    21815696.907    85609472.137        -131.485          30.000  
J01  38043637.138   199920695.713        -246.238          28.000  
J02  37895690.759   199143112.059       -2066.314          18.000  
R12  19087262.663   101960730.579       -1896.058          34.000  
> 2021  9 12 10 32 56.9994854  0  8
C13  36960844.640   192464887.598       -2889.326          27.000  
C25  21807647.780   113558067.904       -1575.477          28.000  
G10  20150937.396   105893941.448       -1275.717          36.000    20150943.692    79076659.654        -954.398          20.000  
G31  21804494.563   114583396.604         338.794          30.000  
G32                                                                  21815400.413    85608309.616        -131.519          30.000  
J01  38043352.935   199919208.649        -246.482          28.000  
J02  37895750.718   199143446.490       -2070.884          17.000  
R12  19087285.747   101960853.592       -1896.091          35.000  
> 2021  9 12 10 32 57.9994844  0 11
C06  36695332.250   191082296.0471      -1468.886          22.000  
C13  36961101.862   192466216.008       -2890.348          26.000  
C16  37341564.573   194447294.7431      -1442.267          24.000  
C25  21807651.377   113558082.583       -1576.012          26.000  
C33  22250992.858   115866639.3551      -1655.992          18.000  
G10  20150884.633   105893643.769       -1277.198          36.000    20150885.532    79076438.171        -955.897          19.000  
G31  21804130.315   114581482.506         336.924          29.000  
G32  21815127.002   114639304.3481       -175.287          32.000    21815133.597    85607264.633        -132.306          29.000  
J01  38043100.510   199917879.338        -245.937          27.000  
J02  37895843.953   199143939.147       -2065.476          18.000  
R12  19087338.511   101961135.407       -1898.585          34.000  
> 2021  9 12 10 32 58.9994839  0 12
C06  36695464.758   191082983.336       -1466.915          29.000  
C13  36961505.982   192468325.451       -2891.600          23.000  
C16  37341692.884   194447957.231       -1442.744          24.000  
C25  21807806.070   113558878.298       -1576.648          34.000  
C33  22251155.346   115867514.262       -1655.756          27.000  
G10  20150979.067   105894133.798       -1278.388          39.000    20150977.868    79076806.683        -959.056          20.000  
G25  20786822.083   109235579.8681      -1178.120          23.000  
G31  21803915.363   114580357.509         337.821          23.000  
G32  21815008.284   114638691.673        -175.351          33.000    21815015.179    85606808.851        -131.214          24.000  
J01  38042996.781   199917336.722        -244.429          27.000  
J02  37896084.387   199145215.725       -2063.592          25.000  
R12  19087544.468   101962235.514       -1897.857          29.000  
> 2021  9 12 10 32 59.9994829  0 12
C06  36695445.871   191082888.440       -1465.546          29.000  
C13  36961762.604   192469655.443       -2890.572          21.000  
C16  37341672.498   194447837.668       -1440.662          24.000  
C25  21807809.368   113558893.755       -1577.146          32.000  
C33  22251169.136   115867610.283       -1657.845          29.000  
G10  20150923.306   105893836.624       -1278.683          37.000    20150920.608    79076586.768        -955.147          20.000  
G25  20786742.638   109235182.767       -1178.536          26.000  
G31  21803550.516   114578444.679         336.137          23.000  
G32  21814743.267   114637291.061        -173.427          35.000    21814748.064    85605762.604        -129.023          24.000  
J01  38042743.157   199916006.380        -246.256          28.000  
J02  37896175.823   199145702.705       -2061.619          26.000  
R12  19087599.030   101962527.331       -1899.195          28.000  
> 2021  9 12 10 33  0.9994819  0 10
C06  36695427.284   191082792.869       -1465.707          29.000  
C13  36962016.528   192470985.460       -2891.888          23.000  
C16  37341649.714   194447717.109       -1440.686          23.000  
C25  21807812.366                       -1576.867          34.000  
C33  22251188.023   115867706.974       -1657.574          27.000  
G10  20150865.446   105893540.032       -1279.922          37.000    20150864.247    79076364.636        -955.490          24.000  
G32  21814476.452                        -175.370          35.000    21814479.450    85604716.430        -130.827          25.000  
J01  38042491.931   199914677.839        -247.669          25.000  
J02  37896268.759   199146188.064       -2060.468          23.000  
R12  19087658.689   101962846.201       -1898.547          28.000  
> 2021  9 12 10 33  1.9994811  0 10
C06  36695470.754   191083009.022       -1464.483          30.000  
C16  37341689.586   194447907.288       -1438.610          22.000  
C25  21807877.421   113559330.1201      -1576.924          33.000  
C33  22251265.070   115868115.628       -1656.388          28.000  
G10  20150870.243   105893559.123       -1279.971          36.000    20150868.144    79076379.261        -954.153          21.000  
G25  20786654.199   109234706.6881      -1180.871          25.000  
G32  21814268.696   114634761.0401       -175.676          34.000    21814272.593    85603905.730        -132.001          22.000  
J01  38042300.663   199913665.110        -247.209          25.000  
J02  37896420.454   199146986.504       -2057.351          23.000  
R12  19087773.509   101963459.155       -1899.867          28.000  
> 2021  9 12 10 33  2.9994803  0 11
C06  36695512.126   191083224.498       -1465.073          28.000  
C13  36962643.095   192474268.0341      -2888.024          19.000  
C16  37341724.962   194448098.196       -1440.635          23.000  
C25  21807941.576   113559659.371       -1578.535          33.000  
C33  22251342.116   115868523.574       -1657.561          25.000  
G10  20150874.140   105893578.875       -1281.124          38.000    20150872.042    79076392.108        -955.902          21.000  
G25  20786638.909   109234626.923       -1180.315          25.000  
G32  21814062.739   114633675.513        -175.791          36.000    21814066.636    85603095.388        -129.318          23.000  
J01  38042106.997   199912650.290        -243.987          24.000  
J02  37896571.849   199147783.647       -2057.097          23.000  
R12  19087889.229   101964077.479       -1900.474          29.000  
> 2021  9 12 10 33  3.9994793  0 13
C06  36695494.438   191083128.586       -1465.237          28.000  
C08  37877061.356   197235797.8081      -3121.346          24.000  
C13  36962897.019   192475594.261       -2887.227          21.000  
C16  37341701.878   194447977.327       -1439.506          24.000  
C25  21807942.176   113559676.696       -1577.789          32.000  
C33  22251362.502   115868619.371       -1656.811          27.000  
G10  20150816.580   105893284.011       -1281.215          38.000    20150816.280    79076171.659        -956.003          22.000  
G25  20786566.360   109234231.888       -1180.612          26.000  
G31  21802219.138   114571434.2411        337.075          17.000  
G32  21813795.624   114632274.687        -175.397          36.000    21813800.420    85602048.383        -129.258          25.000  
J01  38041853.673   199911318.098        -243.410          24.000  
J02  37896662.686   199148266.980       -2060.036          21.000  
R12  19087946.490   101964383.263       -1901.142          29.000  
> 2021  9 12 10 33  4.9994785  0 12
C06  36695536.709   191083344.977       -1465.630          28.000  
C08  37877420.507   197237670.189       -3121.947          25.000  
C13  36963213.000   192477233.112       -2888.439          22.000  
C25  21808003.333   113560006.694       -1579.858          33.000  
C33  22251442.247   115869027.734       -1656.478          26.000  
G10  20150818.379   105893304.840       -1281.316          38.000    20150820.177    79076186.143        -957.479          22.000  
G25  20786552.869   109234153.366       -1181.873          26.000  
G31  21801910.651   114569838.682         334.829          17.000  
G32  21813591.465   114631188.995        -176.139          36.000    21813594.163    85601238.145        -130.112          23.000  
J01  38041658.808   199910300.480        -241.875          24.000  
J02  37896817.679   199149067.805       -2063.049          22.000  
R12  19088062.809   101965004.380       -1903.667          29.000  
> 2021  9 12 10 33  5.9994775  0 11
C06  36695518.121   191083248.454       -1463.889          28.000  
C08  37877720.600   197239231.039       -3122.665          24.000  
C16  37341715.668   194448049.5261      -1442.053          24.000  
C25  21808009.329   113560024.714       -1578.447          32.000  
C33  22251459.335   115869123.151       -1656.688          25.000  
G10  20150765.016   105893011.038       -1282.322          38.000    20150764.716    79075966.879        -956.694          23.000  
G25  20786479.420   109233759.578       -1181.769          27.000  
G32  21813323.750   114629787.994        -174.894          36.000    21813328.847    85600191.094        -130.780          23.000  
J01  38041403.684   199908968.016        -243.295          24.000  
J02  37896913.613   199149556.056       -2064.410          21.000  
R12  19088122.768   101965324.770       -1904.622          30.000  
> 2021  9 12 10 33  6.9994767  0  9
C06  36695560.992   191083463.384       -1464.223          28.000  
C08  37878083.349   197241104.621       -3123.485          24.000  
C16  37341752.543   194448243.325       -1443.425          23.000  
C25  21808071.986   113560355.356       -1579.219          32.000  
C33  22251538.181   115869531.897       -1658.148          25.000  
G10  20150768.913   105893032.938       -1282.299          39.000    20150768.613    79075982.120        -956.910          23.000  
G25  20786465.629   109233681.274       -1182.372          26.000  
G32  21813116.294   114628702.131        -174.236          37.000    21813121.990    85599380.686        -129.632          24.000  
J01  38041209.419   199907951.355        -244.840          23.000  
> 2021  9 12 10 33  7.9994760  0 10
C06  36695632.642   191083834.738       -1464.544          28.000  
C16  37341819.696   194448593.687       -1443.054          24.000  
C25  21808165.221   113560842.324       -1578.725          32.000  
C33  22251647.305   115870098.408       -1659.800          24.000  
G10  20150804.288   105893212.680       -1282.725          38.000    20150803.689    79076115.319        -956.970          25.000  
G25  20786483.317   109233760.933       -1183.057          26.000  
G32  21812941.215   114627773.460        -173.713          38.000    21812944.213    85598687.417        -129.001          25.000  
J01  38041044.533   199907093.138        -244.930          23.000  
J02  37897242.785   199151319.1331      -2061.827          21.000  
R12  19088383.287   101966716.4311      -1903.021          29.000  
> 2021  9 12 10 33  8.9994749  0 13
C06  36695583.776   191083581.830       -1465.209          29.000  
C08  37878739.894   197244538.0921      -3121.960          22.000  
C13  36964352.811   192483170.6411      -2891.173          20.000  
C16  37341767.832   194448318.257       -1441.354          23.000  
C25  21808135.242   113560705.354       -1580.098          31.000  
C33  22251637.112   115870040.645       -1659.286          22.000  
G10  20150718.248   105892762.952       -1283.343          39.000    20150718.848    79075777.479        -955.160          24.000  
G25  20786378.090   109233211.182       -1183.774          26.000  
G31  21800594.562   114562819.9281        337.841          17.000  
G32  21812644.121   114626214.657        -174.496          37.000    21812645.620    85597523.080        -131.533          23.000  
J01  38040760.030   199905605.673        -246.308          24.000  
J02  37897306.341   199151648.208       -2062.314          22.000  
R12  19088408.470   101966851.578       -1904.720          30.000  
> 2021  9 12 10 33  9.9994742  0 10
C06  36695655.127   191083953.865       -1464.766          29.000  
C08  37879132.922   197246569.654       -3124.581          22.000  
C16  37341832.887   194448666.136       -1439.869          23.000  
C25  21808233.274   113561193.008       -1580.162          31.000  
C33  22251747.136   115870606.079       -1658.295          25.000  
G10  20150753.923   105892943.882       -1283.592          39.000    20150753.024    79075910.529        -959.064          23.000  
G25  20786393.379   109233292.464       -1184.528          25.000  
G32  21812463.945   114625285.914        -174.531          35.000    21812469.941    85596831.281        -132.201          21.000  
J01  38040595.744   199904748.121        -244.267          23.000  
J02  37897490.114   199152607.510       -2062.817          22.000  
> 2021  9 12 10 33 10.9994732  0 11
C06  36695637.139   191083857.396       -1464.736          28.000  
C13  36964952.396   192486296.5861      -2890.549          19.000  
C16  37341807.704   194448544.872       -1439.386          23.000  
C25  21808237.771   113561212.813       -1581.485          31.000  
C33  22251766.323   115870703.121       -1658.736          25.000  
G10  20150697.862   105892652.736       -1284.871          39.000    20150697.562    79075693.198        -958.928          22.000  
G25  20786319.331   109232901.397       -1184.730          26.000  
G32  21812201.027   114623884.528        -174.116          36.000    21812204.925    85595786.088        -130.971          22.000  
J01  38040342.119   199903416.891        -245.079          24.000  
J02  37897582.150   199153094.466       -2062.073          23.000  
R12  19088614.727   101967952.7161      -1906.911          31.000  
> 2021  9 12 10 33 11.9994724  0 13
C06  36695678.510   191084072.550       -1465.010          28.000  
C08  37879790.367   197250007.4771      -3125.004          22.000  
C13  36965266.578   192487938.634       -2890.448          19.000  
C16  37341843.380   194448735.787       -1439.796          25.000  
C25  21808300.728   113561545.182       -1582.315          33.000  
C33  22251845.468   115871113.426       -1659.732          25.000  
G10  20150702.059   105892677.278       -1285.005          40.000    20150701.759    79075711.107        -960.670          22.000  
G25  20786305.240   109232826.287       -1185.666          25.000  
G31  21799659.510   114557877.0131        332.824          20.000  
G32  21811998.068   114622798.243        -174.202          37.000    21811997.169    85594975.214        -130.454          23.000  
J01  38040148.753   199902401.435        -245.827          23.000  
J02  37897735.344   199153894.663       -2060.049          22.000  
R12  19088735.244   101968596.638       -1907.563          30.000  
> 2021  9 12 10 33 12.9994714  0 12
C06  36695659.623   191083975.457       -1463.909          29.000  
C13  36965523.800   192489267.559       -2889.822          20.000  
C16  37341820.296   194448613.480       -1438.393          24.000  
C25  21808305.224   113561565.686       -1580.457          32.000  
C33  22251864.954   115871212.530       -1660.152          23.000  
G10  20150648.396   105892387.186       -1285.853          40.000  
G25  20786229.393   109232436.700       -1186.158          24.000  
G31  21799297.360   114555968.499         333.180          21.000  
G32  21811727.355   114621396.534        -173.936          37.000    21811730.653    85593929.484        -130.634          23.000  
J01  38039893.030   199901071.146        -244.101          24.000  
J02  37897827.380   199154379.045       -2060.001          22.000  
R12  19088788.007   101968878.772       -1908.472          29.000  
> 2021  9 12 10 33 13.9994706  0 12
C06  36695701.894   191084189.859       -1463.267          29.000  
C13  36965839.182   192490907.801       -2888.620          21.000  
C16  37341858.669   194448804.605       -1440.145          21.000  
C25  21808370.579   113561898.884       -1581.116          31.000  
C33  22251945.898   115871624.100       -1661.250          24.000  
G10  20150653.793   105892412.898       -1287.310          39.000  
G25  20786214.403   109232362.871       -1186.739          24.000  
G31  21798993.371   114554374.929         333.192          22.000  
G32  21811521.098   114620310.090        -172.742          36.000    21811524.396    85593118.190        -127.272          22.000  
J01  38039701.762   199900054.524        -244.585          23.000  
J02  37897979.075   199155178.014       -2058.618          24.000  
R12  19088905.226   101969504.560       -1908.612          28.000  
> 2021  9 12 10 33 14.9994698  0 11
C06  36695743.565   191084404.364       -1463.352          28.000  
C13  36966153.065   192492547.076       -2888.297          21.000  
C16  37341892.846   194448995.543       -1438.355          24.000  
C25  21808435.035   113562232.652       -1581.486          33.000  
C33  22252025.343   115872036.570       -1661.032          24.000  
G10  20150658.589   105892439.338       -1286.486          39.000  
G25  20786200.913   109232289.646       -1187.720          26.000  
G32  21811314.541   114619223.763        -174.443          35.000    21811315.740    85592302.455        -124.068          23.000  
J01  38039509.895   199899039.862        -247.107          25.000  
J02  37898130.770   199155976.253       -2059.167          24.000  
R12  19089021.845   101970127.765       -1910.371          29.000  
> 2021  9 12 10 33 15.9994688  0  9
C06  36695724.678   191084305.724       -1461.900          29.000  
C25  21808437.133   113562254.480       -1584.747          33.000  
C33  22252042.432   115872136.483       -1661.817          22.000  
G10  20150603.128   105892151.195       -1287.438          39.000  
G25  20786129.862   109231902.129       -1188.301          25.000  
G31  21798322.136   114550874.2381        331.988          22.000  
G32  21811044.428   114617822.173        -172.621          36.000    21811048.625    85591250.210        -124.753          22.000  
J01  38039255.671   199897711.763        -246.811          25.000  
R12  19089080.904   101970443.469       -1912.005          29.000  
> 2021  9 12 10 33 16.9994678  0 11
C06  36695706.691   191084206.913       -1462.565          28.000  
C13  36966665.410   192495201.8971      -2888.398          22.000  
C25  21808441.330   113562276.612       -1583.419          33.000  
C33  22252060.719   115872237.909       -1662.379          19.000  
G10  20150549.765   105891863.466       -1288.265          40.000  
G25  20786054.914   109231515.003       -1188.652          26.000  
G31  21797956.988   114548966.645         332.216          22.000  
G32  21810779.711   114616420.458        -172.874          36.000    21810782.110    85590201.977        -127.292          22.000  
J01  38039006.544   199896382.210        -244.765          25.000  
J02  37898313.943   199156945.2131      -2060.626          26.000  
R12  19089143.561   101970778.377       -1911.491          29.000  
> 2021  9 12 10 33 17.9994670  0 11
C06  36695749.861   191084420.739       -1463.195          27.000  
C13  36966982.890   192496843.102       -2891.414          23.000  
C25  21808503.987   113562611.296       -1582.669          32.000  
C33  22252139.864   115872652.422       -1663.046          23.000  
G10  20150555.461   105891891.461       -1288.433          37.000  
G25  20786041.423   109231443.565       -1189.297          27.000  
G31  21797653.299   114547374.404         331.835          22.000  
G32  21810576.752   114615333.885        -172.057          37.000    21810576.152    85589390.273        -132.457          23.000  
J01  38038814.377   199895366.288        -243.768          26.000  
J02  37898466.837   199157745.489       -2060.400          26.000  
R12  19089262.878   101971415.199       -1911.310          28.000  
> 2021  9 12 10 33 18.9994662  0 10
C06  36695792.731   191084635.241       -1463.483          28.000  
C13  36967300.370   192498486.182       -2892.691          24.000  
C25  21808568.742   113562946.371       -1584.727          34.000  
C33  22252216.911   115873067.031       -1665.616          18.000  
G10  20150567.752   105891920.011       -1289.675          33.000  
G25  20786028.232   109231373.178       -1190.319          28.000  
G31  21797346.011   114545782.872         331.775          21.000  
G32  21810368.696   114614247.186        -173.891          37.000  
J02  37898620.331   199158545.548       -2060.712          25.000  
R12  19089380.697   101972044.582       -1913.078          26.000  
> 2021  9 12 10 33 19.9994652  0 10
C06  36695775.343   191084537.318       -1463.765          29.000  
C13  36967556.393   192499817.593       -2892.254          24.000  
C25  21808571.140   113562969.604       -1584.709          35.000  
C33  22252233.999   115873170.885       -1664.360          14.000  
G10  20150510.192   105891633.925       -1290.839          33.000  
G31  21796983.262   114543875.661         330.618          23.000  
G32  21810100.382   114612845.226        -174.128          37.000  
J01  38038362.290   199893015.5011       -242.374          24.000  
J02  37898712.967   199159031.355       -2061.596          27.000  
R12  19089434.060   101972329.765       -1910.808          23.000  
> 2021  9 12 10 33 20.9994644  0 10
C06  36695817.314   191084750.990       -1462.310          29.000  
C13  36967870.276   192501460.931       -2892.440          23.000  
C25  21808637.994   113563305.394       -1585.508          35.000  
C33  22252317.341   115873584.971       -1663.698          16.000  
G10  20150512.890   105891663.498       -1291.161          35.000  
G31  21796679.873   114542285.243         329.610          25.000  
G32  21809893.225   114611758.355        -174.917          38.000  
J01  38038168.024   199891996.940        -242.275          23.000  
J02  37898866.461   199159832.730       -2061.662          27.000  
R12  19089557.274   101972988.147       -1912.338          24.000  
> 2021  9 12 10 33 21.9994637  0 13
C06  36695888.065   191085120.499       -1462.337          28.000  
C13  36968216.236   192503261.369       -2894.436          24.000  
C16  37341999.272   194449543.1171      -1438.189          22.000  
C23  23911736.649   124514745.6941        931.468          25.000  
C25  21808732.728   113563797.681       -1585.016          35.000  
C33  22252426.166   115874156.688       -1664.996          16.000  
G10  20150546.467   105891851.227       -1289.854          35.000  
G25  20785962.278   109231005.6581      -1191.971          29.000  
G31  21796405.263   114540852.426         329.338          25.000  
G32  21809719.046   114610828.910        -173.227          38.000  
J01  38038004.038   199891137.947        -245.314          22.000  
J02  37899048.735   199160791.964       -2062.195          25.000  
R12  19089708.670   101973797.201       -1914.888          27.000  
> 2021  9 12 10 33 22.9994627  0 11
C06  36695869.178   191085021.089       -1462.325          28.000  
C16  37341974.089   194449419.754       -1437.637          23.000  
C23  23911255.782   124512252.676         932.230          25.000  
C25  21808735.726   113563821.947       -1585.430          36.000  
C33  22252444.153   115874261.731       -1665.912          17.000  
G10  20150487.708   105891566.808       -1290.830          34.000  
G25  20785894.225   109230622.989       -1192.836          27.000  
G31  21796044.313   114538947.295         329.908          23.000  
G32  21809450.432   114609426.747        -173.217          38.000  
J02  37899141.670   199161278.593       -2062.601          26.000  
R12  19089768.628   101974117.521       -1916.591          26.000  
> 2021  9 12 10 33 23.9994619  0 12
C06  36695910.550   191085234.708       -1462.704          28.000  
C13  36968782.544   192506234.8691      -2891.735          21.000  
C16  37342011.563   194449608.257       -1438.431          22.000  
C23  23910836.372   124510071.343         931.853          24.000  
C25  21808801.681   113564158.832       -1585.614          35.000  
C33  22252522.399   115874676.739       -1663.916          17.000  
G10  20150495.802   105891597.988       -1291.911          34.000  
G25  20785881.634   109230555.524       -1194.160          27.000  
G31  21795741.522   114537356.714         331.198          24.000  
G32  21809244.774   114608339.615        -173.465          39.000  
J02  37899293.065   199162080.449       -2062.521          26.000  
R12  19089890.044   101974765.266       -1916.208          25.000  
> 2021  9 12 10 33 24.9994609  0 11
C06  36695892.862   191085135.785       -1462.060          29.000  
C13  36969038.567   192507566.157       -2891.809          22.000  
C16  37341990.278   194449486.143       -1440.025          22.000  
C23  23910356.704   124507578.255         933.145          24.000  
C25  21808808.576   113564183.858       -1586.411          35.000  
G10  20150440.940   105891314.677       -1292.186          34.000    20150444.238    79074686.4941       -965.844          28.000  
G25  20785811.182   109230174.229       -1194.804          28.000  
G31  21795379.972   114535452.026         328.391          23.000  
G32  21808979.757   114606937.264        -173.380          38.000  
J02  37899385.701   199162568.096       -2062.990          25.000  
R12  19089947.304   101975071.801       -1915.956          26.000  
> 2021  9 12 10 33 25.9994601  0 11
C06  36695932.135   191085348.208       -1460.917          28.000  
C23  23909934.297   124505396.472         933.393          23.000  
C25  21808872.432   113564521.541       -1587.190          36.000  
C33  22252618.333   115875193.3291      -1663.152          19.000  
G10  20150445.737   105891346.989       -1293.032          34.000    20150450.833    79074711.358        -965.469          27.000  
G25  20785798.591   109230108.537       -1194.645          28.000  
G31  21795078.381   114533862.451         329.131          25.000  
G32  21808773.500   114605850.068        -172.818          39.000  
J01  38037106.759   199886448.7881       -243.325          20.000  
J02  37899538.296   199163369.799       -2061.774          26.000  
R12  19090067.821   101975715.011       -1916.956          26.000  
> 2021  9 12 10 33 26.9994593  0 10
C06  36695970.508   191085559.688       -1460.077          28.000  
C13  36969669.630   192510851.2361      -2891.685          20.000  
C23  23909515.787   124503214.633         931.875          24.000  
C25  21808937.187   113564859.499       -1586.247          34.000  
G10  20150454.730   105891379.878       -1294.664          37.000    20150456.829    79074736.301        -966.633          27.000  
G25  20785786.300   109230042.899       -1194.548          28.000  
G31  21794774.392   114532272.246         329.253          24.000  
G32  21808567.543   114604762.666        -173.211          38.000  
J01  38036916.990   199885430.944        -241.891          24.000  
R12  19090185.340   101976343.380       -1919.908          27.000  
> 2021  9 12 10 33 27.9994583  0  9
C06  36695949.523   191085458.140       -1459.281          29.000  
C23  23909038.517   124500721.774         931.066          24.000  
C25  21808941.684   113564885.597       -1587.834          33.000  
G10  20150398.070   105891098.184       -1294.324          35.000    20150402.567    79074526.515        -966.643          26.000  
G25  20785713.750   109229662.819       -1195.522          27.000  
G31  21794410.444   114530368.294         327.960          25.000  
G32  21808298.029   114603360.129        -174.145          38.000  
J02  37899784.725   199164656.9051      -2060.323          21.000  
R12  19090242.900   101976650.214       -1919.772          25.000  
> 2021  9 12 10 33 28.9994573  0 12
C06  36695928.537   191085356.488       -1460.134          28.000  
C13  36970181.976   192513511.8701      -2891.596          23.000  
C16  37342018.459   194449609.8071      -1433.834          19.000  
C23  23908558.849   124498230.767         929.667          24.000  
C25  21808947.680   113564912.081       -1588.046          35.000  
C33  22252732.854   115875812.8961      -1662.379          22.000  
G10  20150346.505   105890817.105       -1295.541          33.000    20150349.503    79074316.976        -967.394          27.000  
G25  20785642.399   109229283.417       -1195.437          28.000  
G31  21794049.194   114528465.496         326.758          26.000  
G32  21808030.315   114601957.628        -173.363          38.000  
J02  37899876.461   199165141.069       -2059.544          26.000  
R12  19090302.259   101976967.309       -1919.685          26.000  
> 2021  9 12 10 33 29.9994565  0 10
C06  36695969.009   191085568.065       -1460.288          28.000  
C23  23908138.240   124496051.178         931.487          24.000  
C25  21809013.334   113565251.228       -1588.508          33.000  
G10  20150354.900   105890851.732       -1296.420          33.000    20150355.799    79074344.022        -967.757          27.000  
G25  20785630.707   109229218.006       -1194.672          27.000  
G31  21793747.602   114526878.168         327.344          27.000  
G32  21807824.058   114600870.042        -173.332          39.000  
J01  38036211.878   199881744.6231       -242.206          21.000  
J02  37900029.955   199165940.501       -2060.310          24.000  
R12  19090423.375   101977614.772       -1922.592          24.000  
> 2021  9 12 10 33 30.9994557  0 12
C06  36696009.181   191085779.082       -1460.863          28.000  
C13  36970816.037   192516800.7911      -2893.764          19.000  
C16  37342091.308   194449979.2591      -1434.599          20.000  
C23  23907718.231   124493869.324         932.771          23.000  
C25  21809077.790   113565590.729       -1589.432          34.000  
G10  20150364.793   105890886.809       -1295.828          32.000    20150361.195    79074369.825        -968.308          27.000  
G25  20785618.716   109229152.819       -1196.471          27.000  
G31  21793445.412   114525291.687         324.737          26.000  
G32  21807619.000   114599782.443        -172.066          38.000  
J01  38036019.112   199880727.246        -242.863          21.000  
J02  37900181.650   199166740.739       -2061.333          25.000  
R12  19090540.294   101978238.953       -1922.726          25.000  
> 2021  9 12 10 33 31.9994547  0 11
C06  36695988.496   191085678.794       -1461.021          27.000  
C16  37342067.625   194449853.732       -1437.179          24.000  
C23  23907236.465   124491374.966         932.513          22.000  
C25  21809083.186   113565617.922       -1589.746          35.000  
G10  20150311.430   105890606.490       -1295.071          29.000    20150308.132    79074162.279        -968.187          27.000  
G25  20785545.566   109228774.438       -1197.611          29.000  
G31  21793083.262   114523391.378         325.438          28.000  
G32  21807350.985   114598379.134        -172.039          37.000  
J01  38035766.087   199879394.337        -242.670          24.000  
J02  37900275.185   199167226.571       -2061.737          25.000  
R12  19090598.454   101978549.689       -1922.330          25.000  
> 2021  9 12 10 33 32.9994537  0  9
C06  36695968.110   191085577.686       -1459.285          26.000  
C13  36971325.084   192519460.6561      -2890.591          20.000  
C25  21809084.085   113565645.642       -1589.446          35.000  
C33  22252933.115   115876854.5991      -1669.899          22.000  
G10  20150256.568   105890327.209       -1296.717          30.000    20150254.169    79073952.368        -966.568          23.000  
G25  20785470.918   109228396.619       -1197.927          27.000  
G31  21792721.113   114521489.944         326.106          28.000  
G32  21807083.570   114596976.174        -172.049          37.000  
R12  19090651.817   101978834.908       -1924.495          24.000  
> 2021  9 12 10 33 33.9994532  0 11
C06  36696098.220   191086256.028       -1458.980          27.000  
C13  36971729.804   192521571.274       -2890.872          20.000  
C25  21809244.174   113566454.257       -1589.371          35.000  
C33  22253104.296   115877743.352       -1670.092          24.000  
G10  20150351.302   105890836.363       -1296.811          27.000    20150351.002    79074332.386        -969.198          25.000  
G25  20785547.065   109228807.110       -1198.698          27.000  
G31  21792506.462   114520375.701         326.666          29.000  
G32  21806965.752   114596360.519        -172.955          38.000  
J01  38035403.338   199877514.7161       -238.682          18.000  
J02  37900613.052   199168986.8171      -2060.330          21.000  
R12  19090859.273   101979942.568       -1921.741          25.000  
> 2021  9 12 10 33 34.9994522  0 10
C06  36696078.434   191086153.704       -1458.484          25.000  
C16  37342143.172   194450258.9211      -1435.873          19.000  
C23  23905960.848   124484681.9131        928.103          23.000  
C25  21809250.470   113566482.686       -1589.705          35.000  
G10  20150295.541   105890557.624       -1296.942          29.000    20150298.838    79074124.658        -968.689          25.000  
G25  20785479.912   109228431.586       -1203.600          27.000  
G31  21792143.113   114518473.668         326.370          27.000  
G32  21806692.341   114594957.262        -173.387          34.000  
J01  38035148.515   199876177.892        -237.929          18.000  
R12  19090916.833   101980250.447       -1925.178          27.000  
> 2021  9 12 10 33 35.9994511  0 10
C06  36696030.767   191085894.609       -1457.972          24.000  
C13  36972207.973   192524073.0561      -2889.643          21.000  
C16  37342087.111   194449977.633       -1436.033          25.000  
C23  23905454.798   124482036.049         929.050          26.000  
C25  21809226.187   113566355.366       -1591.070          34.000  
G10  20150210.999   105890122.033       -1297.717          32.000    20150216.096    79073798.849        -968.578          27.000  
G31  21791745.289   114516414.473         325.830          27.000  
G32  21806397.045   114593396.550        -172.435          33.000  
J02  37900767.445   199169799.6401      -2061.466          21.000  
R12  19090946.213   101980407.444       -1925.880          27.000  
> 2021  9 12 10 33 36.9994504  0  9
C06  36696103.017   191086261.502       -1460.630          26.000  
C16  37342151.866   194450320.811       -1435.810          26.000  
C23  23905067.466   124480014.396         928.799          25.000  
C25  21809320.022   113566852.744       -1589.141          35.000  
G10                                                                  20150253.570    79073945.540        -970.446          26.000  
G31  21791472.777   114514985.959         325.536          26.000  
G32  21806221.667   114592465.641        -171.593          36.000  
J01  38034704.222   199873823.3461       -241.076          19.000  
J02  37900949.718   199170757.134       -2059.764          21.000  
> 2021  9 12 10 33 37.9994496  0 11
C06  36696143.189   191086472.339       -1459.506          26.000  
C16  37342186.642   194450506.600       -1435.071          24.000  
C23  23904650.455   124477836.805         928.658          23.000  
C25  21809383.278   113567194.349       -1591.502          34.000  
G10  20150256.867   105890355.5191      -1300.016          35.000    20150261.065    79073974.836        -970.728          28.000  
G25  20785408.561   109227940.2571      -1200.976          17.000  
G31  21791169.987   114513399.991         326.208          23.000  
G32  21806019.607   114591377.233        -171.619          38.000  
J01  38034511.755   199872804.937        -242.613          20.000  
J02  37901102.013   199171556.921       -2060.635          22.000  
R12  19091220.223   101981871.6911      -1924.066          26.000  
> 2021  9 12 10 33 38.9994486  0 11
C06  36696125.201   191086370.234       -1459.031          28.000  
C16  37342160.560   194450380.264       -1434.826          25.000  
C23  23904173.185   124475346.861         928.327          22.000  
C25  21809388.375   113567225.108       -1595.307          32.000  
C33  22253332.738   115878903.0701      -1666.269          19.000  
G10  20150208.601                       -1300.130          36.000    20150208.601    79073768.997        -971.223          29.000  
G31  21790806.339   114511498.955         325.165          24.000  
G32  21805753.091   114589973.554        -172.592          35.000  
J01  38034258.131   199871472.929        -243.427          21.000  
J02  37901197.047   199172040.518       -2058.162          21.000  
R12  19091279.282   101982186.827       -1925.157          26.000  
> 2021  9 12 10 33 39.9994478  0  9
C06  36696164.174   191086580.878       -1461.144          27.000  
C25  21809451.931   113567567.205       -1591.057          27.000  
C33  22253416.680   115879320.589       -1666.961          23.000  
G10  20150215.796   105890099.7221      -1299.804          37.000    20150216.695    79073799.197        -970.939          28.000  
G25  20785313.527   109227494.0991      -1194.948          17.000  
G31  21790500.550   114509913.222         325.235          20.000  
G32  21805541.438   114588884.941        -172.345          35.000  
J01  38034063.865   199870455.124        -241.677          22.000  
R12  19091399.799   101982830.397       -1927.409          30.000  
> 2021  9 12 10 33 40.9994468  0  9
C06  36696144.388   191086480.353       -1459.705          26.000  
C13  36973719.527   192531805.5871      -2890.991          20.000  
C25  21809457.327   113567597.009       -1591.230          28.000  
C33  22253437.666   115879427.285       -1668.137          25.000  
G10  20150162.433   105889824.877       -1300.759          36.000    20150164.831    79073593.575        -970.027          28.000  
G31  21790134.504   114508013.353         324.179          24.000  
G32  21805272.524   114587481.080        -170.837          32.000  
J01  38033807.543   199869119.704        -239.891          23.000  
R12  19091457.959   101983140.783       -1928.628          30.000  
> 2021  9 12 10 33 41.9994460  0  6
C06  36696185.459   191086690.743       -1459.204          29.000  
C25  21809522.082   113567939.083       -1590.232          22.000  
G10  20150169.928   105889865.526       -1300.442          36.000    20150172.926    79073623.409        -971.616          28.000  
G31  21789833.212   114506428.838         324.332          25.000  
G32  21805059.971   114586392.927        -171.919          27.000  
R12  19091575.477   101983768.815       -1929.929          33.000  
> 2021  9 12 10 33 42.9994452  0  9
C06  36696225.931   191086900.917       -1458.387          30.000  
C13  36974358.384   192535092.8031      -2891.620          19.000  
C23  23902436.188   124466320.8161        930.643          19.000  
C25  21809586.537   113568281.545       -1592.094          18.000  
G10  20150178.921   105889906.547       -1300.922          37.000    20150180.720    79073653.915        -971.829          27.000  
G31  21789528.923   114504844.291         323.918          23.000  
G32  21804851.615   114585304.205        -171.187          28.000    21804867.504    85566969.8861       -128.093          32.000  
J01  38033419.911   199867081.1271       -240.739          24.000  
R12  19091698.692   101984427.129       -1929.785          33.000  
> 2021  9 12 10 33 43.9994442  0  9
C06  36696206.445   191086797.795       -1457.696          28.000  
C13  36974615.906   192536422.886       -2891.706          19.000  
C25  21809590.735   113568312.595       -1592.297          25.000  
C33  22253620.539   115880366.1521      -1667.619          19.000  
G10  20150127.357   105889633.049       -1303.168          37.000    20150128.256    79073450.073        -973.222          29.000  
G31  21789170.071   114502944.992         323.501          24.000  
G32  21804585.699   114583899.640        -170.745          33.000    21804600.689                        -129.401          32.000  
J01  38033166.587   199865746.138        -240.550          26.000  
R12  19091762.248   101984766.631       -1930.671          31.000  
> 2021  9 12 10 33 44.9994432  0  8
C06  36696187.258   191086693.341       -1455.988          28.000  
C25  21809597.330   113568344.194       -1592.890          21.000  
C33  22253640.625   115880471.858       -1666.631          20.000  
G10  20150074.594   105889360.127       -1302.791          38.000    20150075.793    79073245.643        -971.538          30.000  
G23  21221086.448   111517620.7231      -3679.262          23.000  
G31  21788815.717   114501045.758         323.838          22.000  
G32  21804320.383   114582494.913        -170.775          31.000    21804332.974    85564887.3501       -127.997          33.000  
J01  38032916.260   199864410.430        -239.755          26.000  
> 2021  9 12 10 33 45.9994427  0  9
C06  36696316.769   191087370.009       -1457.749          27.000  
C33  22253812.106   115881358.579       -1667.239          21.000  
G10  20150172.926   105889875.348       -1303.493          38.000    20150174.125    79073629.503        -973.765          30.000  
G23  21221640.764   111520512.266       -3679.610          26.000  
G25  20785142.046   109226677.8521      -1203.421          17.000  
G31  21788607.361   114499934.368         323.319          23.000  
G32  21804200.466   114581878.761        -172.042          30.000    21804215.456    85564426.728        -127.320          33.000  
J01  38032814.031   199863862.821        -240.111          26.000  
R12  19092038.057   101986239.6201      -1931.635          33.000  
> 2021  9 12 10 33 46.9994417  0  6
C06  36696295.783   191087266.101       -1457.488          28.000  
G10  20150119.263   105889603.365       -1303.933          38.000    20150122.560    79073425.526        -972.887          29.000  
G23  21222044.284   111522616.524       -3680.114          27.000  
G32                                                                  21803948.640    85563377.936        -127.757          32.000  
J01  38032559.207   199862527.228        -239.105          26.000  
R12  19092101.014   101986576.016       -1931.985          34.000  
> 2021  9 12 10 33 47.9994406  0  9
C06  36696247.217   191087006.505       -1457.962          28.000  
C23  23900164.361   124454480.2951        934.398          17.000  
C25  21809732.836   113569059.6101      -1593.205          24.000  
G10  20150039.518   105889174.430       -1304.488          38.000    20150041.017    79073104.382        -973.468          30.000  
G23  21222416.627   111524563.888       -3680.640          25.000  
G31  21787849.785   114495979.3771        322.945          23.000  
G32                                                                  21803651.546    85562211.273        -125.803          32.000  
J01  38032275.004   199861032.985        -238.540          28.000  
R12  19092132.792   101986745.882       -1933.002          33.000  
> 2021  9 12 10 33 48.9994399  0 10
C06  36696317.668   191087371.458       -1458.216          27.000  
C25  21809829.669   113569560.448       -1593.130          25.000  
C33  22253933.223   115881994.3241      -1669.706          22.000  
G10  20150076.992   105889376.940       -1304.912          38.000    20150079.690    79073255.162        -975.771          30.000  
G23  21222907.387   111527141.897       -3680.920          24.000  
G25  20784964.568   109225876.0301      -1203.318          18.000  
G31  21787576.974   114494554.079         322.878          21.000  
G32  21803462.977   114577981.4881       -172.270          33.000    21803474.369    85561515.756        -128.385          33.000  
J01  38032110.718   199860169.548        -239.900          28.000  
R12  19092287.784   101987573.843       -1934.900          34.000  
> 2021  9 12 10 33 49.9994391  0  8
C06  36696356.941   191087580.808       -1458.228          27.000  
C33  22254012.668   115882415.162       -1670.272          21.000  
G10  20150085.086   105889421.801       -1305.862          38.000    20150088.984    79073289.990        -976.884          30.000  
G23  21223367.269   111529562.214       -3680.526          26.000  
G25  20784951.977   109225820.343       -1207.027          19.000  
G32  21803258.218                        -169.600          33.000    21803266.613    85560702.074        -126.451          33.000  
J01  38031918.850   199859150.502        -241.126          28.000  
R12  19092412.198   101988238.138       -1935.772          35.000  
> 2021  9 12 10 33 50.9994381  0  9
C06  36696335.655   191087476.800       -1456.483          25.000  
C33  22254030.955   115882523.432       -1668.851          24.000  
G10  20150035.920   105889152.033       -1306.519          38.000    20150038.019    79073089.882        -976.475          30.000  
G23  21223767.791   111531668.014       -3681.561          26.000  
G25  20784880.327   109225452.724       -1208.458          19.000  
G31  21786913.534   114491074.8881        322.467          23.000  
G32  21802991.103   114575489.8421       -170.590          34.000    21802998.298    85559652.977        -128.676          33.000  
J01  38031667.325   199857815.583        -240.437          28.000  
R12  19092475.754   101988578.360       -1935.911          34.000  
> 2021  9 12 10 33 51.9994373  0  8
C06  36696374.029   191087682.984       -1454.506          28.000  
G10  20150042.816   105889197.969       -1306.158          38.000    20150046.113    79073124.675        -976.515          29.000  
G23  21224230.971   111534088.543       -3680.929          26.000  
G25  20784869.234   109225401.251       -1210.584          20.000  
G31  21786614.041   114489492.491         321.612          23.000  
G32  21802782.148   114574399.970        -170.506          31.000    21802791.741    85558839.124        -129.268          33.000  
J01  38031475.158   199856794.908        -239.197          28.000  
R12  19092601.067   101989247.257       -1936.522          35.000  
> 2021  9 12 10 33 52.9994363  0  9
C06  36696353.343   191087577.251       -1456.368          28.000  
C33  22254128.987   115883051.5591      -1671.363          23.000  
G10  20149992.151   105888929.507       -1307.371          38.000    20149994.249    79072924.046        -975.162          30.000  
G23  21224629.695   111536194.754       -3682.010          27.000  
G25  20784797.884   109225037.213       -1212.831          20.000  
G31  21786253.690   114487595.687         321.151          23.000  
G32                                                                  21802524.027    85557790.059        -126.980          32.000  
J01  38031222.433   199855458.545        -239.243          28.000  
R12  19092667.321   101989601.486       -1937.268          34.000  
> 2021  9 12 10 33 53.9994355  0  8
C06  36696393.515   191087784.405       -1455.858          28.000  
C33  22254209.631   115883474.896       -1673.120          22.000  
G10  20150002.044   105888976.593       -1308.075          38.000    20150002.643    79072957.882        -974.523          27.000  
G23  21225090.176   111538616.589       -3682.728          26.000  
G31  21785952.699   114486014.163         321.254          22.000  
G32  21802310.874   114571905.2671       -170.823          32.000    21802316.271    85556976.110        -125.442          32.000  
J01  38031026.368   199854437.755        -240.139          30.000  
R12  19092789.937   101990256.806       -1938.020          35.000  
> 2021  9 12 10 33 54.9994348  0  8
C06  36696463.967   191088146.278       -1455.047          28.000  
G10  20150044.614   105889181.688       -1308.450          39.000    20150042.216    79073109.496        -976.399          28.000  
G23  21225583.035   111541196.453       -3683.285          25.000  
G25  20784804.479   109225099.2961      -1212.883          20.000  
G31  21785680.187   114484590.389         321.608          23.000  
G32  21802133.097   114570972.758        -171.142          32.000    21802138.793    85556279.674        -126.548          32.000  
J01  38030861.183   199853573.845        -238.683          28.000  
R12  19092945.829   101991088.950       -1938.684          35.000  
> 2021  9 12 10 33 55.9994337  0  9
C06  36696413.601   191087884.085       -1454.899          29.000  
C33  22254311.860   115884011.5091      -1674.752          22.000  
G10  20149963.670   105888757.218       -1310.420          38.000    20149960.972    79072791.835        -976.934          28.000  
G23  21225956.276   111543145.850       -3681.840          23.000  
G25  20784703.449   109224578.557       -1212.490          21.000  
G31  21785287.759   114482535.803         321.759          24.000  
G32  21801837.502   114569409.914        -170.540          31.000    21801841.999    85555112.723        -126.226          32.000  
J01  38030579.078   199852080.265        -239.439          28.000  
R12  19092977.906   101991260.352       -1939.490          35.000  
> 2021  9 12 10 33 56.9994327  0  9
C06  36696393.216   191087778.075       -1456.049          30.000  
C33  22254333.446   115884126.152       -1675.960          22.000  
G10  20149912.106   105888490.731       -1309.157          38.000    20149910.907    79072592.898        -977.646          28.000  
G23  21226360.696   111545253.667       -3683.422          21.000  
G25  20784633.897   109224215.530       -1212.366          21.000  
G31  21784927.409   114480640.163         319.295          23.000  
G32  21801570.986   114568004.619        -171.265          31.000    21801574.584    85554063.308        -127.840          32.000  
J01  38030324.254   199850743.832        -239.149          28.000  
R12  19093042.662   101991606.630       -1940.185          35.000  
> 2021  9 12 10 33 57.9994322  0  7
C06  36696523.625   191088452.568       -1454.169          29.000  
C33  22254502.528   115885020.177       -1674.859          21.000  
G10  20150009.838   105889012.507       -1308.864          37.000    20150010.738    79072984.365        -980.877          29.000  
G31  21784719.353   114479533.150         318.779          24.000  
G32  21801453.768   114567387.048        -169.073          34.000    21801457.065    85553602.060        -126.333          32.000  
J01  38030219.927   199850194.540        -238.931          28.000  
R12  19093255.214   101992741.303       -1940.873          35.000  
> 2021  9 12 10 33 58.9994312  0  7
C06  36696503.539   191088344.942       -1452.921          30.000  
C33  22254523.514   115885133.051       -1672.500          24.000  
G10  20149958.274   105888746.874       -1310.979          39.000    20149960.373    79072788.103        -979.418          28.000  
G25  20784647.088   109224276.1841      -1211.821          25.000  
G32  21801183.954   114565981.306        -167.122          32.000    21801189.351    85552552.375        -126.107          32.000  
J01  38029965.403   199848858.044        -238.760          29.000  
R12  19093318.770   101993080.778       -1941.351          35.000  
> 2021  9 12 10 33 59.9994301  0  7
C06  36696452.874   191088081.213       -1453.920          29.000  
C33  22254516.319   115885088.317       -1672.356          21.000  
G10  20149876.431   105888324.356       -1310.606          37.000    20149879.429    79072472.642        -978.026          28.000  
G25  20784549.356   109223756.233       -1214.686          25.000  
G32  21800883.562   114564418.042        -169.641          28.000    21800891.657    85551384.939        -126.913          32.000  
J01  38029679.701   199847363.298        -237.324          27.000  
R12  19093350.848   101993252.893       -1942.582          35.000  
> 2021  9 12 10 34  0.9994294  0  5
C06  36696521.227   191088441.811       -1453.467          30.000  
G10  20149916.903   105888532.566       -1310.311          38.000    20149919.001    79072625.635        -978.488          27.000  
G32  21800703.687   114563484.872        -169.659          30.000    21800715.079    85550688.118        -126.554          32.000  
J01  38029513.616   199846498.329        -238.197          28.000  
R12  19093504.342   101994072.485       -1943.204          35.000  
> 2021  9 12 10 34  1.9994286  0  6
C06  36696561.099   191088646.717       -1454.458          30.000  
C33  22254711.184   115886090.9721      -1670.597          22.000  
G10  20149927.396   105888583.840       -1312.681          38.000    20149928.595    79072663.470        -979.039          28.000  
G32                                                                  21800507.623    85549873.689        -125.850          32.000  
J01  38029318.151   199845475.943        -237.038          26.000  
R12  19093627.856   101994732.526       -1944.238          36.000  
> 2021  9 12 10 34  2.9994276  0  8
C06  36696541.613   191088540.068       -1454.664          30.000  
G10  20149879.129   105888320.517       -1312.368          38.000    20149878.529    79072466.988        -979.755          28.000  
G23  21229031.247   111559324.4951      -3685.359          18.000  
G25  20784503.488   109223461.3011      -1214.962          25.000  
G31  21783035.119   114470698.2961        315.494          17.000  
G32                                                                  21800240.208    85548823.749        -127.626          32.000  
J01  38029064.826   199844136.649        -235.802          26.000  
R12  19093689.914   101995063.482       -1944.742          35.000  
> 2021  9 12 10 34  3.9994268  0  9
C06  36696580.886   191088745.373       -1453.519          29.000  
C16  37342497.527   194452141.0321      -1428.361          24.000  
C33  22254819.409   115886622.7701      -1672.974          25.000  
G10  20149888.123   105888372.790       -1312.670          38.000    20149888.722    79072505.512        -979.180          29.000  
G25  20784496.293   109223415.913       -1215.191          24.000  
G31  21782733.827   114469121.194         317.633          18.000  
G32                                                                  21800032.452    85548009.093        -124.414          32.000  
J01  38028872.060   199843112.567        -236.630          27.000  
R12  19093814.927   101995732.000       -1944.793          35.000  
> 2021  9 12 10 34  4.9994258  0  8
C06  36696559.600   191088638.105       -1454.651          29.000  
C16  37342471.145   194452008.975       -1429.122          25.000  
C33  22254840.395   115886734.850       -1673.438          24.000  
G10  20149836.558   105888110.514       -1313.784          37.000    20149838.057    79072307.784        -979.882          28.000  
G25  20784432.137   109223056.050       -1216.468          25.000  
G32  21799761.139                        -169.648          35.000    21799764.137    85546959.101        -125.692          32.000  
J01  38028618.135   199841773.658        -237.244          28.000  
R12  19093876.984   101996063.565       -1945.489          35.000  
> 2021  9 12 10 34  5.9994250  0  9
C06  36696598.573   191088842.946       -1453.102          29.000  
C16  37342505.921   194452189.386       -1430.114          24.000  
C33  22254924.037   115887160.511       -1676.476          24.000  
G10  20149846.152   105888163.918       -1314.116          37.000    20149848.850    79072347.328        -981.016          29.000  
G23  21230356.930   111566289.4811      -3687.712          19.000  
G25  20784425.542   109223012.466       -1217.275          23.000  
G32  21799555.782   114557426.0231       -169.606          35.000    21799556.081    85546144.341        -127.831          31.000  
J01  38028422.371   199840750.109        -236.909          28.000  
R12  19094000.499   101996723.068       -1946.246          36.000  
> 2021  9 12 10 34  6.9994243  0  9
C06  36696669.324   191089203.018       -1453.095          29.000  
C16  37342571.875   194452525.835       -1428.995          25.000  
C33  22255039.157   115887744.361       -1677.486          24.000  
G10  20149887.523   105888375.593       -1315.316          37.000    20149889.322    79072505.709        -981.440          28.000  
G23  21230849.489   111568875.028       -3688.552          19.000  
G25  20784447.726   109223126.965       -1217.329          23.000  
G32  21799375.307   114556492.556        -168.792          35.000    21799378.304    85545447.284        -127.090          31.000  
J01  38028256.586   199839884.924        -238.464          27.000  
R12  19094153.093   101997537.638       -1947.327          36.000  
> 2021  9 12 10 34  7.9994232  0 10
C06  36696618.959   191088939.069       -1453.527          29.000  
C16  37342516.714   194452237.881       -1429.220          25.000  
C33  22255032.262   115887704.656       -1678.269          24.000  
G10  20149807.479   105887957.404       -1315.620          38.000    20149809.577    79072193.450        -983.373          28.000  
G23  21231220.032   111570830.593       -3688.541          19.000  
G25  20784350.893   109222611.503       -1218.012          22.000  
G31  21781435.426   114462187.0531        314.060          16.000  
G32  21799080.910   114554928.646        -169.675          34.000    21799081.810    85544279.419        -126.481          32.000  
J01  38027972.083   199838390.472        -238.044          27.000  
R12  19094188.468   101997727.320       -1948.385          36.000  
> 2021  9 12 10 34  8.9994222  0  8
C06  36696599.173   191088830.615       -1452.749          29.000  
C16  37342491.831   194452105.762       -1429.179          24.000  
G10  20149758.612   105887697.289       -1316.922          37.000    20149760.111    79071999.130        -983.080          28.000  
G23  21231625.951   111572943.793       -3689.033          20.000  
G25  20784284.339   109222253.958       -1217.977          23.000  
G32  21798812.296   114553522.203        -168.881          35.000    21798813.795    85543229.246        -124.856          32.000  
J01  38027716.959   199837053.361        -238.560          28.000  
R12  19094257.720   101998097.398       -1949.036          36.000  
> 2021  9 12 10 34  9.9994217  0  9
C06  36696728.683   191089503.703       -1453.900          29.000  
C16  37342617.144   194452753.493       -1428.862          24.000  
C25  21810839.970   113574692.6621      -1601.888          27.000  
C33  22255222.630   115888716.8481      -1676.784          22.000  
G10  20149857.544   105888225.520       -1315.885          37.000    20149861.141    79072393.610        -982.090          28.000  
G23  21232174.272   111575845.478       -3689.377          20.000  
G32  21798695.077   114552903.512        -168.402          37.000    21798695.677    85542767.212        -124.951          32.000  
J01  38027613.531   199836503.495        -237.477          28.000  
R12  19094473.271   101999248.301       -1950.717          36.000  
> 2021  9 12 10 34 10.9994207  0 10
C06  36696709.197   191089395.805       -1452.628          28.000  
C16  37342592.861   194452620.950       -1428.276          25.000  
C25  21810847.764   113574733.361       -1601.774          28.000  
C33  22255244.815   115888832.563       -1676.477          25.000  
G10  20149808.978   105887966.468       -1316.339          37.000    20149811.975    79072200.430        -984.833          29.000  
G23  21232581.390   111577959.540       -3689.975          20.000  
G31  21780525.856   114457316.6771        310.299          14.000  
G32  21798425.864   114551496.898        -168.505          36.000    21798427.363    85541716.805        -127.830          31.000  
J01  38027359.007   199835165.234        -236.999          28.000  
R12  19094539.226   101999600.739       -1949.956          36.000  
> 2021  9 12 10 34 11.9994196  0  8
C06  36696658.232   191089131.003       -1452.190          29.000  
C16  37342537.999   194452332.315       -1427.811          24.000  
C25  21810825.879   113574618.603       -1602.782          28.000  
C33  22255237.620   115888791.751       -1675.980          23.000  
G10  20149730.432   105887550.530       -1316.708          37.000    20149732.830    79071890.204        -983.339          28.000  
G32  21798127.870   114549932.806        -168.887          36.000    21798130.268    85540548.786        -126.111          31.000  
J01  38027073.305   199833669.229        -236.589          28.000  
R12  19094580.297   101999820.342       -1950.405          36.000  
> 2021  9 12 10 34 12.9994189  0  8
C06  36696728.084   191089490.513       -1452.379          30.000  
C16  37342603.953   194452667.440       -1428.371          26.000  
C25  21810924.511   113575129.003       -1603.522          27.000  
C33  22255350.042   115889376.776       -1678.362          22.000  
G10  20149769.105   105887765.328       -1316.983          37.000    20149773.302    79072049.764        -983.159          29.000  
G32  21797950.993   114548998.770        -167.256          36.000    21797952.791    85539851.292        -125.422          32.000  
J01  38026911.117   199832803.330        -236.847          27.000  
R12  19094726.596   102000601.570       -1952.063          36.000  
> 2021  9 12 10 34 13.9994181  0  9
C06  36696767.656   191089693.395       -1451.253          30.000  
C16  37342640.828   194452847.393       -1428.838          26.000  
C25  21810993.164   113575483.989       -1604.598          27.000  
C33  22255432.485   115889806.547       -1678.398          24.000  
G10  20149779.298   105887823.114       -1318.919          36.000    20149784.095    79072092.520        -983.790          29.000  
G23  21233917.565   111584933.3241      -3690.357          19.000  
G25  20784205.794   109221898.4031      -1226.103          18.000  
G32  21797743.836   114547907.097        -168.299          37.000    21797744.735    85539036.050        -125.969          32.000  
J01  38026717.451   199831779.634        -236.808          28.000  
> 2021  9 12 10 34 14.9994171  0 10
C06  36696746.671   191089583.076       -1450.718          29.000  
C16  37342617.444   194452714.590       -1427.091          26.000  
C25  21811001.258   113575527.192       -1604.372          29.000  
C33  22255455.869   115889922.930       -1677.064          25.000  
G10  20149728.933   105887566.187       -1320.213          36.000    20149734.929    79071901.164        -984.867          28.000  
G23  21234322.584   111587048.557       -3690.663          19.000  
G25  20784131.745   109221548.035       -1224.516          17.000  
G32  21797473.723   114546500.165        -168.612          38.000    21797477.620    85537985.460        -124.842          31.000  
J01  38026461.429   199830441.734        -238.137          27.000  
R12  19094916.664   102001616.8361      -1953.803          36.000  
> 2021  9 12 10 34 15.9994163  0 10
C06  36696785.344   191089784.769       -1451.089          28.000  
C16  37342654.019   194452892.737       -1426.882          24.000  
C25  21811067.512   113575882.419       -1603.912          32.000  
C33  22255539.810   115890351.417       -1678.066          26.000  
G10  20149735.528   105887625.094       -1320.154          32.000    20149746.021    79071945.405        -986.822          30.000  
G23  21234785.164   111589479.176       -3691.369          19.000  
G25  20784124.550   109221511.409       -1223.290          17.000  
G32  21797264.168   114545408.469        -168.808          40.000    21797269.264    85537170.191        -125.645          30.000  
J01  38026268.062   199829418.942        -236.855          26.000  
R12  19095043.177   102002293.137       -1953.501          35.000  
> 2021  9 12 10 34 16.9994153  0  9
C06  36696763.759   191089675.027       -1451.478          28.000  
C16  37342627.937   194452759.172       -1427.306          23.000  
C25  21811071.110   113575925.211       -1604.191          34.000  
C33  22255564.393   115890469.017       -1678.759          28.000  
G10  20149686.962   105887369.402       -1321.781          32.000    20149697.455    79071754.933        -986.711          29.000  
G23  21235187.785   111591595.184       -3691.581          24.000  
G32  21796995.854   114544001.502        -169.117          41.000    21797001.250    85536119.538        -125.680          29.000  
J01  38026012.040   199828079.340        -235.354          24.000  
R12  19095105.534   102002625.635       -1954.746          33.000  
> 2021  9 12 10 34 17.9994145  0  9
C06  36696802.432   191089876.961       -1451.376          27.000  
C16  37342662.413   194452935.653       -1426.414          24.000  
C25  21811131.068                       -1604.824          34.000  
C33  22255649.534   115890898.888       -1679.442          28.000  
G10  20149695.656   105887429.208       -1320.886          31.000    20149708.547    79071798.818        -984.636          30.000  
G23  21235653.063   111594026.711       -3692.088          26.000  
G32  21796790.796   114542909.380        -168.664          41.000    21796793.794    85535304.066        -125.083          28.000  
J01  38025815.076   199827053.735        -235.040          23.000  
R12  19095227.549   102003277.157       -1954.605          33.000  
> 2021  9 12 10 34 18.9994138  0 10
C06  36696870.785   191090234.580       -1451.195          28.000  
C16  37342726.868   194453269.287       -1426.012          23.000  
C25  21811229.400   113576794.4691      -1604.581          34.000  
C33  22255763.156   115891486.246       -1680.304          28.000  
G10  20149743.623   105887647.076       -1321.219          32.000    20149749.619    79071960.990        -985.744          30.000  
G23  21236144.423   111596616.337       -3693.136          26.000  
G25  20784088.275   109221241.3231      -1223.039          24.000  
G32  21796613.618   114541974.682        -168.223          42.000    21796617.216    85534606.071        -126.624          29.000  
J01  38025649.291   199826186.113        -235.283          24.000  
R12  19095381.043   102004097.182       -1955.625          33.000  
> 2021  9 12 10 34 19.9994127  0 10
C06  36696818.921   191089968.929       -1452.430          28.000  
C16  37342670.807   194452977.825       -1426.040          22.000  
C25  21811210.513   113576682.354       -1606.261          34.000  
C33  22255756.860   115891450.155       -1681.599          28.000  
G10  20149665.077   105887235.343       -1321.006          34.000    20149671.673    79071653.451        -987.303          30.000  
G23  21236518.264   111598577.272       -3695.439          26.000  
G25  20783996.239   109220731.394       -1223.136          23.000  
G32  21796316.524   114540409.831        -167.007          41.000    21796319.522    85533437.501        -125.571          29.000  
J01  38025364.788   199824690.325        -237.740          23.000  
R12  19095416.119   102004285.094       -1957.195          33.000  
> 2021  9 12 10 34 20.9994117  0 12
C06  36696797.935   191089859.506       -1450.906          28.000  
C16  37342643.826   194452842.526       -1426.063          24.000  
C25  21811218.608   113576726.437       -1604.794          34.000  
C33  22255779.944   115891568.976       -1679.953          27.000  
G10  20149618.609   105886981.468       -1321.770          34.000    20149624.006    79071464.532        -987.333          31.000  
G23  21236925.682   111600697.727       -3695.667          25.000  
G25  20783931.184   109220379.199       -1224.178          24.000  
G31  21777227.839   114440024.5181        307.211          14.000  
G32  21796047.610   114539002.195        -167.838          41.000    21796051.508    85532386.307        -125.610          29.000  
J01  38025107.866   199823352.162        -236.930          24.000  
R02  20928915.014   111680700.5851       1245.270          26.000  
R12  19095482.073   102004636.891       -1957.493          33.000  
> 2021  9 12 10 34 21.9994112  0 11
C06  36696926.846   191090529.224       -1449.799          28.000  
C16  37342769.139   194453487.597       -1425.328          24.000  
C25  21811377.198   113577551.358       -1605.012          34.000  
C33  22255951.425   115892467.743       -1679.231          26.000  
G10  20149717.241   105887515.818       -1322.015          32.000    20149725.935    79071863.944        -988.386          30.000  
G23  21237482.097   111603605.536       -3694.259          24.000  
G25  20784016.625   109220815.607       -1225.192          23.000  
G32  21795928.892   114538382.096        -167.406          41.000    21795934.289    85531923.329        -125.416          29.000  
J01  38025002.638   199822801.038        -235.261          25.000  
R02  20928532.778   111678655.172        1245.695          24.000  
R12  19095701.221   102005807.632       -1957.808          33.000  
> 2021  9 12 10 34 22.9994102  0 11
C06  36696905.261   191090417.938       -1449.815          29.000  
C16  37342742.757   194453351.906       -1425.791          22.000  
C25  21811385.892   113577596.008       -1606.906          34.000  
C33  22255973.010   115892585.906       -1678.924          25.000  
G10  20149668.974   105887262.974       -1324.584          29.000    20149677.668    79071675.354        -987.222          30.000  
G23  21237888.316   111605725.114       -3696.019          23.000  
G25  20783953.069   109220465.971       -1226.578          23.000  
G31  21776654.036   114437042.6151        313.376          16.000  
G32  21795661.478   114536974.126        -167.255          41.000    21795667.473    85530871.870        -125.837          29.000  
R02  20927988.355   111675809.321        1245.256          23.000  
R12  19095769.574   102006173.151       -1958.305          33.000  
> 2021  9 12 10 34 23.9994092  0 12
C06  36696883.076   191090306.489       -1449.851          28.000  
C16  37342716.975   194453215.926       -1425.477          23.000  
C25  21811394.286   113577641.114       -1606.657          34.000  
C33  22255996.994   115892703.493       -1679.633          27.000  
G10  20149616.511   105887010.984       -1325.110          28.000    20149629.402    79071486.606        -988.195          30.000  
G23  21238298.432   111607844.261       -3692.706          20.000  
G25  20783883.817   109220116.401       -1226.030          23.000  
G31  21776293.985   114435151.939         315.528          17.000  
G32  21795394.063   114535566.157        -167.576          41.000    21795399.459    85529820.580        -120.878          29.000  
J01  38024488.195   199820119.6481       -232.445          20.000  
R02  20927458.322   111672963.945        1245.812          23.000  
R12  19095834.929   102006522.294       -1958.973          33.000  
> 2021  9 12 10 34 24.9994084  0 11
C06  36696920.251   191090506.688       -1448.829          27.000  
C16  37342749.952   194453392.001       -1424.686          23.000  
C25  21811463.838   113577998.824       -1606.826          34.000  
C33  22256080.036   115893134.383       -1680.828          27.000  
G10  20149627.003   105887074.003       -1324.232          27.000    20149641.394    79071533.667        -988.967          29.000  
G25  20783876.622   109220083.141       -1226.802          25.000  
G31  21775994.193   114433575.702         316.133          19.000  
G32  21795186.306   114534473.282        -166.652          41.000    21795190.504    85529004.323        -125.671          27.000  
J01  38024293.329   199819091.348        -232.517          23.000  
R02  20926986.149   111670438.879        1244.143          25.000  
R12  19095964.739   102007215.566       -1960.587          32.000  
> 2021  9 12 10 34 25.9994076  0 10
C06  36696958.324   191090706.993       -1449.327          26.000  
C16  37342781.430   194453564.992       -1422.794          24.000  
C25  21811532.790   113578356.904       -1606.977          35.000  
C33  22256162.479   115893565.742       -1680.061          26.000  
G10  20149638.695   105887138.482       -1324.968          28.000    20149652.786    79071580.726        -987.291          29.000  
G25  20783870.026   109220049.198       -1226.331          25.000  
G32  21794980.649   114533380.305        -168.188          41.000    21794982.148    85528189.360        -126.146          27.000  
J01  38024097.265   199818063.509        -232.803          23.000  
R02  20926512.777   111667914.703        1244.219          27.000  
R12  19096096.048   102007917.107       -1961.210          33.000  
> 2021  9 12 10 34 26.9994066  0 10
C06  36696936.440   191090593.916       -1447.922          27.000  
C25  21811540.884   113578403.010       -1606.619          35.000  
C33  22256185.264   115893684.240       -1679.985          26.000  
G10  20149591.928   105886888.781       -1325.899          29.000    20149605.119    79071392.243        -989.178          29.000  
G25  20783803.472   109219699.537       -1227.634          24.000  
G31  21775324.457   114430109.4861        314.686          20.000  
G32  21794711.435   114531972.077        -166.721          42.000    21794713.534    85527137.772        -125.378          27.000  
J01  38023842.741   199816721.893        -235.190          23.000  
R02  20925976.748   111665069.850        1244.612          24.000  
R12  19096167.099   102008296.966       -1961.776          32.000  
> 2021  9 12 10 34 27.9994058  0 12
C06  36696973.614   191090793.353       -1448.217          27.000  
C13  36987519.873   192603689.6941      -2892.705          27.000  
C16  37342790.724   194453602.3121      -1424.428          22.000  
C25  21811612.235   113578761.823       -1609.508          34.000  
C33  22256267.107   115894115.545       -1680.253          26.000  
G10  20149603.620   105886954.188       -1326.112          25.000    20149617.410    79071439.889        -988.939          28.000  
G23  21240101.384   111617256.3141      -3692.624          16.000  
G25  20783797.776   109219667.683       -1229.374          24.000  
G32  21794503.979   114530878.977        -167.583          40.000    21794505.478    85526323.040        -126.975          28.000  
J01  38023648.476   199815697.601        -237.103          22.000  
R02  20925503.975   111662545.259        1244.343          24.000  
R12  19096296.309   102008986.694       -1962.247          32.000  
> 2021  9 12 10 34 28.9994048  0 11
C06  36696950.830   191090680.065       -1448.463          27.000  
C13  36987777.694   192605020.976       -2892.744          26.000  
C16  37342763.443   194453466.838       -1425.940          22.000  
C25  21811621.229   113578808.678       -1607.692          35.000  
C33  22256287.793   115894235.199       -1681.251          26.000  
G10  20149556.252   105886704.772       -1325.782          27.000    20149570.043    79071252.572        -989.585          29.000  
G25  20783732.721   109219322.343       -1230.657          25.000  
G31  21774661.915   114426648.2971        309.923          21.000  
G32  21794233.866   114529470.627        -166.861          41.000    21794237.763    85525273.168        -126.302          27.000  
R02  20924973.342   111659701.680        1242.574          25.000  
R12  19096362.863   102009342.657       -1962.808          32.000  
> 2021  9 12 10 34 29.9994040  0 12
C06  36696990.702   191090880.655       -1449.854          28.000  
C13  36988094.275   192606665.735       -2894.869          25.000  
C16  37342796.120   194453644.004       -1426.370          20.000  
C25  21811688.982   113579168.060       -1608.989          35.000  
C33  22256371.135   115894668.529       -1681.819          25.000  
G10  20149569.743   105886770.218       -1326.957          28.000    20149582.334    79071301.106        -988.678          28.000  
G25  20783727.025   109219293.338       -1231.546          26.000  
G31  21774363.322   114425078.128         308.822          24.000  
G32  21794026.709   114528377.212        -166.553          41.000    21794029.707    85524456.999        -124.642          27.000  
J01  38023201.485   199813335.2851       -235.082          22.000  
R02  20924501.169   111657179.118        1242.543          23.000  
R12  19096491.774   102010030.371       -1962.973          31.000  
> 2021  9 12 10 34 30.9994033  0  9
C06  36697057.855   191091236.203       -1447.512          26.000  
C13  36988439.036   192608467.391       -2893.669          26.000  
C25  21811790.612   113579683.741       -1605.002          35.000  
C33  22256485.056   115895257.261       -1681.866          25.000  
G10                                                                  20149624.305    79071467.600        -988.391          27.000  
G31  21774095.307   114423667.079         308.226          26.000  
G32  21793848.333   114527440.985        -167.299          39.000    21793850.431    85523757.650        -123.817          26.000  
J01  38023037.499   199812466.558        -232.486          19.000  
R12  19096649.165   102010871.810       -1964.154          29.000  
> 2021  9 12 10 34 31.9994022  0  9
C06  36697004.792   191090966.101       -1447.220          23.000  
C25  21811771.725   113579575.923       -1609.170          28.000  
C33  22256480.559   115895222.346       -1682.878          33.000  
G10                                                                  20149547.259    79071163.203        -992.684          26.000  
G31  21773705.877   114421625.684         308.170          26.000  
G32  21793554.236   114525875.306        -164.883          39.000    21793551.238    85522587.037        -122.963          18.000  
J01  38022752.096   199810965.264        -232.772          24.000  
R02  20923488.171   111651811.0681       1243.820          24.000  
R12  19096687.239   102011074.579       -1964.568          30.000  
> 2021  9 12 10 34 32.9994012  0 14
C06  36696982.608   191090852.136       -1447.181          23.000  
C13  36988914.507   192610975.4091      -2894.106          18.000  
C16  37342773.636   194453552.1711      -1426.788          15.000  
C25  21811780.119   113579624.442       -1610.823          30.000  
C33  22256506.341   115895344.075       -1682.534          32.000  
G10                                                                  20149500.491    79070979.947        -994.329          25.000  
G12  22456867.534   118011634.4651      -2948.908          20.000  
G23  21242223.315   111628455.5491      -3695.176          16.000  
G25  20783589.720   109218580.7211      -1233.224          18.000  
G31  21773346.126   114419742.186         308.185          26.000  
G32  21793287.721   114524466.670        -167.051          37.000    21793282.325    85521531.242        -122.199          16.000  
J01  38022496.673   199809623.097        -234.199          25.000  
R02  20922951.542   111648967.139        1243.461          23.000  
R12  19096760.388   102011465.455       -1965.411          30.000  
> 2021  9 12 10 34 33.9994007  0 13
C06  36697112.118   191091518.787       -1446.573          26.000  
C08  37907450.718   197394137.4671      -3120.522          21.000  
C13  36989321.026   192613088.354       -2891.846          18.000  
C16  37342896.251   194454194.935       -1422.171          15.000  
C25  21811939.009   113580452.859       -1611.357          30.000  
C33  22256679.322   115896246.477       -1683.150          31.000  
G10  20149616.511   105886882.7811      -1328.716          31.000    20149603.620    79071385.889        -994.513          26.000  
G12  22457272.854   118013795.315       -2948.723          20.000  
G25  20783672.463   109219026.089       -1233.973          19.000  
G31  21773132.974   114418645.959         310.272          26.000  
G32  21793168.403   114523845.724        -166.166          38.000    21793163.007    85521065.733        -122.946          18.000  
J01  38022394.444   199809069.928        -235.069          26.000  
R12  19096979.836   102012637.681       -1966.593          25.000  
> 2021  9 12 10 34 34.9993997  0 12
C06  36697090.233   191091403.906       -1446.784          26.000  
C08  37907748.412   197395696.837       -3120.660          25.000  
C25  21811947.403   113580502.497       -1610.460          25.000  
C33  22256702.106   115896368.449       -1683.271          31.000  
G10  20149566.146   105886636.362       -1328.953          30.000    20149557.452    79071203.848        -994.717          24.000  
G12  22457539.969   118015168.440       -2947.722          21.000  
G23  21243173.657   111633487.3621      -3699.502          19.000  
G25  20783604.410   109218684.363       -1233.594          20.000  
G31  21772773.523   114416760.736         309.261          28.000  
G32  21792898.890   114522436.645        -166.015          38.000    21792893.494    85520011.803        -122.229          25.000  
J01  38022140.220   199807729.921        -235.938          25.000  
R12  19097047.589   102012999.490       -1968.325          29.000  
> 2021  9 12 10 34 35.9993989  0 12
C06  36697129.806   191091601.947       -1447.153          27.000  
C08  37908106.364   197397567.999       -3119.671          26.000  
C25  21812014.557   113580863.384       -1609.623          24.000  
C33  22256786.048   115896802.155       -1682.694          29.000  
G10  20149576.938                       -1326.731          31.000    20149570.643    79071256.299        -993.728          28.000  
G12  22457858.348   118016855.694       -2947.641          21.000  
G23  21243636.836   111635926.256       -3695.732          19.000  
G25  20783600.213   109218657.659       -1234.113          20.000  
G31  21772475.529   114415191.673         308.083          28.000  
G32  21792692.033   114521342.734        -166.376          38.000    21792686.337    85519194.422        -124.590          26.000  
J01  38021946.854   199806705.484        -235.346          27.000  
R12  19097175.001   102013680.561       -1967.719          29.000  
> 2021  9 12 10 34 36.9993979  0 10
C06  36697108.820   191091488.077       -1447.723          27.000  
C08  37908405.257   197399127.868       -3123.407          24.000  
C16  37342872.267   194454097.5261      -1422.628          16.000  
C25  21812023.251   113580911.734       -1609.520          26.000  
C33  22256809.132   115896924.216       -1684.379          28.000  
G10  20149531.969                       -1331.202          29.000    20149523.275    79071075.105        -996.902          26.000  
G31  21772116.078   114413308.847         306.699          24.000  
G32  21792426.117   114519934.303        -166.569          35.000    21792417.124    85518141.283        -122.392          24.000  
J01  38021692.330   199805364.737        -234.132          28.000  
R12  19097241.855   102014037.623       -1968.622          28.000  
> 2021  9 12 10 34 37.9993971  0  8
C06  36697147.493   191091686.721       -1446.658          28.000  
C13  36990458.438   192619025.0951      -2891.103          18.000  
C25  21812091.903   113581272.757       -1610.558          30.000  
C33  22256892.174   115897359.024       -1683.862          29.000  
G10  20149544.860   105886566.3391      -1332.236          32.000    20149535.267    79071131.095        -996.269          22.000  
G25  20783533.659   109218291.8381      -1235.312          22.000  
G32  21792218.661   114518840.477        -164.738          33.000    21792207.569    85517323.037        -124.345          22.000  
J01  38021495.966   199804338.568        -233.102          28.000  
> 2021  9 12 10 34 38.9993964  0  8
C06  36697216.446   191092040.739       -1446.903          26.000  
C16  37342966.702   194454601.7651      -1422.166          17.000  
C25  21812191.134   113581790.536       -1611.637          32.000  
C33  22257006.095   115897950.260       -1683.555          29.000  
G10  20149588.630   105886794.691       -1331.458          35.000    20149578.437    79071302.969        -994.534          24.000  
G23  21244975.709   111643087.1331      -3701.100          18.000  
G32  21792034.588   114517903.895        -166.808          34.000    21792026.194    85516623.056        -122.369          20.000  
J01  38021329.281   199803468.574        -232.585          29.000  
> 2021  9 12 10 34 39.9993953  0 10
C06  36697165.181   191091770.486       -1447.441          27.000  
C13  36991036.139   192621999.6611      -2892.309          23.000  
C25  21812171.948   113581685.555       -1611.932          32.000  
C33  22256997.701   115897917.205       -1685.084          28.000  
G10  20149510.684   105886393.571       -1332.907          37.000    20149501.690    79071004.108        -994.914          25.000  
G23  21245345.653   111645054.769       -3700.595          19.000  
G25  20783460.510   109217927.9431      -1236.771          21.000  
G32  21791738.693   114516337.165        -167.482          33.000    21791727.001    85515451.863        -124.206          17.000  
J01  38021043.279   199801968.364        -233.264          27.000  
R12  19097565.331   102015765.8831      -1970.270          19.000  
> 2021  9 12 10 34 40.9993943  0  9
C06  36697144.795   191091656.350       -1446.960          28.000  
C13  36991291.862   192623329.877       -2891.603          24.000  
C25  21812184.239                       -1612.931          33.000  
C33  22257020.785   115898041.542       -1685.593          29.000  
G10  20149460.019   105886150.613       -1332.891          36.000    20149454.323    79070822.203        -994.442          26.000  
G23  21245745.277   111647180.353       -3701.080          20.000  
G31  21770791.595   114406413.3301        305.046          19.000  
G32  21791469.779   114514927.985        -165.324          33.000    21791457.788    85514401.242        -127.988          16.000  
R12  19097636.681   102016146.777       -1971.829          20.000  
> 2021  9 12 10 34 41.9993938  0 10
C06  36697273.406   191092322.823       -1447.030          28.000  
C13  36991698.980   192625442.225       -2893.311          24.000  
C25  21812345.228   113582599.2091      -1612.867          32.000  
C33  22257194.365   115898946.225       -1685.521          29.000  
G10  20149566.146   105886696.012       -1334.336          35.000    20149558.951    79071229.225        -995.293          26.000  
G23  21246296.895   111650093.633       -3700.731          20.000  
G25  20783487.191   109218039.8241      -1239.159          20.000  
G32  21791355.558   114514306.522        -165.689          34.000    21791339.669    85513938.302        -124.146          16.000  
J01  38020681.130   199800071.8891       -234.328          27.000  
R12  19097850.133   102017286.657       -1971.688          20.000  
> 2021  9 12 10 34 42.9993928  0 10
C06  36697251.521   191092207.635       -1446.209          28.000  
C13  36991953.803   192626774.538       -2894.260          21.000  
C16  37342982.891   194454661.2021      -1418.341          21.000  
C25  21812354.521   113582651.272       -1612.555          32.000  
C33  22257219.248   115899071.452       -1686.364          28.000  
G10  20149518.179   105886454.277       -1333.977          35.000    20149512.483    79071047.807        -995.926          26.000  
G31  21770225.886   114403439.8721        304.472          21.000  
G32  21791087.844   114512897.276        -164.849          34.000    21791071.355    85512885.941        -124.232          16.000  
J01  38020425.407   199798731.273        -235.161          28.000  
R12  19097921.484   102017667.630       -1971.280          20.000  
> 2021  9 12 10 34 43.9993917  0 11
C06  36697199.358   191091936.640       -1446.498          27.000  
C13  36992178.348   192627950.061       -2890.852          23.000  
C25  21812337.433   113582547.662       -1613.809          31.000  
C33  22257212.952   115899041.187       -1687.443          29.000  
G10  20149441.132   105886055.617       -1334.616          35.000    20149436.036    79070749.553        -996.180          25.000  
G23  21247072.758   111654187.5991      -3702.843          20.000  
G31  21769840.653   114401402.346         304.293          25.000  
G32  21790788.951   114511330.493        -164.895          33.000    21790773.362    85511715.447        -123.397          16.000  
J01  38020138.806   199797233.157        -233.769          27.000  
J02  37909623.014   199216412.9551      -2056.918          22.000  
R12  19097963.755   102017893.867       -1972.678          20.000  
> 2021  9 12 10 34 44.9993910  0 11
C06  36697268.909   191092290.495       -1446.856          27.000  
C13  36992523.409   192629748.566       -2892.140          22.000  
C16  37342989.786   194454690.0661      -1419.125          21.000  
C25  21812437.863   113583068.916       -1613.170          31.000  
C33  22257328.072   115899635.583       -1687.559          29.000  
G10  20149486.701   105886287.709       -1335.166          35.000    20149481.005    79070923.100        -997.070          24.000  
G23  21247562.618   111656788.094       -3704.086          19.000  
G31  21769572.638   114399995.747         303.503          22.000  
G32  21790611.773   114510393.934        -165.347          33.000    21790596.184    85511015.027        -123.248          16.000  
J01  38019973.920   199796364.427        -234.082          27.000  
J02  37909803.489   199217366.884       -2058.032          23.000  
> 2021  9 12 10 34 45.9993902  0 10
C06  36697307.283   191092488.197       -1446.965          27.000  
C13  36992839.090   192631392.401       -2894.246          24.000  
C16  37343023.663   194454861.830       -1420.542          21.000  
C25  21812503.218   113583434.419       -1615.196          31.000  
C33  22257412.314   115900073.700       -1686.400          28.000  
G10  20149501.390   105886362.896       -1335.872          35.000    20149495.694    79070977.929        -994.253          27.000  
G31  21769275.244   114398432.008         303.258          25.000  
G32  21790397.722   114509299.747        -166.770          33.000    21790388.128    85510197.705        -124.218          17.000  
J01  38019777.256   199795337.273        -233.267          28.000  
R12  19098246.459   102019403.6101      -1972.854          21.000  
> 2021  9 12 10 34 46.9993892  0 14
C06  36697285.398   191092373.653       -1446.144          28.000  
C08  37911768.629   197416754.6251      -3121.446          14.000  
C13  36993095.113   192632725.765       -2893.943          24.000  
C16  37342997.581   194454721.099       -1420.218          21.000  
C25  21812504.118   113583488.074       -1614.486          31.000  
C33  22257437.796   115900199.558       -1688.254          28.000  
G10                                                                  20149449.526    79070796.544        -996.568          25.000  
G23  21248426.920   111661359.5581      -3703.715          18.000  
G25  20783278.536   109216990.9081      -1240.734          15.000  
G31  21768919.990   114396553.370         303.051          26.000  
G32  21790131.806   114507890.351        -166.686          34.000    21790120.414    85509145.211        -124.020          17.000  
J01  38019523.631   199793994.600        -232.244          29.000  
J02  37910054.415   199218649.6251      -2059.987          23.000  
R12  19098316.011   102019775.317       -1975.089          21.000  
> 2021  9 12 10 34 47.9993884  0 11
C06  36697323.172   191092570.049       -1444.967          28.000  
C08  37912126.881   197418628.380       -3123.641          15.000  
C13  36993409.895   192634370.953       -2893.992          23.000  
C16  37343029.659   194454891.008       -1417.901          21.000  
C25  21812581.464   113583854.364       -1614.962          31.000  
C33  22257523.237   115900638.913       -1688.583          28.000  
G10  20149468.113   105886199.7981      -1338.342          35.000    20149463.916    79070852.024        -997.360          25.000  
G23  21248889.500   111663803.452       -3704.190          19.000  
G31  21768620.797   114394990.283         302.600          26.000  
G32  21789925.249   114506796.183        -166.762          34.000    21789912.358    85508328.162        -124.095          18.000  
J01  38019326.968   199792966.742        -232.394          27.000  
> 2021  9 12 10 34 48.9993874  0  9
C06  36697300.687   191092454.523       -1446.085          28.000  
C08  37912425.474   197420191.799       -3125.014          16.000  
C13  36993665.019   192635704.643       -2894.554          24.000  
C25  21812590.158   113583909.538       -1618.826          31.000  
C33  22257548.420   115900766.798       -1689.679          28.000  
G10  20149420.147   105885962.366       -1338.040          35.000    20149419.547    79070673.351        -998.105          26.000  
G32  21789660.832   114505387.443        -164.194          34.000    21789644.343    85507275.482        -124.193          18.000  
J01  38019069.746   199791624.565        -234.222          26.000  
J02  37910296.048   199219930.1751      -2056.441          22.000  
> 2021  9 12 10 34 49.9993866  0 11
C06  36697339.960   191092651.117       -1445.171          27.000  
C13  36993981.300   192637350.687       -2894.826          22.000  
C25  21812663.307   113584276.924       -1616.707          31.000  
C33  22257632.062   115901207.468       -1689.216          28.000  
G10  20149436.635   105886040.115       -1337.951          33.000    20149434.837    79070731.070        -998.134          25.000  
G25  20783197.891   109216621.0721      -1242.863          14.000  
G31  21767965.751   114391553.8061        299.288          26.000  
G32  21789449.178   114504293.357        -165.293          35.000    21789437.786    85506458.319        -123.937          18.000  
J01  38018874.281   199790598.218        -233.478          28.000  
J02  37910446.544   199220725.838       -2056.072          23.000  
R12  19098652.978   102021575.5181      -1978.725          20.000  
> 2021  9 12 10 34 50.9993859  0 12
C06  36697408.013   191093003.526       -1445.839          28.000  
C13  36994326.661   192639151.525       -2892.635          24.000  
C16  37343098.911   194455248.5181      -1421.885          22.000  
C25  21812762.839   113584800.803       -1617.126          31.000  
C33  22257746.583   115901803.789       -1689.319          28.000  
G10  20149478.906   105886275.960       -1339.754          34.000    20149479.805    79070906.739       -1000.527          24.000  
G23  21250256.554   111670978.9401      -3704.332          21.000  
G31  21767699.235   114390151.306         299.295          27.000  
G32  21789274.399   114503356.768        -164.216          34.000    21789258.810    85505758.215        -123.723          18.000  
J01  38018710.894   199789729.424        -234.678          28.000  
J02  37910624.321   199221679.408       -2057.095          22.000  
R12  19098808.570   102022407.025       -1980.962          23.000  
> 2021  9 12 10 34 51.9993848  0 11
C06  36697356.749   191092731.850       -1445.813          27.000  
C13  36994551.205   192640327.264       -2893.549          24.000  
C16  37343041.650   194454952.243       -1420.995          21.000  
C25  21812744.551   113584700.626       -1616.508          31.000  
C33  22257741.486   115901775.903       -1689.368          28.000  
G10  20149404.557   105885882.258       -1338.573          34.000    20149405.157    79070612.654       -1000.674          26.000  
G31  21767314.302   114388118.763         299.680          27.000  
G32  21788973.108   114501790.020        -166.485          35.000    21788960.816    85504587.691        -123.873          18.000  
J01  38018424.592   199788230.937        -234.564          28.000  
J02  37910681.281   199222003.614       -2057.393          21.000  
R12  19098849.941   102022627.542       -1981.686          23.000  
> 2021  9 12 10 34 52.9993838  0 10
C06  36697334.264   191092616.615       -1446.087          28.000  
C13  36994806.329   192641658.818       -2892.679          22.000  
C16  37343015.568   194454811.557       -1420.433          21.000  
C25  21812759.241   113584756.983       -1617.250          31.000  
C33  22257767.868   115901903.806       -1690.176          29.000  
G10  20149358.989   105885646.776       -1340.703          35.000    20149360.788    79070437.782       -1001.124          24.000  
G31  21766956.949   114386243.175         300.304          28.000  
G32  21788703.894   114500380.862        -165.203          35.000    21788694.001    85503535.225        -124.485          17.000  
J02  37910770.620   199222486.899       -2060.813          23.000  
R12  19098918.894   102022995.926       -1982.365          25.000  
> 2021  9 12 10 34 53.9993833  0 10
C06  36697461.676   191093282.284       -1446.805          28.000  
C16  37343136.684   194455451.501       -1420.584          21.000  
C25  21812917.232   113585594.323       -1618.328          30.000  
C33  22257945.345   115902813.560       -1690.311          29.000  
G10  20149465.116   105886199.545       -1339.160          34.000    20149465.715    79070850.846       -1001.241          26.000  
G31  21766749.793   114385154.717         301.042          28.000  
G32  21788585.176   114499759.311        -166.988          36.000    21788576.482    85503071.920        -124.654          19.000  
J01  38018062.143   199786336.2311       -234.299          27.000  
J02  37911013.152   199223758.968       -2058.932          23.000  
R12  19099137.142   102024162.384       -1982.486          25.000  
> 2021  9 12 10 34 54.9993823  0 10
C06  36697438.592   191093168.013       -1446.690          27.000  
C16  37343110.003   194455311.087       -1420.413          22.000  
C25  21812925.626   113585651.550       -1618.850          30.000  
C33  22257970.827   115902942.884       -1690.560          29.000  
G10  20149423.444   105885965.168       -1343.052          34.000    20149419.547    79070674.274       -1000.011          25.000  
G31  21766392.140   114383279.608         298.691          28.000  
G32  21788318.061   114498350.115        -164.514          34.000  
J01  38017807.919   199784995.359        -233.935          27.000  
J02  37911104.289   199224242.571       -2059.709          24.000  
R12  19099206.395   102024531.645       -1983.245          26.000  
> 2021  9 12 10 34 55.9993812  0 13
C06  36697385.229   191092897.040       -1445.831          27.000  
C13  36995697.611   192646276.0541      -2894.275          25.000  
C16  37343051.543   194455013.554       -1419.403          23.000  
C25  21812904.940   113585552.751       -1619.554          31.000  
C33  22257965.731   115902916.136       -1690.547          28.000  
G10  20149351.494   105885573.662       -1342.349          33.000    20149345.498    79070379.599        -997.391          26.000  
G23  21252383.881   111682102.8291      -3704.902          23.000  
G25  20783001.228   109215607.6441      -1251.481          17.000  
G31  21766007.806   114381248.326         298.769          29.000  
G32  21788015.271   114496782.965        -164.156          35.000  
J01  38017521.617   199783495.533        -232.211          26.000  
J02  37911165.746   199224568.941       -2058.959          22.000  
R12  19099250.464   102024767.108       -1983.696          24.000  
> 2021  9 12 10 34 56.9993805  0 12
C06  36697452.382   191093249.701       -1445.532          27.000  
C13  36996042.073   192648076.382       -2892.650          25.000  
C16  37343114.500   194455340.644       -1421.107          22.000  
C25  21813006.870   113586078.584       -1618.227          31.000  
C33  22258081.451   115903513.871       -1690.757          28.000  
G10  20149386.870   105885812.639       -1342.933          33.000    20149391.367    79070556.501       -1003.067          26.000  
G23  21252880.037   111684706.267       -3707.337          24.000  
G31  21765740.991   114379846.385         299.573          29.000  
G32  21787835.395   114495845.787        -166.782          35.000  
J01  38017354.333   199782625.268        -233.081          26.000  
J02  37911345.622   199225524.342       -2058.482          22.000  
R12  19099423.744   102025693.110       -1984.264          24.000  
> 2021  9 12 10 34 57.9993797  0 12
C06  36697489.557   191093446.287       -1445.622          27.000  
C13  36996357.754   192649719.824       -2893.017          24.000  
C25  21813080.319   113586448.786       -1618.307          30.000  
C33  22258164.493   115903955.334       -1690.684          26.000  
G10  20149405.757   105885894.768       -1342.067          34.000    20149407.855    79070617.924       -1002.158          25.000  
G23  21253348.913   111687153.082       -3706.724          25.000  
G25  20783025.811   109215747.2841      -1252.474          18.000  
G31  21765444.197   114378286.015         299.981          30.000  
G32  21787629.438   114494751.119        -165.273          35.000  
J01  38017160.068   199781597.818        -232.935          26.000  
J02  37911497.916   199226322.283       -2058.547          25.000  
R12  19099561.649   102026429.134       -1984.512          24.000  
> 2021  9 12 10 34 58.9993787  0 11
C06  36697467.072   191093329.046       -1443.269          27.000  
C13  36996613.178   192651052.387       -2893.768          25.000  
C25  21813089.013   113586507.008       -1618.082          31.000  
C33  22258188.177   115904085.187       -1690.974          26.000  
G10  20149362.886   105885662.240       -1343.712          35.000    20149364.685    79070445.195       -1004.730          26.000  
G23  21253760.828   111689285.021       -3707.855          26.000  
G31  21765090.441   114376411.113         298.510          29.000  
G32  21787359.625   114493341.182        -165.076          37.000  
J01  38016905.844   199780254.663        -231.440          27.000  
J02  37911587.854   199226804.159       -2057.460          22.000  
R12  19099638.395   102026839.687       -1986.055          24.000  
> 2021  9 12 10 34 59.9993779  0 11
C06  36697502.747   191093523.138       -1442.275          27.000  
C13  36996927.660   192652696.652       -2893.841          24.000  
C25  21813159.164   113586877.819       -1620.615          31.000  
C33  22258271.519   115904528.092       -1691.356          26.000  
G10  20149380.874   105885745.344       -1344.518          35.000    20149379.975    79070506.635       -1002.384          26.000  
G23  21254232.101   111691732.985       -3708.614          25.000  
G31  21764795.446   114374852.591         297.547          30.000  
G32  21787152.768   114492246.175        -166.979          36.000  
J01  38016708.880   199779224.689        -231.110          25.000  
J02  37911738.949   199227600.970       -2056.012          23.000  
R12  19099776.300   102027576.506       -1988.484          23.000  
> 2021  9 12 10 35  0.9993769  0 10
C06  36697479.963   191093403.689       -1441.496          27.000  
C13  36997182.484   192654028.735       -2893.345          25.000  
C25  21813169.657   113586936.603       -1620.775          31.000  
C33  22258294.903   115904658.124       -1691.887          25.000  
G10  20149333.507   105885513.695       -1345.836          34.000    20149335.006    79070332.544       -1002.572          27.000  
G23  21254641.318   111693866.014       -3707.944          26.000  
G31  21764440.491   114372979.030         298.410          31.000  
G32  21786880.257   114490835.987        -164.672          35.000  
J01  38016452.558   199777880.639        -231.733          26.000  
J02  37911829.187   199228079.780       -2053.423          23.000  
> 2021  9 12 10 35  1.9993761  0 11
C06  36697515.938   191093597.093       -1443.086          28.000  
C13  36997497.865   192655672.249       -2892.186          26.000  
C25  21813244.305   113587308.008       -1620.891          30.000  
C33  22258379.145   115905101.305       -1693.555          26.000  
G10  20149349.396   105885597.792       -1344.084          34.000    20149351.494    79070394.564       -1005.122          26.000  
G23  21255108.395   111696313.787       -3708.878          27.000  
G31  21764145.496   114371420.063         298.426          31.000  
G32  21786673.100   114489740.788        -164.901          36.000  
J01  38016257.992   199776851.837        -231.533          27.000  
J02  37911978.483   199228873.478       -2055.578          24.000  
R12  19099969.966   102028611.0611      -1987.834          23.000  
> 2021  9 12 10 35  2.9993754  0 12
C06  36697583.991   191093947.404       -1443.579          29.000  
C13  36997844.425   192657472.266       -2893.549          27.000  
C25  21813347.734   113587835.932       -1621.775          31.000  
C33  22258493.066   115905701.173       -1693.023          25.000  
G10  20149394.065   105885839.981       -1343.957          34.000    20149397.063    79070576.459       -1005.931          26.000  
G23  21255605.451   111698920.497       -3709.954          26.000  
G25  20782947.565   109215238.6221      -1250.761          16.000  
G31  21763880.479   114370019.086         297.942          32.000  
G32  21786495.023   114488802.990        -165.268          34.000  
J01  38016091.607   199775980.484        -230.570          28.000  
J02  37912159.858   199229826.955       -2056.744          23.000  
R12  19100127.057   102029449.948       -1987.546          24.000  
> 2021  9 12 10 35  3.9993743  0 12
C06  36697532.127   191093673.385       -1442.437          26.000  
C13  36998070.169   192658648.795       -2894.444          22.000  
C23  23866910.781   124281319.3251        908.118          22.000  
C25  21813332.444   113587739.575       -1621.561          30.000  
C33  22258488.569   115905676.391       -1692.341          25.000  
G10  20149317.917   105885452.488       -1344.535          32.000    20149323.014    79070286.938       -1005.303          26.000  
G23  21255981.390   111700897.810       -3710.577          25.000  
G31  21763499.143   114367989.220         296.605          31.000  
G32  21786195.830   114487234.918        -166.369          34.000  
J01  38015805.905   199774478.435        -231.624          28.000  
J02  37912218.917   199230150.178       -2056.364          23.000  
R12  19100171.127   102029685.051       -1987.516          25.000  
> 2021  9 12 10 35  4.9993733  0 13
C06  36697509.043   191093554.043       -1442.070          26.000  
C13  36998326.791   192659981.569       -2894.224          25.000  
C23  23866434.411   124278850.796         907.415          21.000  
C25  21813342.937   113587799.807       -1621.228          31.000  
C33  22258511.653   115905806.470       -1690.676          25.000  
G10  20149276.546   105885223.027       -1347.962          33.000    20149279.244    79070115.547       -1005.462          26.000  
G23  21256388.209   111703032.431       -3710.128          26.000  
G25  20782796.469   109214431.0241      -1250.550          17.000  
G31  21763143.889   114366117.023         296.860          32.000  
G32  21785926.617   114485824.414        -166.629          35.000  
J01  38015552.880   199773134.561        -231.439          27.000  
J02  37912309.754   199230632.258       -2058.173          23.000  
R12  19100243.676   102030073.129       -1990.647          23.000  
> 2021  9 12 10 35  5.9993728  0 14
C06  36697635.855   191094215.549       -1442.152          27.000  
C13  36998734.509   192662095.018       -2893.629          25.000  
C16  37343253.304   194456088.3281      -1418.374          19.000  
C23  23866107.338   124277162.234         909.005          23.000  
C25  21813505.724   113588640.953       -1622.832          31.000  
C33  22258685.533   115906716.008       -1690.707          24.000  
G10  20149385.671   105885781.926       -1346.028          33.000    20149385.671    79070532.110       -1005.319          26.000  
G23  21256944.623   111705954.948       -3710.520          26.000  
G25  20782882.210   109214894.729       -1252.000          17.000  
G31  21762933.435   114365032.162         298.096          31.000  
G32  21785806.400   114485201.502        -164.362          35.000  
J01  38015448.253   199772577.652        -230.614          27.000  
J02  37912550.787   199231901.480       -2057.363          22.000  
R12  19100461.326   102031235.390       -1991.323          22.000  
> 2021  9 12 10 35  6.9993718  0 13
C06  36697610.073   191094095.739       -1442.278          26.000  
C13  36998992.031   192663427.747       -2893.091          23.000  
C16  37343226.922   194455945.698       -1417.099          21.000  
C23  23865632.167   124274692.991         907.107          20.000  
C25  21813512.919   113588701.798       -1623.612          30.000  
C33  22258709.816   115906847.084       -1693.326          26.000  
G10  20149343.100   105885553.615       -1345.648          33.000    20149342.500    79070361.848       -1005.875          26.000  
G23  21257349.943   111708090.256       -3711.268          24.000  
G31  21762577.281   114363159.174         297.002          30.000  
G32  21785539.585   114483790.707        -163.929          34.000  
J01  38015192.830   199771232.568        -231.000          28.000  
J02  37912643.723   199232383.475       -2056.656          20.000  
R12  19100536.274   102031635.750       -1990.895          26.000  
> 2021  9 12 10 35  7.9993708  0 12
C06  36697586.390   191093976.703       -1441.952          26.000  
C13  36999247.754   192664760.668       -2894.495          23.000  
C23  23865154.297   124272224.149         907.804          22.000  
C25  21813526.410   113588763.067       -1622.147          30.000  
C33  22258736.198   115906979.869       -1695.376          25.000  
G10  20149296.932   105885325.739       -1346.230          32.000    20149299.630    79070190.704       -1005.045          26.000  
G23  21257755.562   111710226.205       -3711.679          25.000  
G31  21762221.128   114361287.179         296.297          32.000  
G32  21785271.570   114482379.883        -164.236          35.000  
J01  38014934.708   199769887.691        -231.026          26.000  
J02  37912732.162   199232863.963       -2055.925          20.000  
R12  19100609.123   102032025.228       -1990.114          26.000  
> 2021  9 12 10 35  8.9993700  0 12
C06  36697622.664   191094169.808       -1442.067          26.000  
C13  36999562.536   192666405.521       -2894.368          24.000  
C23  23864737.286   124270067.485         908.134          23.000  
C25  21813595.362   113589136.729       -1621.676          31.000  
C33  22258821.339   115907425.645       -1694.256          25.000  
G10  20149310.722   105885413.371       -1346.749          32.000    20149317.018    79070255.898       -1008.281          27.000  
G23  21258221.739   111712677.758       -3712.050          24.000  
G31  21761925.832   114359730.868         295.835          32.000  
G32  21785062.015   114481283.894        -164.876          35.000  
J01  38014738.944   199768859.007        -232.348          26.000  
J02  37912885.056   199233660.042       -2057.061          20.000  
R12  19100737.135   102032708.810       -1990.742          24.000  
> 2021  9 12 10 35  9.9993692  0 14
C06  36697661.038   191094362.489       -1441.607          27.000  
C13  36999878.517   192668050.617       -2893.784          25.000  
C16  37343264.096   194456138.8661      -1419.133          20.000  
C23  23864321.774   124267909.443         909.447          23.000  
C25  21813669.111   113589510.832       -1624.025          31.000  
C33  22258907.979   115907871.330       -1695.356          25.000  
G10  20149329.609   105885501.683       -1349.880          32.000    20149333.806    79070322.441       -1008.496          26.000  
G23  21258692.114   111715129.360       -3712.211          24.000  
G25  20782744.006   109214247.5261      -1257.835          16.000  
G31  21761628.738   114358175.215         295.113          33.000  
G32  21784855.159   114480188.020        -164.444          36.000  
J01  38014541.680   199767831.004        -233.488          26.000  
J02  37913038.550   199234456.423       -2056.576          23.000  
R12  19100868.744   102033412.146       -1993.058          25.000  
> 2021  9 12 10 35 10.9993682  0 13
C06  36697638.553   191094242.274       -1441.551          27.000  
C13  37000135.739   192669382.541       -2893.340          23.000  
C16  37343238.014   194455997.547       -1421.027          21.000  
C23  23863846.303   124265439.096         908.387          23.000  
C25  21813681.403   113589573.182       -1626.474          31.000  
C33  22258935.560   115908005.185       -1695.128          24.000  
G10  20149284.641   105885275.629       -1350.388          34.000    20149290.636    79070153.274       -1006.745          26.000  
G23  21259098.332   111717266.588       -3712.899          23.000  
G31  21761277.381                         294.072          31.000  
G32  21784581.148   114478777.122        -163.776          35.000  
J01  38014288.056   199766488.291        -232.360          25.000  
J02  37913132.684   199234937.224       -2056.860          22.000  
R12  19100946.390   102033826.818       -1995.438          25.000  
> 2021  9 12 10 35 11.9993674  0 12
C06  36697676.327   191094435.421       -1441.938          27.000  
C13  37000450.521   192671027.066       -2893.199          25.000  
C23  23863429.591   124263282.123         907.458          22.000  
C25  21813752.154   113589948.262       -1624.071          31.000  
C33  22259024.598   115908451.925       -1696.206          26.000  
G10                                                                  20149307.425    79070219.238       -1006.703          27.000  
G23  21259560.013   111719719.406       -3713.482          24.000  
G25  20782676.852   109213925.8311      -1256.405          16.000  
G31  21760979.687   114354728.9381        293.383          32.000  
G32  21784374.291   114477681.110        -164.304          34.000  
J01  38014092.292   199765459.751        -232.461          24.000  
R12  19101076.800   102034523.299       -1994.502          22.000  
> 2021  9 12 10 35 12.9993664  0 14
C06  36697653.843   191094316.376       -1442.253          26.000  
C13  37000707.143   192672359.680       -2894.150          22.000  
C16  37343241.012   194456027.3561      -1418.318          22.000  
C23  23862955.620   124260814.780         905.170          23.000  
C25  21813764.445   113590011.430       -1623.281          30.000  
C33  22259048.881   115908587.554       -1697.718          25.000  
G10  20149256.460   105885140.3091      -1350.974          31.000    20149265.154    79070050.184       -1007.489          26.000  
G23  21259966.232   111721857.394       -3713.482          22.000  
G25  20782616.894   109213606.818       -1256.416          17.000  
G31  21760619.936   114352859.093         295.173          32.000  
G32  21784112.273   114476269.989        -164.585          35.000  
J01  38013835.669   199764114.894        -229.886          24.000  
J02  37913377.615   199236217.2911      -2058.727          21.000  
R12  19101149.649   102034912.825       -1998.197          25.000  
> 2021  9 12 10 35 13.9993659  0 13
C06  36697781.554   191094978.295       -1442.700          26.000  
C13  37001112.163   192674472.566       -2893.710          24.000  
C23  23862632.743   124259130.932         902.991          22.000  
C25  21813927.232   113590855.402       -1625.884          30.000  
C33  22259222.761   115909504.061       -1697.282          23.000  
G10  20149363.186   105885703.505       -1352.508          30.000    20149372.779    79070470.375       -1009.117          26.000  
G23  21260525.944   111724783.315       -3714.076          21.000  
G25  20782707.131   109214075.316       -1257.264          17.000  
G31  21760410.381   114351777.175         294.530          32.000  
G32  21783991.756   114475646.554        -163.929          34.000  
J01  38013729.543   199763556.870        -229.881          26.000  
J02  37913618.348   199237488.892       -2059.459          20.000  
R12  19101373.594   102036108.918       -1996.531          27.000  
> 2021  9 12 10 35 14.9993649  0 13
C06  36697758.171   191094859.295       -1441.922          27.000  
C13  37001366.387   192675803.510       -2891.894          24.000  
C16  37343330.950   194456516.6891      -1414.028          20.000  
C23  23862159.671   124256666.464         905.451          21.000  
C25  21813935.027   113590919.074       -1626.879          29.000  
C33  22259248.543   115909639.982       -1697.013          24.000  
G10  20149324.213   105885479.526       -1352.682          33.000    20149330.509    79070302.310       -1008.430          26.000  
G23  21260934.561   111726921.949       -3715.026          21.000  
G31  21760052.429   114349907.797         291.249          31.000  
G32  21783724.941   114474235.152        -164.426          34.000  
J01  38013473.520   199762211.299        -229.977          27.000  
J02  37913710.684   199237971.010       -2056.450          22.000  
R12  19101448.542   102036508.632       -1996.901          28.000  
> 2021  9 12 10 35 15.9993638  0 12
C06  36697703.608   191094583.436       -1440.789          27.000  
C13  37001590.332   192676977.540       -2891.093          24.000  
C16  37343276.388   194456212.732       -1412.889          21.000  
C25  21813918.538   113590827.280       -1624.382          30.000  
C33  22259245.545   115909617.824       -1694.574          25.000  
G10  20149258.559   105885098.810       -1351.614          32.000    20149257.959    79070016.683       -1008.795          27.000  
G23  21261310.801   111728904.136       -3715.654          21.000  
G31  21759664.498   114347881.578         291.702          30.000  
G32  21783424.849   114472666.426        -163.840          35.000  
J01  38013187.518   199760708.356        -230.432          26.000  
J02  37913769.743   199238294.713       -2056.494          22.000  
R12  19101493.511   102036748.861       -1997.255          29.000  
> 2021  9 12 10 35 16.9993631  0 13
C06  36697770.162   191094931.528       -1441.839          27.000  
C13  37001934.194   192678775.821       -2892.699          23.000  
C16  37343338.445   194456534.625       -1416.564          23.000  
C23  23861271.086   124252045.3521        907.483          17.000  
C25  21814019.868   113591360.120       -1624.681          30.000  
C33  22259359.766   115910220.153       -1694.862          23.000  
G10  20149304.127   105885348.591       -1351.306          32.000    20149305.626    79070202.944       -1009.849          26.000  
G23  21261812.653   111731516.511       -3714.927          21.000  
G31  21759404.877   114346485.534         297.676          30.000  
G32  21783241.376   114471727.706        -164.655          33.000  
J01  38013020.234   199759835.050        -228.732          26.000  
J02  37913951.717   199239248.474       -2056.768          22.000  
R12  19101661.695   102037647.303       -1998.064          27.000  
> 2021  9 12 10 35 17.9993623  0 11
C06  36697808.536   191095124.312       -1441.327          27.000  
C13  37002249.875   192680421.312       -2895.773          24.000  
C16  37343367.225   194456702.557       -1417.437          20.000  
C25  21814090.619   113591737.197       -1625.567          29.000  
C33  22259445.507   115910666.091       -1696.585          23.000  
G10  20149318.217   105885441.375       -1355.036          31.000    20149323.014    79070271.829       -1009.654          26.000  
G23  21262277.032   111733974.130       -3718.344          18.000  
G31  21759108.683   114344931.792         294.596          27.000  
G32  21783033.020   114470631.180        -166.532          29.000  
J01  38012822.371   199758803.592        -228.369          24.000  
R12  19101797.201   102038371.554       -1999.835          27.000  
> 2021  9 12 10 35 18.9993613  0 10
C06  36697787.550   191095002.617       -1439.998          26.000  
C13  37002507.397   192681756.894       -2898.153          26.000  
C25  21814108.607   113591802.315       -1626.639          28.000  
C33  22259472.788   115910800.437       -1696.309          24.000  
G10  20149281.043   105885219.603       -1353.349          34.000    20149281.043    79070105.754       -1010.578          27.000  
G31  21758753.728   114343062.126         294.067          29.000  
G32  21782763.207   114469219.586        -164.667          33.000  
J01  38012566.648   199757456.332        -229.555          25.000  
J02  37914189.753   199240525.6591      -2057.026          21.000  
R12  19101877.246   102038799.127       -2001.671          28.000  
> 2021  9 12 10 35 19.9993605  0 11
C06  36697825.324   191095194.171       -1439.739          26.000  
C13  37002821.280   192683406.778       -2899.465          22.000  
C23  23859970.586   124245272.8861        902.195          18.000  
C25  21814182.356   113592180.194       -1628.026          30.000  
C33  22259558.528   115911249.076       -1698.261          24.000  
G10  20149296.033   105885313.530       -1355.228          35.000    20149298.131    79070174.815       -1011.155          27.000  
G25  20782548.541   109213119.8721      -1260.658          20.000  
G31  21758458.433   114341508.356         292.722          30.000  
G32  21782554.251   114468123.070        -164.683          35.000  
J01  38012369.684   199756425.755        -230.336          24.000  
J02  37914342.347   199241322.747       -2057.637          22.000  
> 2021  9 12 10 35 20.9993595  0 11
C06  36697801.641   191095071.696       -1438.343          25.000  
C13  37003077.902   192684742.620       -2895.552          24.000  
C23  23859496.015   124242806.838         905.704          19.000  
C25  21814194.048   113592246.051       -1626.829          31.000  
C33  22259585.510   115911386.490       -1698.376          25.000  
G10  20149254.661   105885092.901       -1354.723          35.000    20149256.160    79070009.598       -1011.513          29.000  
G31  21758102.279   114339640.696         291.278          28.000  
G32  21782285.637   114466711.363        -164.764          36.000  
J01  38012113.362   199755080.771        -229.852          23.000  
J02  37914437.081   199241805.704       -2058.157          21.000  
R12  19102087.700   102039922.9801      -2001.596          25.000  
> 2021  9 12 10 35 21.9993587  0 12
C06  36697838.215   191095261.613       -1439.152          26.000  
C13  37003392.085   192686388.056       -2894.128          26.000  
C23  23859083.800   124240652.787         905.267          20.000  
C25  21814265.099   113592624.593       -1627.995          31.000  
C33  22259670.651   115911835.914       -1698.469          25.000  
G10  20149270.550   105885187.921       -1354.171          36.000    20149275.047    79070081.573       -1013.811          29.000  
G23  21264031.717   111743175.4131      -3716.607          17.000  
G31  21757806.684   114338089.589         290.433          27.000  
G32  21782076.083   114465614.684        -163.148          34.000  
J01  38011919.396   199754049.209        -228.421          24.000  
J02  37914588.776   199242603.004       -2057.322          22.000  
R12  19102221.407   102040637.466       -2002.184          26.000  
> 2021  9 12 10 35 22.9993580  0 11
C06  36697903.570   191095607.862       -1439.325          26.000  
C13  37003735.647   192688188.416       -2892.293          26.000  
C25  21814370.026   113593159.502       -1628.906          30.000  
C33  22259785.771   115912441.700       -1699.332          25.000  
G10  20149320.016   105885440.926       -1355.510          35.000    20149323.913    79070271.410       -1012.554          28.000  
G25  20782511.966   109212963.2481      -1263.603          19.000  
G31  21757541.068   114336696.773         289.636          28.000  
G32  21781892.310   114464675.351        -164.558          34.000  
J01  38011751.812   199753175.352        -229.316          25.000  
J02  37914771.650   199243559.285       -2058.272          22.000  
R12  19102389.891   102041537.684       -2002.586          27.000  
> 2021  9 12 10 35 23.9993569  0 10
C06  36697850.807   191095329.398       -1438.268          27.000  
C23  23858201.211   124236034.0311        903.528          21.000  
C25  21814353.537   113593070.256       -1627.460          31.000  
C33  22259784.272   115912422.938       -1697.810          26.000  
G10  20149248.066   105885064.304       -1356.583          35.000    20149252.263    79069990.250       -1013.205          27.000  
G23  21264905.013   111747774.0441      -3717.557          19.000  
G31  21757156.734   114334673.708         289.877          28.000  
G32  21781601.811   114463105.737        -162.312          35.000  
J01  38011466.409   199751671.456        -228.672          24.000  
J02  37914835.206   199243884.448       -2057.823          23.000  
> 2021  9 12 10 35 24.9993559  0 10
C06  36697828.922   191095206.538       -1439.287          28.000  
C13  37004215.015   192690694.1991      -2893.781          24.000  
C25  21814366.129   113593137.458       -1630.081          31.000  
C33  22259811.253   115912559.418       -1698.210          25.000  
G10  20149210.592   105884845.691       -1356.325          36.000    20149209.992    79069827.155       -1014.520          27.000  
G25  20782365.368   109212186.8971      -1267.848          17.000  
G31  21756800.281   114332808.367         289.993          27.000  
J01  38011213.085   199750325.721        -230.129          22.000  
J02  37914926.043   199244365.560       -2055.002          22.000  
R12  19102506.810   102042161.9151      -2003.976          27.000  
> 2021  9 12 10 35 25.9993554  0 11
C06  36697956.933   191095864.942       -1439.131          27.000  
C13  37004621.833   192692807.381       -2894.268          25.000  
C23  23857404.363   124231881.6191        906.537          20.000  
C25  21814529.216   113593985.464       -1628.083          30.000  
C33  22259987.232   115913477.216       -1698.302          26.000  
G10  20149315.819   105885415.225       -1357.824          36.000    20149318.517    79070253.167       -1014.376          27.000  
G23  21265869.745   111752847.7161      -3718.320          21.000  
G31  21756594.623   114331731.354         288.933          28.000  
G32  21781212.980   114461068.9521       -162.045          36.000  
J01  38011107.258   199749767.705        -227.905          23.000  
J02  37915168.575   199245631.336       -2053.005          24.000  
> 2021  9 12 10 35 26.9993544  0 12
C06  36697932.650   191095741.620       -1437.423          27.000  
C13  37004879.655   192694140.395       -2894.196          27.000  
C23  23856931.290   124229414.922         903.823          19.000  
C25  21814540.008   113594053.417       -1629.365          31.000  
C33  22260012.714   115913614.695       -1698.854          25.000  
G10  20149272.349   105885197.812       -1358.366          36.000    20149277.146    79070091.006       -1014.832          28.000  
G23  21266275.064   111754989.931       -3717.208          24.000  
G31  21756238.769   114329866.794         289.360          27.000  
G32  21780943.167   114459656.644        -163.213          36.000  
J01  38010850.036   199748419.765        -226.250          23.000  
J02  37915258.513   199246110.516       -2055.463          23.000  
R12  19102805.403   102043756.9111      -2006.135          26.000  
> 2021  9 12 10 35 27.9993536  0 12
C06  36697968.625   191095929.502       -1436.823          28.000  
C13  37005196.536   192695786.208       -2895.116          25.000  
C25  21814612.858   113594433.952       -1629.901          31.000  
C33  22260100.553   115914064.469       -1698.204          25.000  
G10  20149290.037   105885295.945       -1360.098          36.000    20149295.733    79070163.319       -1013.162          28.000  
G23  21266740.342   111757447.115       -3717.593          25.000  
G25  20782404.940   109212358.1611      -1264.709          18.000  
G31  21755943.174   114328317.401         289.136          25.000  
G32  21780735.710   114458559.397        -162.765          36.000  
J01  38010654.871   199747387.403        -230.508          22.000  
J02  37915410.208   199246905.770       -2056.310          24.000  
R12  19102942.708   102044491.061       -2006.709          24.000  
> 2021  9 12 10 35 28.9993526  0 10
C06  36697944.941   191095805.508       -1437.301          26.000  
C13  37005451.059   192697120.772       -2896.335          26.000  
C25  21814626.948   113594502.588       -1629.839          31.000  
C33  22260124.836   115914202.606       -1700.048          25.000  
G10  20149249.565   105885079.628       -1358.658          37.000    20149254.062    79070001.311       -1015.560          28.000  
G23  21267147.760   111759589.830       -3718.187          25.000  
G32  21780467.096   114457146.915        -162.210          36.000  
J01  38010399.448   199746042.093        -229.863          23.000  
J02  37915499.846   199247386.043       -2055.063          23.000  
R12  19103017.056   102044887.332       -2007.174          22.000  
> 2021  9 12 10 35 29.9993518  0 12
C06  36697980.617   191095993.794       -1437.494          26.000  
C13  37005768.839   192698767.888       -2895.896          27.000  
C25  21814700.097   113594883.830       -1631.868          31.000  
C33  22260210.877   115914653.308       -1699.902          25.000  
G10  20149272.349   105885178.862       -1359.819          36.000    20149273.248    79070075.605       -1014.500          27.000  
G23  21267616.635   111762048.984       -3720.733          26.000  
G25  20782351.278   109212047.2081      -1258.329          18.000  
G31  21755290.526   114324905.1891        288.453          24.000  
G32  21780259.640   114456049.476        -163.525          35.000  
J01  38010203.983   199745012.557        -231.051          22.000  
J02  37915650.941   199248181.773       -2056.679          24.000  
R12  19103153.162   102045614.625       -2008.372          23.000  
> 2021  9 12 10 35 30.9993510  0  8
C06  36698014.493   191096182.241       -1437.491          26.000  
C13  37006084.821   192700414.621       -2895.448          26.000  
C25  21814770.549   113595265.297       -1631.994          30.000  
C33  22260299.615   115915105.108       -1700.870          25.000  
G10  20149288.838   105885278.611       -1360.845          37.000    20149292.435    79070148.728       -1015.644          28.000  
G23  21268084.012   111764508.931       -3719.881          24.000  
G32  21780051.584   114454951.904        -164.389          37.000  
J02  37915804.735   199248978.157       -2056.056          23.000  
> 2021  9 12 10 35 31.9993500  0 11
C06  36697991.709   191096058.795       -1438.617          27.000  
C13  37006341.143   192701747.716       -2893.413          25.000  
C25  21814786.138   113595334.918       -1629.701          30.000  
C33  22260326.896   115915245.249       -1701.254          25.000  
G10  20149250.764   105885063.715       -1360.622          37.000    20149251.364    79069988.292       -1016.229          28.000  
G23  21268490.530   111766653.218       -3720.104          25.000  
G31  21754636.079   114321491.7021        288.849          25.000  
G32  21779781.471   114453539.060        -163.028          36.000  
J01  38009753.095   199742637.5761       -227.921          22.000  
J02  37915896.171   199249458.731       -2055.559          23.000  
R12  19103369.612   102046770.6041      -2010.850          25.000  
> 2021  9 12 10 35 32.9993490  0 11
C06  36697967.726   191095936.436       -1438.763          26.000  
C13  37006598.065   192703081.469       -2895.475          24.000  
C25  21814802.027   113595404.795       -1631.078          31.000  
C33  22260351.779   115915385.520       -1700.980          25.000  
G10  20149209.393   105884849.379       -1361.404          35.000    20149210.592    79069829.440       -1019.088          28.000  
G23  21268895.550   111768798.382       -3721.027          26.000  
G31  21754283.823   114319627.551         288.679          23.000  
G32  21779514.656   114452126.119        -163.289          37.000  
J01  38009495.274   199741289.830        -227.503          21.000  
J02  37915988.208   199249939.245       -2056.599          24.000  
R12  19103448.158   102047190.315       -2010.272          23.000  
> 2021  9 12 10 35 33.9993485  0 10
C06  36698093.938   191096594.116       -1437.226          26.000  
C13  37007006.383   192705195.290       -2893.903          27.000  
C23  23853971.739   124213890.3411        902.905          18.000  
C25  21814967.812   113596255.654       -1630.888          32.000  
C33  22260527.757   115916306.176       -1701.852          26.000  
G10  20149320.316   105885423.291       -1362.337          36.000    20149320.016    79070259.108       -1017.743          28.000  
G25  20782344.382   109211889.7491      -1265.754          13.000  
G31  21754077.266   114318551.225         287.605          22.000  
G32  21779394.739   114451500.957        -162.914          36.000  
J02  37916228.341   199251208.135       -2056.428          23.000  
> 2021  9 12 10 35 34.9993475  0 13
C06  36698070.554   191096470.939       -1438.444          26.000  
C13  37007262.705   192706528.954       -2894.748          27.000  
C23  23853499.866   124211427.847         901.137          18.000  
C25  21814980.104   113596326.389       -1632.426          31.000  
C33  22260552.340   115916446.272       -1702.171          25.000  
G10  20149277.146   105885210.201       -1362.646          37.000    20149278.645    79070099.812       -1018.275          28.000  
G23  21269859.982   111773877.7981      -3721.832          25.000  
G25  20782290.120   109211582.031       -1269.679          14.000  
G31  21753721.112   114316688.515         286.353          20.000  
G32  21779123.726   114450087.974        -163.536          36.000  
J01  38009133.724   199739384.1171       -228.176          21.000  
J02  37916321.277   199251688.198       -2055.388          25.000  
R12  19103743.454   102048768.4731      -2010.827          20.000  
> 2021  9 12 10 35 35.9993464  0 11
C06  36698017.191   191096192.088       -1437.959          27.000  
C13  37007491.447   192707706.258       -2895.015          26.000  
C23  23852997.414   124208808.318         902.527          17.000  
C25  21814964.514   113596241.505       -1631.129          31.000  
G10  20149209.093   105884840.133       -1364.170          36.000    20149208.193    79069824.293       -1018.432          28.000  
G23  21270236.821   111775867.003       -3722.524          25.000  
G31  21753338.877   114314669.203         286.461          23.000  
G32  21778826.632   114448517.462        -161.257          35.000  
J01  38008845.924   199737878.379        -227.066          22.000  
J02  37916382.435   199252009.806       -2053.857          22.000  
R12  19103787.823   102049004.852       -2013.637          24.000  
> 2021  9 12 10 35 36.9993457  0 11
C06  36698081.647   191096536.664       -1437.077          26.000  
C13  37007838.307   192709507.396       -2893.561          28.000  
C23  23852615.478   124206813.704         902.724          16.000  
C25  21815067.643   113596781.212       -1634.104          30.000  
G10  20149256.760   105885100.751       -1363.965          35.000    20149257.060    79070019.506       -1016.239          25.000  
G23  21270735.376   111778486.782       -3722.871          25.000  
G31  21753075.659   114313279.872         286.395          26.000  
G32  21778644.658   114447576.987        -163.148          33.000  
J01  38008676.841   199737002.650        -226.751          23.000  
J02  37916563.809   199252961.406       -2053.511          22.000  
R12  19103955.107   102049898.574       -2011.865          27.000  
> 2021  9 12 10 35 37.9993449  0 11
C06  36698116.123   191096725.401       -1438.391          24.000  
C13  37008155.487   192711152.100       -2893.359          28.000  
C25  21815142.291   113597165.224       -1632.934          30.000  
C33  22260747.805   115917494.5821      -1702.982          23.000  
G10  20149277.146   105885204.357       -1364.548          35.000    20149277.146    79070097.034       -1021.323          25.000  
G23  21271203.652   111780949.784       -3723.733          25.000  
G31  21752783.661   114311733.071         286.298          27.000  
G32  21778438.401   114446478.954        -162.730          34.000  
J01  38008478.378   199735968.681        -226.362          23.000  
J02  37916717.902   199253755.039       -2054.141          22.000  
R12  19104093.911   102050640.437       -2012.978          29.000  
> 2021  9 12 10 35 38.9993439  0  8
C06  36698091.540   191096600.982       -1436.330          26.000  
C13  37008411.510   192712485.413       -2895.465          27.000  
C25  21815159.679   113597237.431       -1632.602          31.000  
G10  20149237.273   105884993.507       -1365.451          36.000    20149237.573    79069941.409       -1020.228          26.000  
G23  21271611.070   111783097.962       -3723.681          25.000  
G31  21752431.705   114309871.733         285.668          26.000  
G32  21778170.686   114445065.845        -161.621          35.000  
R12  19104169.758   102051045.192       -2016.295          29.000  
> 2021  9 12 10 35 39.9993431  0  9
C06  36698128.714   191096787.730       -1435.152          27.000  
C13  37008726.592   192714131.659       -2895.591          27.000  
C25  21815235.227   113597622.222       -1636.136          31.000  
C33  22260860.527   115918090.8371      -1703.055          23.000  
G10  20149254.361   105885098.231       -1365.873          36.000    20149257.659    79070018.981       -1017.193          26.000  
G23  21272077.547   111785560.404       -3722.564          24.000  
G31  21752138.208   114308325.688         285.650          25.000  
G32  21777963.530   114443967.647        -162.243          34.000  
R12  19104307.063   102051779.212       -2016.841          27.000  
> 2021  9 12 10 35 40.9993421  0 10
C06  36698104.131   191096662.029       -1435.619          26.000  
C13  37008982.015   192715466.152       -2895.196          27.000  
C25  21815249.317   113597695.096       -1634.872          32.000  
G10  20149219.586   105884888.437       -1365.820          35.000    20149217.787    79069860.965       -1019.870          26.000  
G23  21272482.867   111787707.965       -3723.518          23.000  
G31  21751783.554   114306464.724         285.319          27.000  
G32  21777698.213   114442554.321        -162.030          34.000  
J01  38007763.373   199732239.1421       -227.118          22.000  
J02  37917050.072   199255509.5471      -2057.351          19.000  
R12  19104384.110   102052190.597       -2016.650          28.000  
> 2021  9 12 10 35 41.9993416  0 10
C06  36698231.243   191097316.690       -1435.163          26.000  
C13  37009387.934   192717580.368       -2895.110          26.000  
C25  21815411.805   113598548.764       -1633.574          32.000  
C33  22261060.189   115919153.0611      -1700.463          21.000  
G10  20149331.108   105885466.776       -1366.134          35.000    20149328.110    79070292.695       -1020.917          27.000  
G23  21273041.979   111790644.189       -3724.532          24.000  
G31  21751580.594   114305391.865         284.909          27.000  
G32  21777579.196   114441928.420        -162.232          34.000  
J02  37917293.804   199256779.255       -2057.161          21.000  
R12  19104609.554   102053394.842       -2017.924          27.000  
> 2021  9 12 10 35 42.9993405  0  9
C06  36698176.381   191097034.173       -1435.129          27.000  
C13  37009614.577   192718757.878       -2895.186          26.000  
C25  21815393.817   113598466.099       -1634.018          32.000  
G10  20149257.659   105885100.391       -1366.862          34.000    20149258.858    79070019.850       -1021.058          28.000  
G23  21273420.617   111792636.039       -3725.134          22.000  
G31  21751193.862   114303374.045         284.514          28.000  
G32  21777277.904   114440357.316        -161.160          34.000  
J02  37917354.062   199257101.434       -2054.128          21.000  
R12  19104654.523   102053634.931       -2017.051          27.000  
> 2021  9 12 10 35 43.9993395  0 12
C06  36698152.098   191096909.351       -1436.853          27.000  
C13  37009871.799   192720091.833       -2895.585          26.000  
C25  21815409.107   113598540.199       -1635.762          32.000  
C33  22261085.371   115919280.6461      -1704.298          20.000  
G10  20149217.487   105884892.312       -1369.184          34.000    20149218.986    79069864.994       -1022.256          28.000  
G23  21273831.333   111794786.599       -3726.415          23.000  
G25  20782082.963   109210449.9721      -1270.101          14.000  
G31  21750841.006   114301514.168         284.130          28.000  
G32  21777009.590   114438943.840        -161.962          35.000  
J01  38007110.725   199728823.5621       -227.833          18.000  
J02  37917449.096   199257579.492       -2053.550          23.000  
R12  19104728.871   102054031.996       -2016.563          27.000  
> 2021  9 12 10 35 44.9993388  0  9
C06  36698218.052   191097253.002       -1436.981          26.000  
C13  37010217.160   192721894.386       -2895.652          27.000  
C25  21815514.034   113599082.933       -1635.061          31.000  
G10  20149269.951   105885157.409       -1367.384          35.000    20149269.351    79070064.026       -1022.482          27.000  
G23  21274331.087   111797409.976       -3726.031          23.000  
G31  21750575.990   114300127.085         283.944          27.000  
G32  21776828.815   114438002.831        -161.371          34.000  
J02  37917631.070   199258530.182       -2053.912          22.000  
R12  19104894.657   102054917.308       -2018.983          29.000  
> 2021  9 12 10 35 45.9993380  0 10
C06  36698252.528   191097440.470       -1436.305          26.000  
C13  37010534.640   192723541.094       -2895.772          27.000  
C25  21815587.783   113599470.036       -1636.697          31.000  
G10  20149293.035   105885265.652       -1369.525          34.000    20149289.737    79070145.661       -1022.463          27.000  
G23  21274804.459   111799876.078       -3727.258          23.000  
G31  21750282.493   114298582.972         283.465          28.000  
G32  21776624.057   114436904.448        -162.003          35.000  
J01  38006748.575   199726911.9341       -224.917          20.000  
J02  37917784.564   199259325.009       -2055.794          21.000  
R12  19105031.362   102055647.871       -2020.888          30.000  
> 2021  9 12 10 35 46.9993370  0  8
C06  36698227.646   191097315.368       -1435.937          25.000  
C13  37010789.763   192724875.684       -2895.568          27.000  
C25  21815599.775   113599545.314       -1635.889          32.000  
C33  22261312.314   115920495.5961      -1706.283          22.000  
G10  20149250.164   105885059.388       -1369.007          35.000    20149249.865    79069990.852       -1021.685          28.000  
G31  21749926.339   114296724.215         283.134          27.000  
G32  21776356.642   114435490.974        -162.045          35.000  
R12  19105112.606   102056081.890       -2021.106          29.000  
> 2021  9 12 10 35 47.9993362  0 10
C06  36698262.721   191097502.227       -1434.917          24.000  
C13  37011106.344   192726522.116       -2896.055          27.000  
C25  21815675.322   113599933.164       -1637.572          32.000  
C33  22261403.151   115920953.838       -1708.432          24.000  
G10  20149272.049   105885168.707       -1372.097          36.000    20149270.550    79070072.552       -1023.324          28.000  
G31  21749632.243   114295180.796         282.954          27.000  
G32  21776146.188   114434392.481        -162.009          37.000  
J01  38006301.285   199724529.7581       -226.699          21.000  
J02  37918022.599   199260599.5231      -2055.479          21.000  
R12  19105249.311   102056812.140       -2020.823          27.000  
> 2021  9 12 10 35 48.9993352  0  9
C06  36698238.438   191097375.880       -1435.283          26.000  
C13  37011362.067   192727856.834       -2895.809          26.000  
C25  21815688.813   113600009.965       -1639.664          31.000  
C33  22261435.529   115921101.117       -1707.983          24.000  
G10  20149231.877   105884964.362       -1371.922          33.000    20149231.577    79069919.169       -1023.879          28.000  
G31  21749277.888   114293323.632         280.316          23.000  
G32  21775878.773   114432979.622        -162.823          35.000  
J02  37918114.336   199261079.416       -2054.949          19.000  
R12  19105327.557   102057230.033       -2024.043          26.000  
> 2021  9 12 10 35 49.9993344  0 10
C06  36698275.013   191097562.574       -1434.910          26.000  
C13  37011677.749   192729503.517       -2895.425          25.000  
C25  21815765.260   113600398.923       -1638.706          32.000  
C33  22261528.465   115921560.148       -1707.617          24.000  
G10  20149254.062   105885075.264       -1371.440          36.000    20149252.563    79070001.593       -1023.349          27.000  
G31  21748986.790   114291782.889         280.602          28.000  
G32  21775666.820   114431881.331        -162.202          36.000  
J01  38005849.198   199722147.2731       -227.604          21.000  
J02  37918266.031   199261873.669       -2053.936          21.000  
R12  19105466.361   102057971.425       -2024.852          27.000  
> 2021  9 12 10 35 50.9993336  0 10
C06  36698313.087   191097748.363       -1433.794          26.000  
C13  37011993.730   192731149.560       -2894.667          27.000  
C25  21815842.007   113600788.162       -1641.342          32.000  
C33  22261619.302   115922018.954       -1708.144          25.000  
G10  20149273.548   105885186.638       -1373.046          35.000    20149273.848    79070084.171       -1025.465          28.000  
G31  21748692.993   114290241.504         281.201          29.000  
G32  21775457.564   114430782.934        -162.033          36.000  
J01  38005654.933   199721113.395        -227.677          21.000  
J02  37918413.828   199262668.145       -2055.199          21.000  
R12  19105603.966   102058706.508       -2024.134          29.000  
> 2021  9 12 10 35 51.9993326  0 11
C06  36698290.002   191097621.419       -1434.907          25.000  
C13  37012249.753   192732483.987       -2896.052          26.000  
C25  21815855.797   113600865.773       -1638.198          31.000  
C33  22261648.082   115922165.582       -1707.362          25.000  
G10  20149237.573   105884983.629       -1372.631          35.000    20149235.774    79069933.963       -1027.344          27.000  
G23  21277437.537   111813766.6101      -3741.951          15.000  
G31  21748339.838   114288385.261         280.111          29.000  
G32  21775188.051   114429369.587        -161.448          37.000  
J01  38005399.210   199719765.989        -229.111          21.000  
J02  37918506.464   199263148.801       -2056.051          22.000  
R12  19105681.312   102059119.317       -2024.574          29.000  
> 2021  9 12 10 35 52.9993318  0 10
C06  36698324.179   191097807.787       -1435.276          25.000  
C13  37012565.134   192734131.226       -2895.648          28.000  
C25  21815931.345   113601256.153       -1641.175          31.000  
C33  22261738.619   115922624.320       -1708.240          26.000  
G10  20149258.559   105885096.512       -1373.327          36.000    20149257.659    79070019.032       -1026.105          27.000  
G23  21277913.607   111816252.952       -3747.438          14.000  
G31  21748047.240   114286844.832         279.661          30.000  
G32  21774978.196   114428271.453        -161.244          36.000  
J02  37918656.061   199263945.123       -2057.379          22.000  
R12  19105817.418   102059846.842       -2025.530          30.000  
> 2021  9 12 10 35 53.9993311  0 11
C06  36698390.433   191098150.852       -1435.869          24.000  
C13  37012913.193   192735934.089       -2895.036          27.000  
C25  21816036.572   113601802.930       -1638.339          30.000  
C33  22261859.136   115923239.069       -1707.201          26.000  
G10  20149309.223   105885367.411       -1373.114          36.000    20149309.223    79070222.471       -1027.038          28.000  
G23  21278416.359   111818902.709       -3751.637          12.000  
G31  21747783.723   114285462.628         278.979          30.000  
G32  21774796.522   114427330.753        -160.256          35.000  
J01  38005036.161   199717859.8951       -228.047          21.000  
J02  37918835.337   199264899.941       -2057.352          23.000  
R12  19105989.499   102060766.449       -2026.211          29.000  
> 2021  9 12 10 35 54.9993300  0  9
C06  36698334.672   191097868.989       -1434.709          26.000  
C13  37013140.136   192737112.252       -2895.894          26.000  
C25  21816021.583   113601725.773       -1639.727          30.000  
C33  22261858.536   115923230.183       -1709.137          25.000  
G10  20149240.871   105885008.842       -1373.823          37.000    20149240.571    79069956.111       -1026.639          28.000  
G31  21747398.190   114283450.947         278.598          30.000  
G32  21774498.828   114425759.945        -161.837          35.000  
J02  37918896.194   199265223.303       -2056.293          22.000  
R12  19106042.562   102061049.283       -2026.701          29.000  
> 2021  9 12 10 35 55.9993293  0 10
C06  36698400.326   191098210.080       -1433.543          26.000  
C13  37013487.296   192738915.144       -2895.493          26.000  
C25  21816122.013   113602273.493       -1641.158          30.000  
C33  22261977.554   115923847.287       -1710.061          26.000  
G10  20149292.135   105885280.973       -1375.895          37.000    20149291.836    79070159.349       -1026.338          27.000  
G31  21747135.272   114282069.158         279.015          30.000  
G32  21774320.751   114424819.506        -161.547          37.000  
J01  38004585.573   199715484.5181       -231.139          21.000  
J02  37919078.468   199266177.562       -2057.192          22.000  
R12  19106213.144   102061960.782       -2029.207          28.000  
> 2021  9 12 10 35 56.9993283  0  8
C06  36698376.643   191098082.642       -1434.735          26.000  
C13  37013743.319   192740246.864       -2891.722          23.000  
C25  21816132.506   113602352.404       -1638.058          30.000  
C33  22262009.032   115923996.701       -1710.154          22.000  
G10  20149250.764   105885080.296       -1374.772          30.000    20149252.563    79070008.933       -1026.441          26.000  
G31  21746780.617   114280213.919         280.426          21.000  
G32  21774053.636   114423405.986        -162.488          37.000  
R12  19106288.092   102062361.482       -2029.344          23.000  
> 2021  9 12 10 35 57.9993275  0  6
C06  36698412.018   191098268.671       -1434.869          27.000  
G10  20149271.749   105885195.181       -1375.734          30.000    20149275.047    79070095.367       -1027.142          23.000  
G31  21746487.720   114278673.457         280.209          26.000  
G32  21773840.784   114422307.339        -161.313          30.000  
J02  37919322.199   199267453.7101      -2053.705          17.000  
R12  19106429.294   102063115.571       -2029.370          26.000  
> 2021  9 12 10 35 58.9993267  0  8
C06  36698450.092   191098454.857       -1435.461          27.000  
C13  37014378.879   192743534.0001      -2893.566          20.000  
C25  21816285.999   113603133.5071      -1640.397          22.000  
G10  20149295.733   105885310.958       -1376.500          29.000    20149298.131    79070183.129       -1030.248          24.000  
G32  21773625.533   114421209.739        -162.231          28.000  
J01  38003934.424   199712075.2611       -226.812          19.000  
J02  37919471.196   199268247.930       -2055.452          18.000  
R12  19106565.400   102063842.686       -2029.699          24.000  
> 2021  9 12 10 35 59.9993257  0  7
C06  36698425.209   191098328.518       -1434.443          28.000  
C25  21816301.888   113603213.734       -1641.836          26.000  
G10  20149256.160   105885112.213       -1377.060          32.000    20149258.858    79070034.732       -1025.165          24.000  
G23  21281075.818   111832848.1311      -3735.544          15.000  
G31  21745843.766   114275280.0021        277.316          27.000  
J01  38003676.602   199710725.892        -226.104          26.000  
R12  19106650.241   102064295.364       -2030.814          29.000  
> 2021  9 12 10 36  0.9993247  0  7
C06  36698400.326   191098200.851       -1433.077          29.000  
C13  37014892.723   192746202.3401      -2896.645          19.000  
C25  21816316.878   113603295.362       -1642.666          28.000  
G10  20149216.887   105884914.819       -1379.202          32.000    20149221.085    79069885.435       -1033.035          22.000  
G31  21745493.008   114273427.633         276.521          26.000  
J01  38003421.779   199709377.159        -226.969          25.000  
R12  19106730.586   102064724.966       -2030.737          31.000  
> 2021  9 12 10 36  1.9993242  0  6
C06  36698526.539   191098853.136       -1433.587          27.000  
C25  21816481.464   113604157.283       -1642.748          28.000  
G10  20149331.408   105885506.015       -1378.361          35.000    20149333.507    79070329.558       -1032.387          18.000  
G32  21772974.383   114417756.9681       -161.108          34.000  
J01  38003312.954   199708816.298        -226.607          26.000  
R12  19106963.824   102065971.135       -2031.611          30.000  
> 2021  9 12 10 36  2.9993231  0  7
C06  36698472.576   191098569.345       -1433.883          26.000  
C25  21816467.374   113604083.158       -1643.573          32.000  
G10  20149268.752   105885151.783       -1379.220          37.000    20149266.953    79070065.993       -1029.496          26.000  
G23  21282418.588   111839944.4861      -3730.665          15.000  
G31  21744910.811   114270354.4561        276.002          31.000  
G32  21772680.287   114416185.379        -161.968          33.000  
R12  19107015.688   102066247.923       -2031.842          32.000  
> 2021  9 12 10 36  3.9993224  0  9
C06  36698537.931   191098909.924       -1433.374          25.000  
C13  37015865.849   192751292.2561      -2894.960          16.000  
C25  21816572.901   113604634.070       -1644.902          35.000  
C33  22262547.759   115926764.6441      -1712.953          27.000  
G10  20149320.016                       -1380.939          36.000    20149320.016    79070272.544       -1029.256          30.000  
G31  21744650.292   114268975.542         276.035          30.000  
G32  21772500.711                        -161.905          36.000  
J02  37920153.224   199271760.3541      -2059.577          19.000  
R12  19107186.270   102067159.176       -2034.497          29.000  
> 2021  9 12 10 36  4.9993213  0  8
C06  36698484.568   191098625.371       -1432.683          24.000  
C25  21816563.907                       -1646.474          34.000  
C33  22262548.059   115926760.160       -1712.872          28.000  
G10  20149253.462   105885039.1691      -1380.471          34.000    20149252.863    79070008.762       -1029.511          27.000  
G31  21744271.354   114266966.960         275.132          29.000  
G32  21772200.319                        -162.406          37.000  
J02  37920217.380   199272087.009       -2058.750          20.000  
R12  19107239.034   102067440.577       -2036.052          30.000  
> 2021  9 12 10 36  5.9993206  0 11
C06  36698550.222   191098965.797       -1433.866          27.000  
C13  37016438.453   192754275.8161      -2897.594          16.000  
C25  21816668.235   113605123.4491      -1643.446          29.000  
C33  22262667.076   115927380.266       -1713.454          28.000  
G10  20149302.328   105885317.558       -1381.391          31.000    20149306.226    79070215.973       -1032.365          22.000  
G23  21283797.933   111847203.6911      -3734.210          15.000  
G31  21744011.134   114265589.022         274.865          28.000  
G32  21772024.941   114412752.4801       -160.903          35.000  
J01  38002407.880   199704056.0851       -226.769          19.000  
J02  37920399.953   199273043.066       -2059.284          20.000  
R12  19107416.811   102068390.463       -2036.955          32.000  
> 2021  9 12 10 36  6.9993198  0  9
C06  36698584.998   191099150.488       -1434.181          28.000  
C25  21816740.785   113605518.613       -1645.216          27.000  
C33  22262757.614   115927844.462       -1713.397          23.000  
G10  20149328.110   105885438.413       -1381.053          31.000    20149329.310    79070310.388       -1035.770          12.000  
G31  21743722.134   114264053.851         274.727          28.000  
G32  21771813.587   114411653.794        -161.782          35.000  
J01  38002210.617   199703022.202        -226.505          27.000  
J02  37920553.147   199273841.882       -2058.531          20.000  
R12  19107560.711   102069159.597       -2036.723          32.000  
> 2021  9 12 10 36  7.9993188  0  7
C06  36698559.816   191099022.826       -1433.388          28.000  
C25  21816756.674   113605603.016       -1645.600          30.000  
C33  22262786.693   115927995.972       -1712.835          25.000  
G10  20149294.833   105885245.086       -1382.944          40.000    20149293.334    79070169.054       -1033.432          19.000  
G32  21771542.575   114410240.288        -161.167          38.000  
J01  38001956.693   199701673.097        -226.257          26.000  
R12  19107639.556   102069580.150       -2037.416          31.000  
> 2021  9 12 10 36  8.9993178  0 10
C06  36698536.732   191098894.957       -1433.318          30.000  
C25  21816772.862   113605687.772       -1646.370          31.000  
C33  22262815.174   115928147.825       -1713.246          26.000  
G10  20149257.659   105885052.497       -1383.841          40.000    20149256.760    79070025.141       -1031.843          27.000  
G23  21285093.337   111853997.5101      -3736.016          13.000  
G31  21743017.922   114260353.7701        274.334          31.000  
G32  21771273.961   114408826.861        -162.698          38.000  
J01  38001702.169   199700325.138        -229.162          23.000  
J02  37920733.922   199274803.8691      -2053.830          20.000  
R12  19107722.899   102070025.217       -2038.129          28.000  
> 2021  9 12 10 36  9.9993172  0  7
C06  36698632.066   191099391.475       -1433.185          30.000  
C25  21816909.868   113606397.630       -1646.851          30.000  
C33  22262963.871   115928924.626       -1713.602          30.000  
G10  20149336.804   105885490.719       -1383.351          39.000    20149340.102    79070351.716       -1033.613          24.000  
J01  38001566.663   199699609.012        -229.141          28.000  
J02  37920950.073   199275910.998       -2051.222          19.000  
R12  19107927.657   102071118.849       -2039.005          29.000  
> 2021  9 12 10 36 10.9993162  0  8
C06  36698607.782   191099263.070       -1432.514          31.000  
C25  21816927.855   113606483.478       -1647.121          30.000  
C33  22262992.351   115929077.986       -1715.001          30.000  
G10  20149301.429   105885299.661       -1385.657          37.000    20149303.827    79070210.320       -1036.485          25.000  
G32  21770846.457   114406630.2911       -162.500          31.000  
J01  38001310.340   199698261.450        -227.274          28.000  
J02  37921047.205   199276388.674       -2055.747          17.000  
R12  19108012.498   102071572.162       -2038.361          30.000  
> 2021  9 12 10 36 11.9993152  0  8
C06  36698583.200   191099134.364       -1432.398          32.000  
C25  21816944.644   113606569.316       -1646.920          30.000  
C33  22263021.131   115929231.925       -1715.180          32.000  
G10  20149265.754   105885109.237       -1384.303          37.000    20149268.452    79070070.576       -1036.805          22.000  
G23  21286443.902   111861113.8481      -3738.914          18.000  
G32  21770586.836   114405217.013        -161.150          36.000  
J01  38001054.018   199696913.618        -227.740          30.000  
R12  19108095.841   102072017.562       -2039.544          31.000  
> 2021  9 12 10 36 12.9993144  0  7
C06  36698617.676   191099317.510       -1432.535          31.000  
C25  21817019.592   113606967.609       -1647.288          24.000  
C33  22263109.570   115929698.478       -1716.280          31.000  
G10  20149287.638   105885233.826       -1385.375          36.000    20149292.435    79070165.947       -1035.672          23.000  
G31  21741775.282   114253904.0731        272.292          30.000  
G32  21770387.774   114404118.554        -162.253          30.000  
R12  19108238.242   102072778.820       -2040.352          27.000  
> 2021  9 12 10 36 13.9993137  0  7
C06  36698681.831   191099657.160       -1432.951          25.000  
C25  21817126.318   113607523.230       -1649.802          29.000  
C33  22263228.588   115930321.610       -1715.783          27.000  
G10  20149339.203   105885516.489       -1384.850          33.000  
G31  21741515.662   114252526.619         274.473          28.000  
J01  38000689.470   199695002.3861       -223.510          21.000  
R12  19108407.924   102073684.827       -2041.439          30.000  
> 2021  9 12 10 36 14.9993126  0  7
C06  36698626.969   191099371.880       -1432.071          28.000  
C25  21817112.827   113607455.181       -1648.252          25.000  
C33  22263229.487   115930319.826       -1715.094          27.000  
G10  20149276.846   105885169.377       -1386.862          33.000  
G31  21741136.724   114250520.004         273.124          27.000  
J01  38000407.365   199693492.992        -224.252          20.000  
R12  19108467.283   102074002.381       -2042.165          25.000  
> 2021  9 12 10 36 15.9993119  0  5
C06  36698692.024   191099711.001       -1431.546          30.000  
C25  21817219.553   113608010.398       -1646.677          28.000  
G10  20149330.809   105885455.417       -1387.073          37.000  
G23  21288294.520   111870870.5901      -3739.392          18.000  
R12  19108637.565   102074911.669       -2044.336          25.000  
> 2021  9 12 10 36 16.9993108  0  7
C06  36698635.663   191099425.180       -1431.450          32.000  
C25  21817206.962   113607940.857       -1648.895          28.000  
C33  22263348.804   115930939.8531      -1714.740          23.000  
G10  20149264.854                       -1387.868          38.000  
G31  21740499.066   114247140.5121        270.641          27.000  
G32  21769419.744   114399092.8671       -158.551          31.000  
J01  37999952.280   199691107.5121       -227.205          22.000  
> 2021  9 12 10 36 17.9993103  0  9
C06  36698758.878   191100075.633       -1431.363          30.000  
C25  21817373.647   113608809.791       -1650.087          28.000  
C33  22263527.181   115931874.574       -1716.355          27.000  
G10  20149379.075   105885701.0221      -1387.774          40.000  
G23  21289236.168   111875829.3561      -3739.694          17.000  
G31  21740299.104   114246081.999         270.951          26.000  
G32  21769299.528   114398464.792        -160.563          33.000  
J01  37999844.655   199690546.257        -226.126          27.000  
R12  19108918.471   102076411.7941      -2044.477          31.000  
> 2021  9 12 10 36 18.9993093  0  7
C06  36698734.295   191099946.105       -1432.854          33.000  
C25  21817390.135   113608899.957       -1651.805          27.000  
C33  22263557.160   115932030.017       -1716.715          28.000  
G10  20149341.601   105885514.544       -1389.074          39.000  
G32  21769032.712   114397050.873        -161.784          33.000  
J01  37999587.733   199689197.140        -226.404          27.000  
R12  19109000.015   102076847.890       -2047.521          33.000  
> 2021  9 12 10 36 19.9993083  0  9
C06  36698710.911   191099818.100       -1433.218          26.000  
C25  21817408.722   113608989.697       -1650.870          29.000  
C33  22263586.540   115932187.140       -1717.930          28.000  
G10  20149305.926   105885328.962       -1390.068          33.000  
G23  21290061.497   111880158.6191      -3740.896          19.000  
G25  20781489.674   109207617.2911      -1297.853          21.000  
G32  21768764.698                        -160.914          35.000  
J01  37999328.712   199687846.873        -223.941          26.000  
R12  19109088.753   102077321.446       -2048.689          23.000  
> 2021  9 12 10 36 20.9993075  0  9
C06  36698745.987   191100001.046       -1431.182          30.000  
C25  21817489.366   113609394.428       -1653.249          25.000  
C33  22263677.077   115932656.787       -1718.759          25.000  
G10  20149331.708   105885459.007       -1391.020          24.000  
G23  21290532.171   111882639.334       -3741.829          19.000  
G25  20781497.768   109207654.050       -1298.367          20.000  
G32  21768556.342   114394531.4631       -161.789          30.000  
J01  37999129.350   199686810.726        -224.016          25.000  
R12  19109232.354   102078089.224       -2048.901          19.000  
> 2021  9 12 10 36 21.9993068  0  8
C06  36698810.142   191100337.278       -1428.292          24.000  
C13  37021217.444   192779086.9131      -2896.400          21.000  
C25  21817595.793   113609953.381       -1651.327          30.000  
C33  22263798.793   115933282.889       -1718.134          26.000  
G10  20149386.570   105885746.389       -1390.081          32.000  
G31  21739039.676   114239488.3941        270.014          25.000  
G32  21768377.066   114393588.361        -161.876          28.000  
R12  19109402.936   102078999.824       -2047.510          24.000  
> 2021  9 12 10 36 22.9993057  0  9
C06  36698756.779   191100049.484       -1430.205          26.000  
C13  37021445.287   192780266.096       -2895.680          16.000  
C25  21817580.803   113609887.520       -1650.126          28.000  
C33  22263799.093   115933283.751       -1718.659          24.000  
G10  20149320.616   105885403.398       -1389.358          25.000  
G31  21738661.937   114237483.525         273.622          16.000  
G32  21768077.573   114392017.287        -162.203          30.000  
J01  37998676.664   199684424.7741       -226.310          19.000  
R12  19109446.705   102079233.820       -2047.648          24.000  
> 2021  9 12 10 36 23.9993050  0  8
C06  36698820.635   191100387.511       -1431.692          26.000  
C25  21817687.829   113610445.041       -1650.997          24.000  
C33  22263919.609   115933909.080       -1718.311          26.000  
G10  20149376.977   105885690.406       -1390.620          27.000  
G31  21738400.219   114236107.629         271.827          18.000  
G32  21767898.897   114391076.407        -162.012          28.000  
J01  37998510.579   199683547.207        -224.515          25.000  
R12  19109619.686   102080157.967       -2048.619          23.000  
> 2021  9 12 10 36 24.9993039  0 10
C06  36698766.672   191100102.105       -1431.677          26.000  
C13  37022016.691   192783248.2571      -2895.806          15.000  
C33  22263919.909   115933910.644       -1719.918          25.000  
G10  20149311.622   105885348.620       -1392.115          32.000  
G23  21292299.448   111891925.8611      -3738.697          18.000  
G25  20781410.229   109207171.8571      -1299.436          14.000  
G31  21738018.283   114234104.171         268.691          19.000  
G32  21767599.105   114389505.388        -162.442          28.000  
J01  37998220.679   199682038.417        -226.228          23.000  
R12  19109671.849   102080436.606       -2050.042          26.000  
> 2021  9 12 10 36 25.9993032  0 10
C06  36698830.528   191100439.767       -1429.439          25.000  
C13  37022363.851   192785052.290       -2897.732          16.000  
C25  21817783.463   113610938.0551      -1651.453          22.000  
C33  22264040.725   115934537.769       -1719.569          24.000  
G10  20149365.584   105885638.233       -1392.615          34.000  
G23  21292803.399   111894564.243       -3744.083          16.000  
G31  21737756.864   114232734.593         266.791          26.000  
G32  21767418.929   114388564.358        -161.337          32.000  
J01  37998054.894   199681163.255        -228.676          19.000  
R12  19109847.828   102081376.775       -2050.797          25.000  
> 2021  9 12 10 36 26.9993024  0  9
C06  36698865.904   191100620.346       -1429.196          31.000  
C13  37022680.432   192786702.789       -2901.288          23.000  
C25  21817861.109   113611340.346       -1651.642          27.000  
C33  22264130.063   115935008.180       -1719.152          27.000  
G10  20149389.868   105885770.787       -1393.249          41.000  
G31  21737463.667   114231207.364         266.631          25.000  
G32  21767208.175   114387464.578        -160.612          28.000  
J01  37997857.331   199680130.733        -227.055          27.000  
R12  19109990.229   102082137.390       -2051.161          31.000  
> 2021  9 12 10 36 27.9993014  0  9
C06  36698841.021   191100488.453       -1429.667          35.000  
C08  37946007.925   197594856.9671      -3121.210          25.000  
C25  21817878.797   113611431.087       -1652.406          31.000  
C33  22264160.642   115935166.305       -1719.739          32.000  
G10  20149355.691                       -1392.191          39.000  
G31  21737113.509   114229364.649         266.846          28.000  
G32  21766936.863   114386049.159        -160.193          31.000  
J01  37997599.809   199678780.475        -224.600          29.000  
R12  19110071.473   102082571.078       -2051.729          35.000  
> 2021  9 12 10 36 28.9993006  0  8
C06  36698876.097   191100669.415       -1431.473          36.000  
C08  37946369.775   197596728.928       -3120.763          23.000  
C25  21817957.342   113611835.063       -1653.465          35.000  
C33  22264250.580   115935637.305       -1720.527          33.000  
G10  20149380.274   105885712.1321      -1395.138          39.000  
G31  21736823.011   114227836.835         267.177          27.000  
J01  37997403.145   199677744.439        -224.260          28.000  
R12  19110214.474   102083334.835       -2052.660          35.000  
> 2021  9 12 10 36 29.9992998  0  9
C06  36698913.271   191100850.816       -1429.331          36.000  
C08  37946731.325   197598601.817       -3124.726          24.000  
C25  21818034.089   113612240.114       -1654.365          36.000  
C33  22264341.717   115936108.811       -1720.489          33.000  
G10  20149406.656   105885846.468       -1394.908          39.000  
G31  21736531.013   114226310.358         265.624          25.000  
G32  21766516.254   114383848.1561       -160.329          31.000  
J01  37997205.282   199676708.187        -224.067          29.000  
R12  19110358.374   102084103.741       -2053.533          36.000  
> 2021  9 12 10 36 30.9992988  0 10
C06  36698888.688   191100718.933       -1428.472          37.000  
C08  37947031.717   197600165.710       -3125.288          22.000  
C25  21818049.978                       -1653.272          37.000  
C33  22264372.895                       -1719.383          34.000  
G10  20149370.381   105885666.413       -1396.069          38.000  
G23  21295050.943   111906339.3441      -3739.237          17.000  
G31  21736180.555   114224469.653         264.644          29.000  
G32  21766246.741                        -159.985          32.000  
J01  37996947.161   199675356.331        -223.692          30.000  
R12  19110441.417   102084546.948       -2054.168          36.000  
> 2021  9 12 10 36 31.9992980  0  9
C06  36698924.064                       -1429.479          36.000  
C13  37024136.224   192794333.1571      -2898.813          19.000  
C25  21818125.826   113612716.6381      -1657.684          34.000  
C33  22264463.732   115936903.6441      -1720.949          33.000  
G10  20149399.161   105885801.674       -1397.550          40.000  
G31  21735889.457   114222944.047         265.254          29.000  
G32  21766034.488   114381297.9661       -159.806          32.000  
J01  37996748.998   199674319.960        -225.062          29.000  
R12  19110583.518   102085306.494       -2055.164          35.000  
> 2021  9 12 10 36 32.9992970  0 11
C06  36698894.084   191100795.4921      -1428.398          35.000  
C08  37947693.958   197603602.9581      -3120.811          16.000  
C13  37024392.546   192795669.955       -2898.410          19.000  
C25  21818147.411   113612810.006       -1655.538          31.000  
C33  22264494.611   115937063.580       -1718.564          31.000  
G10  20149367.083   105885622.606       -1396.177          41.000  
G23  21295933.832   111910982.9281      -3738.077          14.000  
G31  21735538.400   114221103.246         265.997          30.000  
G32  21765770.371   114379883.072        -159.074          35.000  
J01  37996490.577   199672969.421        -225.053          27.000  
R12  19110669.859   102085768.100       -2055.020          34.000  
> 2021  9 12 10 36 33.9992963  0 10
C06  36698956.141   191101131.872       -1434.044          33.000  
C13  37024738.807   192797476.354       -2900.493          24.000  
C25  21818261.332   113613372.967       -1658.997          31.000  
C33  22264615.128   115937692.669       -1725.159          31.000  
G10  20149423.145   105885917.150       -1399.665          40.000  
G23  21296436.584   111913614.960       -3729.432          12.000  
G31  21735277.880   114219734.404         265.387          31.000  
G32  21765592.894   114378940.888        -162.516          34.000  
J01  37996322.693   199672092.002        -226.094          27.000  
R12  19110846.736   102086712.775       -2057.513          34.000  
> 2021  9 12 10 36 34.9992955  0  9
C06  36698990.617   191101313.738       -1429.459          31.000  
C13  37025056.287   192799127.730       -2897.759          21.000  
C25  21818338.678   113613779.493       -1655.649          29.000  
C33  22264704.466   115938164.390       -1720.599          29.000  
G10  20149447.428   105886055.482       -1397.510          29.000  
G23  21296914.753   111916086.665       -3736.285          12.000  
G31  21734985.283   114218208.945         265.247          26.000  
J01  37996126.629   199671057.296        -225.718          25.000  
R12  19111002.628   102087544.944       -2057.850          32.000  
> 2021  9 12 10 36 35.9992945  0 11
C06  36698964.835   191101181.380       -1428.022          30.000  
C08  37948739.035   197609060.2771      -3121.776          19.000  
C13  37025311.110   192800463.465       -2896.119          15.000  
C25  21818355.467   113613873.907       -1656.079          29.000  
C33  22264734.445   115938324.254       -1721.681          26.000  
G10  20149413.251   105885877.855       -1398.284          25.000  
G23  21297332.663   111918252.564       -3746.232          10.000  
G31  21734634.226   114216368.454         264.668          24.000  
G32  21765104.232   114376425.1661       -160.022          23.000  
J01  37995868.807   199669706.656        -225.078          25.000  
R12  19111092.266   102088024.520       -2057.293          26.000  
> 2021  9 12 10 36 36.9992937  0  7
C06  36698998.712   191101360.757       -1428.359          30.000  
C08  37949098.186   197610933.600       -3122.359          19.000  
C25  21818433.713   113614280.968       -1656.031          25.000  
C33  22264823.483   115938796.940       -1721.763          25.000  
G10  20149437.834   105886015.997       -1398.868          26.000    20149445.029    79070757.8831      -1045.218          29.000  
G32  21764888.981   114375323.313        -156.373          19.000  
R12  19111242.162   102088825.042       -2059.632          24.000  
> 2021  9 12 10 36 37.9992929  0  7
C06  36699033.188   191101539.931       -1427.501          27.000  
C25  21818508.961   113614688.438       -1656.471          25.000  
C33  22264913.721   115939270.360       -1721.950          21.000  
G10  20149463.916   105886154.761       -1399.098          29.000    20149472.011    79070863.198       -1047.722          27.000  
G31  21734057.725   114213320.5201        264.090          20.000  
J01  37995472.182   199667638.3191       -226.212          21.000  
R12  19111391.159   102089620.863       -2060.925          22.000  
> 2021  9 12 10 36 38.9992919  0  9
C06  36699007.406   191101405.404       -1426.255          26.000  
C08  37949752.033   197614369.2461      -3123.264          19.000  
C25  21818524.550   113614783.170       -1655.668          25.000  
C33  22264945.499   115939431.981       -1723.538          23.000  
G10  20149430.340   105885978.594       -1399.344          27.000    20149439.034    79070734.045       -1047.554          25.000  
G31  21733708.767   114211480.161         265.718          20.000  
G32  21764404.216   114372806.1721       -160.733          24.000  
J01  37995215.859   199666288.886        -226.976          19.000  
R12  19111474.801   102090067.877       -2060.477          21.000  
> 2021  9 12 10 36 39.9992911  0  6
C06  36699040.983   191101582.431       -1426.429          27.000  
C33  22265038.435   115939906.209       -1723.136          23.000  
G10  20149458.820   105886117.939       -1400.001          29.000    20149466.615    79070841.476       -1048.892          25.000  
G31  21733418.567   114209954.489         264.906          21.000  
J01  37995016.797   199665257.814        -231.678          18.000  
R12  19111622.599   102090856.649       -2062.230          21.000  
> 2021  9 12 10 36 40.9992901  0  8
C06  36699015.500   191101448.077       -1427.143          28.000  
C08  37950414.874   197617805.0351      -3122.275          18.000  
C25  21818624.680   113615285.7961      -1656.928          24.000  
C33  22265069.013   115940067.585       -1722.804          25.000  
G10  20149424.943   105885942.698       -1400.553          26.000    20149432.738    79070712.728       -1046.351          26.000  
G31  21733070.209   114208114.646         263.658          26.000  
G32  21763934.741   114370291.0521       -160.138          30.000  
R12  19111707.740   102091312.170       -2060.286          27.000  
> 2021  9 12 10 36 41.9992893  0  7
C06  36699049.677   191101626.217       -1427.124          31.000  
C25  21818703.226   113615694.710       -1658.728          28.000  
C33  22265160.150   115940541.898       -1723.921          27.000  
G10  20149451.325   105886083.315       -1401.451          33.000    20149458.820    79070817.997       -1045.953          31.000  
G31  21732782.108   114206590.793         263.417          25.000  
G32  21763731.182   114369190.308        -158.907          20.000  
J01  37994566.809   199662884.4271       -226.428          25.000  
> 2021  9 12 10 36 42.9992886  0  8
C06  36699113.832   191101960.426       -1427.232          31.000  
C25  21818812.051   113616260.791       -1659.089          27.000  
C33  22265281.566   115941173.252       -1724.943          28.000  
G10  20149507.386   105886382.212       -1402.131          32.000  
G31  21732523.387   114205224.518         263.258          26.000  
G32  21763551.907   114368246.549        -159.523          27.000  
J01  37994401.623   199662005.605        -223.529          23.000  
R12  19112030.617   102093036.2611      -2062.683          22.000  
> 2021  9 12 10 36 43.9992876  0  8
C06  36699088.050   191101826.137       -1425.375          32.000  
C25  21818831.537   113616359.064       -1659.827          29.000  
C33  22265314.843   115941336.820       -1725.298          27.000  
G10  20149473.210   105886209.754       -1403.779          30.000  
G31  21732168.733   114203386.428         261.939          23.000  
G32  21763285.091   114366830.820        -160.130          27.000  
J01  37994139.005   199660652.437        -221.795          26.000  
R12  19112115.458   102093490.208       -2066.887          26.000  
> 2021  9 12 10 36 44.9992865  0  7
C06  36699030.190   191101535.090       -1427.096          24.000  
C08  37951734.261   197624671.3761      -3124.409          18.000  
C25  21818820.145   113616301.022       -1658.782          29.000  
C33  22265317.841   115941344.423       -1723.652          25.000  
G10  20149410.553   105885880.518       -1403.608          31.000  
G31  21731789.195   114201391.994         260.908          28.000  
G32  21762987.997   114365258.103        -160.293          28.000  
> 2021  9 12 10 36 45.9992860  0  7
C06  36699156.403   191102180.563       -1423.658          23.000  
C25  21818988.029   113617179.817       -1659.515          28.000  
C33  22265498.916   115942286.795       -1723.751          20.000  
G10  20149527.173   105886496.420       -1403.771          35.000  
G31  21731588.334   114200343.185         261.095          27.000  
G32  21762870.178   114364630.266        -159.974          27.000  
R12  19112405.657   102095040.1751      -2068.012          20.000  
> 2021  9 12 10 36 46.9992850  0  7
C06  36699129.721   191102043.386       -1423.680          20.000  
C25  21819006.316   113617278.597       -1660.482          30.000  
C33  22265531.293   115942450.836       -1725.671          24.000  
G10  20149496.894   105886324.998       -1404.123          36.000  
G31  21731239.976   114198506.603         261.140          29.000  
G32  21762601.265   114363214.393        -158.741          28.000  
R12  19112490.798   102095494.416       -2064.878          23.000  
> 2021  9 12 10 36 47.9992842  0  8
C06  36699161.499   191102217.732       -1423.603          24.000  
C13  37028906.521   192819155.9691      -2905.245          16.000  
C25  21819083.663   113617691.120       -1662.547          27.000  
C33  22265621.831   115942928.738       -1727.355          24.000  
G10  20149532.569                       -1407.724          35.000  
G31  21730951.875   114196985.035         261.096          31.000  
G32  21762388.412   114362112.819        -159.053          28.000  
R12  19112635.598   102096268.001       -2066.777          30.000  
> 2021  9 12 10 36 48.9992832  0  8
C06  36699134.818   191102081.099       -1425.079          25.000  
C13  37029165.542   192820501.003       -2906.829          14.000  
C25  21819100.151   113617792.856       -1662.845          25.000  
C33  22265654.208   115943094.714       -1727.638          23.000  
G10  20149498.692   105886338.3161      -1408.310          33.000  
G31  21730602.917   114195149.023         260.368          31.000  
G32  21762117.999   114360696.712        -159.690          32.000  
R12  19112720.439   102096721.828       -2069.080          31.000  
> 2021  9 12 10 36 49.9992824  0  7
C06  36699169.294   191102257.976       -1426.189          29.000  
C25  21819175.399   113618206.898       -1663.768          25.000  
C33  22265745.645   115943573.959       -1727.094          27.000  
G10  20149527.173   105886484.482       -1406.392          37.000  
G31  21730313.917   114193628.975         258.364          25.000  
G32  21761908.744   114359596.312        -160.099          28.000  
R12  19112865.539   102097496.122       -2068.617          29.000  
> 2021  9 12 10 36 50.9992817  0  6
C06  36699233.150   191102590.552       -1425.551          29.000  
C13  37029832.580   192823970.7211      -2904.977          15.000  
C25  21819284.524   113618777.178       -1662.095          26.000  
C33  22265867.061   115944206.760       -1726.730          19.000  
G10  20149579.936   105886788.215       -1407.163          38.000  
R12  19113041.816   102098438.717       -2069.123          32.000  
> 2021  9 12 10 36 51.9992806  0  7
C06  36699177.088   191102300.101       -1426.871          30.000  
C25  21819274.331   113618721.794       -1662.104          35.000  
C33  22265868.260   115944216.309       -1726.504          17.000  
G10  20149520.577   105886463.125       -1408.599          36.000  
G31  21729671.162   114190277.4821        257.752          33.000  
G32  21761437.470   114357082.5641       -161.064          34.000  
R12  19113096.978   102098732.718       -2070.552          34.000  
> 2021  9 12 10 36 52.9992796  0  5
C25  21819295.916   113618822.950       -1662.264          35.000  
G10  20149491.497   105886295.661       -1409.042          33.000  
G31  21729323.103   114188444.246         258.242          31.000  
G32  21761167.357   114355667.719        -160.024          38.000  
R12  19113183.319   102099193.933       -2071.035          32.000  
> 2021  9 12 10 36 53.9992791  0  8
C06  36699283.515   191102811.1791      -1425.921          28.000  
C13  37030727.461   192828630.1201      -2906.834          17.000  
C25  21819469.196                       -1662.129          35.000  
C33  22266073.318   115945328.6581      -1728.166          21.000  
G10  20149607.517   105886916.096       -1408.187          32.000  
G31  21729128.238   114187399.069         257.069          24.000  
G32  21761047.141   114355039.498        -159.142          40.000  
R12  19113418.356   102100449.237       -2071.302          33.000  
> 2021  9 12 10 36 54.9992781  0  7
C06  36699260.431   191102676.070       -1426.091          29.000  
C25  21819488.083   113619803.6211      -1663.291          36.000  
C33  22266102.698   115945496.198       -1728.356          22.000  
G10  20149572.741   105886749.725       -1410.658          35.000  
G31  21728778.979   114185566.446         257.560          30.000  
G32  21760772.231                        -159.788          38.000  
R12  19113506.195   102100918.519       -2072.171          34.000  
> 2021  9 12 10 36 55.9992773  0  6
C06  36699294.307   191102853.089       -1425.801          26.000  
C25  21819566.628   113620218.200       -1663.223          31.000  
G10  20149599.123   105886899.130       -1409.603          35.000  
G31  21728490.879   114184048.098         258.198          31.000  
G32  21760561.777   114352529.9581       -160.976          31.000  
R12  19113651.295   102101694.159       -2073.540          34.000  
> 2021  9 12 10 36 56.9992763  0  6
C06  36699266.427   191102716.974       -1424.773          25.000  
C13  37031560.884   192832982.7351      -2902.908          24.000  
C33  22266232.508   115946142.6381      -1728.835          22.000  
G10  20149566.146   105886733.402       -1411.163          28.000  
G31  21728143.719   114182214.781         257.834          27.000  
R12  19113745.429   102102196.723       -2074.654          28.000  
> 2021  9 12 10 36 57.9992755  0  7
C06  36699298.504   191102892.196       -1423.609          28.000  
C13  37031876.266   192834636.359       -2901.846          20.000  
C33  22266324.544   115946622.649       -1730.333          27.000  
G10  20149594.026   105886884.314       -1411.659          29.000  
G31  21727854.719   114180695.913         258.990          26.000  
G32  21760082.708   114350011.8101       -159.872          27.000  
R12  19113901.921   102103033.251       -2075.678          23.000  
> 2021  9 12 10 36 58.9992748  0  7
C06  36699361.461   191103223.169       -1423.535          25.000  
C13  37032222.526   192836443.586       -2898.012          26.000  
C25  21819768.089   113621300.1591      -1660.063          18.000  
C33  22266448.658   115947260.275       -1730.745          25.000  
G31  21727594.200   114179335.398         257.509          30.000  
G32  21759904.032   114349068.849        -159.861          29.000  
R12  19114081.197   102103990.530       -2074.823          27.000  
> 2021  9 12 10 36 59.9992737  0  8
C06  36699304.500   191102928.937       -1423.346          25.000  
C13  37032447.370   192837623.404       -2896.488          26.000  
C25  21819756.997   113621243.845       -1662.336          26.000  
C33  22266452.855   115947273.133       -1729.942          25.000  
G10  20149590.129   105886871.9751      -1412.180          39.000  
G31  21727214.962   114177345.006         256.741          36.000  
G32  21759604.539   114347495.162        -159.119          31.000  
R12  19114141.155   102104310.209       -2074.239          27.000  
> 2021  9 12 10 37  0.9992727  0  8
C06  36699277.519   191102791.713       -1425.359          29.000  
C13  37032702.494   192838958.580       -2897.179          24.000  
C25  21819778.881   113621346.213       -1665.008          26.000  
C33  22266484.034   115947442.377       -1731.088          26.000  
G10  20149561.049   105886709.044       -1413.163          37.000  
G31  21726866.603   114175513.302         255.622          32.000  
G32  21759334.726   114346079.443        -160.796          27.000  
R12  19114227.196   102104769.979       -2077.041          31.000  
> 2021  9 12 10 37  1.9992722  0  8
C06  36699401.333   191103436.677       -1426.423          29.000  
C13  37033108.712   192841076.263       -2899.319          30.000  
C25  21819950.962   113622231.302       -1666.316          28.000  
C33  22266665.408   115948392.583       -1729.964          25.000  
G10  20149681.266                       -1413.992          30.000  
G31  21726664.843   114174470.005         255.096          34.000  
G32  21759213.310   114345452.541        -160.936          29.000  
R12  19114467.330   102106053.372       -2078.197          28.000  
> 2021  9 12 10 37  2.9992712  0  8
C06  36699373.752   191103301.090       -1425.141          27.000  
C13  37033365.035   192842415.065       -2900.663          30.000  
C25  21819973.147   113622336.179       -1666.615          27.000  
C33  22266699.285   115948562.774       -1732.674          24.000  
G10  20149650.687   105887128.3301      -1415.166          28.000  
G31  21726311.388                         253.301          34.000  
G32  21758945.895   114344037.793        -160.412          31.000  
R12  19114554.269   102106516.997       -2078.529          30.000  
> 2021  9 12 10 37  3.9992701  0  8
C06  36699317.991   191103007.200       -1423.003          23.000  
C13  37033591.378   192843598.776       -2901.092          29.000  
C25  21819966.851   113622286.996       -1668.773          24.000  
C33  22266704.381   115948577.014       -1730.637          24.000  
G10  20149592.228   105886810.348       -1415.038          26.000  
G31  21725935.148   114170549.6531        253.943          33.000  
G32  21758646.702   114342464.908        -160.094          29.000  
R12  19114610.930   102106820.270       -2081.031          27.000  
> 2021  9 12 10 37  4.9992694  0  8
C06  36699381.247   191103338.097       -1424.730          24.000  
C13  37033937.339   192845408.355       -2903.315          29.000  
C25  21820078.974   113622863.484       -1669.278          25.000  
C33  22266826.097   115949217.430       -1733.641          22.000  
G10  20149648.589   105887123.237       -1415.811          30.000  
G31  21725677.327   114169192.640         253.056          33.000  
G32  21758467.726   114341522.067        -159.737          31.000  
R12  19114793.204   102107793.806       -2082.534          26.000  
> 2021  9 12 10 37  5.9992686  0  6
C06  36699416.323   191103514.629       -1426.055          27.000  
C13  37034254.519   192847063.115       -2904.562          27.000  
C25  21820160.817   113623283.877       -1669.108          27.000  
G10  20149676.469   105887278.998       -1416.464          39.000  
G31  21725391.924   114167679.003         253.016          32.000  
R12  19114944.299   102108601.203       -2081.509          27.000  
> 2021  9 12 10 37  6.9992678  0  6
C06  36699450.199   191103691.163       -1424.869          29.000  
C13  37034573.498   192848715.820       -2899.264          23.000  
C25  21820241.461   113623703.218       -1668.243          25.000  
G31  21725102.325   114166165.035         254.670          34.000  
G32  21758052.813   114339321.0001       -161.182          35.000  
R12  19115097.793   102109420.486       -2082.173          27.000  
> 2021  9 12 10 37  7.9992668  0  7
C06  36699423.218   191103553.995       -1423.162          30.000  
C13  37034831.020   192850053.201       -2899.013          24.000  
C25  21820262.746   113623809.828       -1667.511          31.000  
C33  22267038.950   115950354.8181      -1730.708          20.000  
G31  21724755.165   114164337.134         252.465          25.000  
G32  21757783.600   114337905.457        -158.865          26.000  
R12  19115192.228   102109925.680       -2082.234          31.000  
> 2021  9 12 10 37  8.9992658  0  8
C06  36699396.536   191103415.946       -1423.337          31.000  
C13  37035087.942   192851391.774       -2898.476          22.000  
C25  21820284.931   113623916.493       -1667.537          32.000  
C33  22267068.929   115950522.779       -1727.947          24.000  
G10  20149655.184                       -1420.285          33.000  
G31  21724411.003   114162509.624         251.751          25.000  
G32  21757513.787   114336488.975        -159.222          23.000  
R12  19115283.964   102110415.428       -2082.396          30.000  
> 2021  9 12 10 37  9.9992653  0  7
C06  36699517.952   191104058.883       -1423.327          28.000  
C13  37035494.161   192853509.776       -2899.190          24.000  
C25  21820456.113   113624804.030       -1668.397          27.000  
G10  20149772.103   105887781.8171      -1418.947          29.000  
G31  21724214.939   114161470.195         251.578          30.000  
G32  21757393.570   114335860.966        -159.825          29.000  
R12  19115526.496   102111710.722       -2084.808          26.000  
> 2021  9 12 10 37 10.9992643  0  6
C13  37035750.184   192854848.632       -2900.912          29.000  
C25  21820477.698   113624911.902       -1669.408          23.000  
G10  20149740.925   105887625.184       -1417.521          23.000  
G31  21723868.978   114159642.749         252.377          28.000  
G32  21757124.056   114334444.734        -158.649          28.000  
R12  19115620.032   102112210.112       -2085.856          13.000  
> 2021  9 12 10 37 11.9992632  0  6
C06  36699437.308   191103627.8281      -1424.310          16.000  
C13  37035976.827   192856032.566       -2901.741          26.000  
G10  20149680.666   105887310.311       -1418.933          21.000  
G31  21723490.940   114157657.162         252.177          27.000  
G32  21756820.966   114332870.386        -159.080          24.000  
R12  19115679.391   102112527.461       -2085.178          25.000  
> 2021  9 12 10 37 12.9992625  0  6
C13  37036321.588   192857841.775       -2901.716          26.000  
C33  22267415.189   115952290.7671      -1734.843          18.000  
G10  20149740.925   105887626.870       -1419.711          23.000  
G31  21723237.316   114156302.626         251.095          24.000  
G32  21756639.292   114331926.678        -159.195          26.000  
R12  19115855.968   102113470.585       -2084.621          27.000  
> 2021  9 12 10 37 13.9992617  0  6
C06  36699536.839   191104137.5771      -1426.311          16.000  
C13  37036638.169   192859494.482       -2901.402          25.000  
G10  20149772.403   105887786.407       -1420.174          28.000  
G31  21722950.714   114154791.336         250.685          24.000  
G32  21756431.236   114330825.334        -158.971          29.000  
R12  19116005.565   102114270.349       -2084.026          27.000  
> 2021  9 12 10 37 14.9992609  0  7
C06  36699569.816   191104318.400       -1431.764          15.000  
C13  37036955.649   192861146.546       -2899.792          25.000  
C33  22267607.356   115953264.3041      -1736.482          20.000  
G10  20149803.881   105887946.807       -1421.042          32.000  
G31  21722665.612   114153280.134         250.541          23.000  
G32  21756222.880   114329723.711        -158.771          29.000  
R12  19116155.161   102115069.499       -2085.817          26.000  
> 2021  9 12 10 37 15.9992599  0  7
C08  37962342.417   197679939.0831      -3124.251          26.000  
C13  37037212.571   192862485.369       -2900.737          22.000  
C33  22267640.933   115953440.028       -1736.489          20.000  
G10  20149775.401   105887792.895       -1421.931          31.000  
G31  21722319.651   114151454.185         250.278          23.000  
G32  21755953.067   114328307.094        -158.915          28.000  
R12  19116245.399   102115551.177       -2086.700          27.000  
> 2021  9 12 10 37 16.9992589  0  9
C06  36699514.954   191104050.2661      -1423.552          16.000  
C08  37962641.310   197681502.249       -3124.679          24.000  
C13  37037470.992   192863824.776       -2900.848          22.000  
C23  23809546.994   123982783.5871        872.321          22.000  
C25  21820782.587   113626493.9951      -1670.572          19.000  
C33  22267674.510   115953615.473       -1737.467          20.000  
G31  21721969.493   114149628.650         250.051          23.000  
G32  21755685.053   114326890.745        -159.168          27.000  
R12  19116338.035   102116045.758       -2088.480          25.000  
> 2021  9 12 10 37 17.9992584  0  8
C08  37963090.399   197683846.112       -3124.168          21.000  
C13  37037876.612   192865945.283       -2901.530          21.000  
C23  23809231.912   123981130.567         873.494          22.000  
C33  22267859.182   115954572.053       -1737.707          20.000  
G10  20149868.636                       -1423.836          33.000  
G31  21721771.630   114148591.108         249.921          22.000  
G32  21755565.735   114326262.214        -159.269          30.000  
R12  19116575.770   102117315.902       -2091.838          24.000  
> 2021  9 12 10 37 18.9992573  0  7
C08  37963359.913   197685252.994       -3124.949          22.000  
C23  23808735.755   123978540.171         873.590          22.000  
C33  22267864.878   115954592.731       -1737.494          20.000  
G10  20149812.275   105887963.8341      -1424.092          33.000  
G31  21721396.590   114146608.429         249.314          22.000  
G32  21755265.643   114324688.521        -159.274          29.000  
R12  19116636.328   102117639.347       -2092.464          25.000  
> 2021  9 12 10 37 19.9992563  0  7
C08  37963660.904   197686816.416       -3123.761          23.000  
C23  23808268.978   123976105.755         872.106          22.000  
C25  21820969.057   113627456.7191      -1676.011          20.000  
G10  20149784.095   105887812.470       -1423.235          34.000  
G31  21721050.630   114144783.779         248.891          24.000  
G32  21754996.729   114323272.086        -159.306          29.000  
R12  19116722.968   102118102.240       -2096.028          25.000  
> 2021  9 12 10 37 20.9992556  0  9
C06  36699610.288   191104581.7591      -1422.064          17.000  
C08  37964050.035   197688847.304       -3124.287          23.000  
C23  23807890.041   123974141.603         871.395          23.000  
C25  21821080.880   113628040.603       -1676.774          23.000  
C33  22268026.466   115955416.2811      -1738.666          21.000  
G10  20149841.955   105888134.299       -1425.380          33.000  
G31  21720792.208   114143433.497         246.783          21.000  
G32  21754818.652   114322329.014        -159.588          29.000  
R12  19116898.347   102119039.474       -2093.328          25.000  
> 2021  9 12 10 37 21.9992548  0  4
G10  20149873.133   105888299.107       -1428.094          33.000  
G31  21720505.007   114141927.454         245.267          23.000  
G32  21754608.198   114321227.848        -159.245          29.000  
R12  19117046.144   102119828.139       -2092.690          24.000  
> 2021  9 12 10 37 22.9992540  0  6
C08  37964772.535   197692598.4751      -3125.862          21.000  
C23  23807071.008   123969900.5231        871.772          23.000  
G10  20149905.511   105888464.561       -1427.533          33.000  
G31  21720216.907   114140421.090         245.379          23.000  
G32  21754398.044   114320127.306        -160.576          27.000  
R12  19117197.240   102120635.746       -2093.492          23.000  
> 2021  9 12 10 37 23.9992530  0  7
C08  37965075.325   197694163.438       -3125.645          25.000  
C13  37039603.116   192874946.1901      -2903.364          19.000  
C23  23806603.931   123967467.920         871.989          24.000  
G10  20149874.332   105888315.442       -1426.245          33.000  
G31  21719871.246   114138599.324         246.605          23.000  
G32  21754127.631   114318712.308        -159.962          27.000  
R12  19117286.278   102121111.310       -2094.492          24.000  
> 2021  9 12 10 37 24.9992520  0  6
C08  37965374.818   197695727.960       -3125.551          26.000  
C13  37039862.437   192876288.836       -2904.085          20.000  
C23  23806137.154   123965034.776         871.565          23.000  
G31  21719522.887   114136777.926         245.158          24.000  
G32  21753858.117   114317296.495        -159.618          28.000  
R12  19117373.518   102121577.166       -2094.728          22.000  
> 2021  9 12 10 37 25.9992515  0  7
C08  37965825.406   197698072.912       -3125.836          23.000  
C13  37040270.454   192878412.565       -2903.150          20.000  
C23  23805819.674   123963382.625         870.885          23.000  
G10  20149971.165   105888806.9601      -1427.094          34.000  
G31  21719325.024   114135744.516         245.256          24.000  
G32  21753737.301   114316666.768        -156.992          27.000  
R12  19117613.052   102122856.591       -2095.063          25.000  
> 2021  9 12 10 37 26.9992504  0  7
C08  37966095.519   197699481.039       -3124.317          19.000  
C13  37040497.097   192879597.147       -2901.630          21.000  
C23  23805320.520   123960795.407         869.571          24.000  
G10  20149910.008   105888502.215       -1428.189          34.000  
G31  21718947.885   114133766.031         244.842          22.000  
G32  21753436.909   114315091.618        -157.998          29.000  
R12  19117668.214   102123151.850       -2096.388          24.000  
> 2021  9 12 10 37 27.9992494  0  5
C08  37966394.112   197701043.088       -3122.373          20.000  
C23  23804855.841   123958364.704         869.833          24.000  
G10  20149882.427   105888354.758       -1428.524          37.000  
G32  21753166.496   114313674.076        -158.791          25.000  
R12  19117769.544   102123693.338       -2097.787          23.000  
> 2021  9 12 10 37 28.9992486  0  3
C13  37041076.296   192882593.6001      -2903.495          22.000  
G10  20149913.905   105888523.369       -1429.441          42.000  
G31  21718310.227   114130440.3341        245.381          30.000  
> 2021  9 12 10 37 29.9992479  0  4
C13  37041423.456   192884403.542       -2902.727          22.000  
G10  20149978.960   105888850.819       -1429.831          41.000  
G31  21718050.606   114129092.119         244.912          33.000  
R12  19118108.309   102125502.2411      -2099.373          28.000  
> 2021  9 12 10 37 30.9992471  0  5
C08  37967500.646   197706818.6391      -3123.248          19.000  
C13  37041741.536   192886057.177       -2903.053          27.000  
C23  23803670.762   123952168.6191        866.149          21.000  
G10  20150012.537   105889021.274       -1432.067          41.000  
G31  21717763.405   114127586.935         244.769          36.000  
> 2021  9 12 10 37 31.9992461  0  6
C13  37041999.957   192887399.209       -2904.093          28.000  
G10  20149983.757   105888877.338       -1430.884          41.000  
G32  21752305.792                        -157.235          34.000  
J01  37983744.301   199605948.6451       -219.480          26.000  
J02  37931689.838   199332421.0351      -2056.186          28.000  
R12  19118379.022   102126948.5331      -2101.221          21.000  
> 2021  9 12 10 37 32.9992451  0  8
C13  37042258.678   192888742.081       -2903.918          25.000  
C23  23802734.210   123947318.0831        863.629          21.000  
G10  20149956.775   105888734.676       -1434.552          35.000  
G31  21717068.187   114123948.1381        242.894          28.000  
G32  21752031.782   114307722.3621       -159.550          33.000  
J01  37983486.479   199604593.787        -221.640          26.000  
J02  37931783.673   199332901.814       -2056.452          25.000  
R12  19118478.553   102127480.543       -2102.199          24.000  
> 2021  9 12 10 37 33.9992445  0  9
C06  36699836.632   191105708.9491      -1419.750          23.000  
C13  37042634.618   192890708.961       -2904.261          25.000  
C23  23802385.252   123945517.325         863.879          21.000  
C25  21821931.391   113632504.6231      -1677.640          26.000  
C33  22269031.071   115960688.5971      -1743.048          28.000  
G10  20150047.912   105889222.737       -1433.424          36.000  
G31  21716840.944   114122759.891         242.693          22.000  
G32  21751885.783   114306936.614        -159.781          31.000  
R12  19118696.802   102128646.514       -2103.434          19.000  
> 2021  9 12 10 37 34.9992435  0 10
C06  36699808.151   191105567.129       -1419.469          25.000  
C13  37042891.840   192892052.978       -2906.294          26.000  
C25  21821952.677   113632621.134       -1677.965          26.000  
C33  22269065.247   115960870.832       -1743.513          28.000  
G10  20150021.231   105889080.546       -1434.015          38.000  
G31  21716493.784   114120941.682         242.637          29.000  
G32  21751612.372   114305520.057        -162.024          33.000  
J01  37983085.957   199602516.5681       -221.499          20.000  
J02  37932086.163   199334492.7861      -2056.774          21.000  
R12  19118784.341   102129113.406       -2103.394          23.000  
> 2021  9 12 10 37 35.9992425  0 10
C06  36699780.870   191105425.698       -1420.188          26.000  
C13  37043150.860   192893397.247       -2904.368          24.000  
C25  21821973.662   113632738.098       -1678.586          28.000  
C33  22269100.922   115961052.692       -1743.075          30.000  
G10  20149994.249   105888939.059       -1434.174          39.000  
G31  21716148.723   114119123.801         242.242          31.000  
G32  21751337.163   114304103.539        -159.162          33.000  
J01  37982826.336   199601162.397        -221.508          25.000  
J02  37932178.499   199334974.424       -2057.079          25.000  
R12  19118873.379   102129589.317       -2103.712          22.000  
> 2021  9 12 10 37 36.9992417  0 11
C06  36699813.848   191105597.135       -1420.822          26.000  
C13  37043468.340   192895052.792       -2904.399          24.000  
C23  23801037.085   123938245.6751        866.485          20.000  
C25  21822053.107   113633168.065       -1679.435          27.000  
C33  22269195.956   115961547.002       -1742.849          29.000  
G10  20150027.526   105889113.370       -1435.890          39.000  
G31  21715862.121   114117621.241         241.646          32.000  
G32  21751132.105   114303002.235        -160.515          33.000  
J01  37982628.773   199600123.930        -222.181          25.000  
J02  37932331.393   199335770.692       -2056.521          26.000  
R12  19119025.974   102130404.254       -2104.968          26.000  
> 2021  9 12 10 37 37.9992410  0 12
C06  36699876.804   191105925.532       -1421.881          29.000  
C13  37043818.498   192896863.944       -2904.398          25.000  
C23  23800662.944   123936287.332         865.668          21.000  
C25  21822167.928   113633755.723       -1681.401          26.000  
C33  22269320.670   115962196.854       -1743.281          30.000  
G10  20150090.483   105889446.807       -1437.198          37.000  
G25  20780951.846   109204732.7721      -1348.013          22.000  
G31  21715605.499   114116277.369         240.054          28.000  
G32  21750955.527   114302058.841        -155.871          30.000  
J01  37982461.189   199599242.052        -220.580          23.000  
J02  37932508.871   199336724.791       -2057.284          25.000  
R12  19119213.644   102131406.828       -2106.613          28.000  
> 2021  9 12 10 37 38.9992402  0  5
C25  21822252.169   113634187.904       -1681.306          26.000  
C33  22269416.604   115962691.768       -1744.850          27.000  
G10  20150123.460   105889622.985       -1437.441          36.000  
G32  21750745.672   114300957.341        -159.946          24.000  
R12  19119364.439   102132212.600       -2107.408          26.000  
> 2021  9 12 10 37 39.9992392  0  6
C06  36699887.896   191105961.1671      -1423.921          23.000  
C13  37044390.802   192899864.1021      -2906.088          21.000  
C25  21822276.452   113634308.077       -1682.103          27.000  
G10  20150096.778   105889484.761       -1439.443          31.000  
G31  21714972.937   114112962.4721        238.978          20.000  
G32  21750477.058   114299542.069        -160.351          30.000  
> 2021  9 12 10 37 40.9992381  0  7
C06  36699830.036   191105666.548       -1420.750          22.000  
C13  37044617.445   192901052.588       -2905.633          26.000  
C25  21822271.955   113634273.573       -1683.821          30.000  
G10  20150037.120   105889189.579       -1438.706          30.000  
G31  21714597.897   114110990.443         239.341          24.000  
G32  21750176.966   114297969.270        -160.063          33.000  
R12  19119523.030   102133059.7851      -2109.778          16.000  
> 2021  9 12 10 37 41.9992376  0  8
C06  36699954.450   191106305.499       -1417.859          24.000  
C13  37045026.662   192903178.710       -2906.561          25.000  
C25  21822444.936   113635176.588       -1683.812          31.000  
C33  22269639.649   115963875.5701      -1747.121          22.000  
G10  20150165.431   105889840.145       -1439.836          31.000  
G31  21714404.231   114109963.505         238.918          26.000  
G32  21750057.049   114297341.361        -159.799          32.000  
R12  19119777.254   102134417.350       -2109.179          15.000  
> 2021  9 12 10 37 42.9992366  0  7
C06  36699926.570   191106162.295       -1417.974          25.000  
C13  37045284.483   192904523.256       -2905.738          25.000  
C25  21822468.020   113635299.186       -1684.512          31.000  
C33  22269672.626   115964060.219       -1745.724          20.000  
G10  20150144.445   105889703.479       -1440.523          30.000  
G31  21714057.071   114108149.117         239.013          23.000  
G32  21749787.535   114295925.225        -158.100          30.000  
> 2021  9 12 10 37 43.9992356  0  8
C06  36699900.787   191106021.108       -1421.415          21.000  
C13  37045541.705   192905867.424       -2904.835          26.000  
C23  23798060.745   123922680.7601        864.277          18.000  
C25  21822492.603   113635422.594       -1683.083          27.000  
C33  22269705.604   115964245.369       -1744.796          23.000  
G31  21713713.509   114106334.814         238.675          30.000  
G32  21749517.722   114294508.400        -159.044          28.000  
R12  19119962.525   102135407.6191      -2111.887          15.000  
> 2021  9 12 10 37 44.9992348  0  7
C06  36699933.765   191106191.912       -1419.090          16.000  
C13  37045859.185   192907522.781       -2904.453          25.000  
C23  23797656.625   123920567.342         864.462          25.000  
G10  20150147.143   105889743.7031      -1438.797          27.000  
G31  21713429.306   114104836.074         237.795          27.000  
G32  21749308.167   114293407.454        -159.819          33.000  
R12  19120121.116   102136254.575       -2112.351          17.000  
> 2021  9 12 10 37 45.9992340  0  6
C06  36699967.641   191106363.038       -1420.559          13.000  
C23  23797251.306   123918454.470         862.392          27.000  
G10  20150180.420   105889923.082       -1440.449          31.000  
G31  21713145.702   114103337.862         237.498          26.000  
G32  21749098.313   114292307.115        -160.146          28.000  
R12  19120275.808   102137081.230       -2113.505          18.000  
> 2021  9 12 10 37 46.9992333  0  6
C06  36700028.499   191106690.983       -1422.438          12.000  
C23  23796876.865   123916499.355         863.267          25.000  
C25  21822769.611   113636886.9771      -1685.816          19.000  
G31  21712890.279   114101997.261         237.542          26.000  
G32  21748916.938   114291364.330        -160.167          27.000  
R12  19120472.472   102138131.756       -2113.606          19.000  
> 2021  9 12 10 37 47.9992323  0  9
C06  36699999.419   191106550.104       -1419.126          13.000  
C13  37046782.546   192912328.1971      -2900.416          16.000  
C23  23796412.786   123914075.401         862.495          26.000  
C25  21822790.297   113637011.703       -1685.221          20.000  
C33  22270068.053   115966079.4051      -1751.641          18.000  
G10  20150219.094   105890127.3091      -1440.887          33.000  
G31  21712545.817   114100184.316         237.692          26.000  
G32  21748647.425   114289949.026        -160.166          25.000  
R12  19120561.811   102138608.364       -2114.384          20.000  
> 2021  9 12 10 37 48.9992312  0  6
C06  36699941.559   191106252.059       -1419.239          23.000  
C13  37047009.189   192913513.078       -2904.216          17.000  
C25  21822786.100   113636979.648       -1686.133          28.000  
C33  22270076.747   115966113.948       -1752.689          19.000  
G10  20150164.531                       -1443.883          35.000  
G31  21712171.377   114098213.724         236.287          24.000  
> 2021  9 12 10 37 49.9992307  0  7
C06  36700062.675   191106890.402       -1419.052          20.000  
C23  23795599.749   123909854.3431        860.023          24.000  
C25  21822961.178   113637885.338       -1687.050          25.000  
C33  22270265.316   115967085.792       -1752.447          20.000  
G10  20150291.344   105890483.8961      -1442.592          34.000  
G31  21711975.912   114097190.187         235.444          22.000  
G32  21748227.715   114287746.7341       -158.304          22.000  
> 2021  9 12 10 37 50.9992297  0  6
C06  36700035.994   191106751.050       -1422.802          16.000  
C23  23795133.872   123907432.148         861.626          21.000  
C25  21822987.560   113638010.771       -1686.365          23.000  
G10  20150264.062   105890351.826       -1442.584          31.000  
G31  21711632.649   114095379.027         236.224          24.000  
G32  21747959.101   114286330.186        -159.924          20.000  
