     3.03           OBSERVATION DATA    M: Mixed            RINEX VERSION / TYPE
Geo++ RINEX Logger  Geo++               20210912 105942 UTC PGM / RUN BY / DATE
************************************************************COMMENT
This file was generated by the Geo++ RINEX Logger App       COMMENT
for Android devices (Version 2.1.6). If you encounter       COMMENT
any issues, please send an email to android@geopp.de        COMMENT
Filtering Mode: BEST                                        COMMENT
************************************************************COMMENT
Geo++                                                       MARKER NAME
GEODETIC                                                    MARKER TYPE
Geo++               Geo++                                   OBSERVER / AGENCY
unknown             HUAWEI              ELS-AN00            REC # / TYPE / VERS
unknown             ELS-AN00                                ANT # / TYPE
 -2417104.4972  5385897.9800  2406618.2130                  APPROX POSITION XYZ
        0.0000        0.0000        0.0000                  ANTENNA: DELTA H/E/N
G    8 C1C L1C D1C S1C C5Q L5Q D5Q S5Q                      SYS / # / OBS TYPES
R    4 C1C L1C D1C S1C                                      SYS / # / OBS TYPES
E   12 C1B L1B D1B S1B C1C L1C D1C S1C C5Q L5Q D5Q S5Q      SYS / # / OBS TYPES
C    4 C2I L2I D2I S2I                                      SYS / # / OBS TYPES
J    8 C1C L1C D1C S1C C5Q L5Q D5Q S5Q                      SYS / # / OBS TYPES
  2021     9    12    11     0    0.9980846     GPS         TIME OF FIRST OBS
 24 R01  1 R02 -4 R03  5 R04  6 R05  1 R06 -4 R07  5 R08  6 GLONASS SLOT / FRQ #
    R09 -2 R10 -5 R11  0 R12 -1 R13 -2 R14 -7 R15  0 R16 -1 GLONASS SLOT / FRQ #
    R17  4 R18 -3 R19  3 R20  2 R21  4 R22 -3 R23  3 R24  2 GLONASS SLOT / FRQ #
G L1C                                                       SYS / PHASE SHIFT
G L5Q -0.25000                                              SYS / PHASE SHIFT
R L1C                                                       SYS / PHASE SHIFT
E L1B                                                       SYS / PHASE SHIFT
E L1C +0.50000                                              SYS / PHASE SHIFT
E L5Q -0.25000                                              SYS / PHASE SHIFT
C L2I                                                       SYS / PHASE SHIFT
J L1C                                                       SYS / PHASE SHIFT
J L5Q -0.25000                                              SYS / PHASE SHIFT
 C1C    0.000 C1P    0.000 C2C    0.000 C2P    0.000        GLONASS COD/PHS/BIS
                                                            END OF HEADER
> 2021  9 12 11  0  0.9980846  0  5
E01                                                                                                                                  23816256.649    93460156.973          46.786          28.000  
G10  20280439.944   106574445.175       -2295.165          26.000  
G25  20895414.106   109806158.7881      -2254.300          21.000  
J01  37690266.971   198063702.106        -208.717          29.000  
J02  38118723.457   200315267.407       -2109.022          28.000  
> 2021  9 12 11  0  1.9980838  0  6
C09  37723643.465   196436910.8461      -1393.975          20.000  
E01                                                                                                                                  23816003.924    93459215.813          49.166          27.000  
G10  20280636.907   106575480.924       -2296.729          28.000  
G25  20895603.575   109807152.088       -2253.436          21.000  
J01  37690065.810   198062650.201        -207.774          29.000  
J02  38118885.345   200316116.233       -2109.513          27.000  
> 2021  9 12 11  0  2.9980828  0  7
C09  37723609.289   196436742.631       -1390.582          22.000  
E01                                                                                                                                  23815691.840    93458039.363          45.911          27.000  
G10  20280774.812   106576202.418       -2297.212          29.000  
G25  20895730.986   109807831.896       -2256.302          21.000  
G32  21449597.852   112718587.0591       -209.722          22.000  
J01  37689805.291   198061281.976        -207.830          29.000  
J02  38118986.075   200316649.874       -2108.864          28.000  
> 2021  9 12 11  0  3.9980820  0  7
C09  37723635.970   196436883.707       -1389.303          23.000  
E01                                                                                                                                  23815440.314    93457098.203          48.230          27.000  
G10  20280972.675   106577239.677       -2298.428          30.000  
G25  20895918.357   109808828.687       -2258.575          21.000  
G32  21449394.893   112717536.060        -209.364          22.000  
J01  37689606.229   198060230.129        -208.668          29.000  
J02  38119146.464   200317498.300       -2108.577          29.000  
> 2021  9 12 11  0  4.9980813  0  7
C09  37723693.231   196437178.899       -1387.124          20.000  
E01                                                                                                                                  23815218.168    93456030.688          46.812          28.000  
G10  20281201.416   106578435.467       -2299.049          29.000  
G25  20896135.706   109809984.486       -2258.920          22.000  
G32  21449226.410   112716642.149        -208.724          22.000  
J01  37689436.846   198059336.112        -208.984          29.000  
J02  38119338.631   200318503.743       -2107.682          29.000  
> 2021  9 12 11  0  5.9980803  0  7
C09  37723659.654   196437004.838       -1386.965          21.000  
E01                                                                                                                                  23814906.383    93454854.238          47.816          29.000  
G10  20281339.321   106579159.335       -2299.576          27.000  
G25  20896267.615   109810668.587       -2260.140          22.000  
G32  21448968.288   112715275.338        -208.604          23.000  
J01  37689177.226   198057969.013        -207.894          29.000  
J02  38119442.059   200319036.327       -2108.552          28.000  
> 2021  9 12 11  0  6.9980795  0  7
C09  37723688.734   196437144.535       -1389.932          21.000  
E01                                                                                                                                  23814655.157    93453913.078          45.018          27.000  
G10  20281538.983   106580198.679       -2299.988          26.000  
G25  20896458.883   109811668.609       -2260.953          22.000  
G32  21448768.926   112714223.786        -208.985          22.000  
J01  37688977.564   198056916.281        -207.270          29.000  
J02  38119602.748   200319884.410       -2108.492          28.000  
> 2021  9 12 11  0  7.9980785  0  7
C09  37723654.557   196436972.293       -1388.893          22.000  
E01                                                                                                                                  23814343.373    93452736.628          48.108          26.000  
G10  20281676.887   106580923.527       -2300.678          26.000  
G25  20896586.294   109812354.797       -2262.119          22.000  
G32  21448506.908   112712857.733        -209.831          22.000  
J01  37688716.445   198055548.344        -207.600          29.000  
J02  38119703.478   200320417.543       -2110.078          27.000  
> 2021  9 12 11  0  8.9980777  0  6
C09  37723683.038   196437113.853       -1390.664          22.000  
E01                                                                                                                                  23814091.847    93451795.468          47.327          27.000  
G10  20281874.151   106581964.242       -2301.513          27.000  
G32  21448306.346   112711807.107        -209.480          20.000  
J01  37688516.183   198054495.833        -208.266          29.000  
J02  38119865.067   200321267.093       -2110.240          27.000  
> 2021  9 12 11  0  9.9980769  0  7
C09  37723711.518   196437255.254       -1391.413          22.000  
E01                                                                                                                                  23813841.221    93450627.308          44.842          27.000  
G10  20282072.613   106583005.728       -2302.032          27.000  
G25  20896961.934   109814358.3631      -2262.979          21.000  
G32  21448104.886   112710756.337        -209.483          23.000  
J01  37688316.821   198053444.337        -209.847          29.000  
J02  38120026.954   200322116.577       -2109.368          24.000  
> 2021  9 12 11  0 10.9980759  0  6
E01                                                                                                                                  23813530.936    93449450.858          44.032          28.000  
G10  20282211.417   106583732.639       -2302.677          27.000  
G25  20897095.342   109815046.397       -2263.535          21.000  
G32  21447846.465   112709390.363        -209.675          24.000  
J01  37688056.601   198052078.268        -208.399          29.000  
J02  38120127.385   200322651.277       -2110.824          27.000  
> 2021  9 12 11  0 11.9980751  0  5
E01                                                                                                                                  23813279.710    93448509.698          43.520          27.000  
G10  20282410.180   106584775.353       -2303.580          32.000  
G25  20897289.607   109816049.817       -2264.287          20.000  
G32  21447648.302   112708339.801        -209.818          27.000  
J01  37687856.040   198051025.909        -207.702          29.000  
> 2021  9 12 11  0 12.9980744  0  5
E01                                                                                                                                  23813059.362    93447686.183          40.159          25.000  
G25  20897510.854   109817211.486       -2264.420          20.000  
G32  21447481.318   112707446.800        -209.999          25.000  
J01  37687689.655   198050130.819        -208.110          23.000  
J02  38120482.939   200324510.5881      -2110.953          24.000  
> 2021  9 12 11  0 13.9980736  0  7
C09  37723781.070   196437668.2341      -1390.403          23.000  
E01                                                                                                                                  23812808.136    93446745.023          42.223          24.000  
G10  20282838.283   106587019.0241      -2302.674          25.000  
G25  20897703.021   109818215.494       -2264.158          20.000  
G32  21447284.654   112706396.351        -210.204          26.000  
J01  37687489.394   198049079.505        -209.453          27.000  
J02  38120644.527   200325360.143       -2109.671          28.000  
> 2021  9 12 11  0 14.9980726  0  7
C09  37723745.694   196437497.679       -1389.877          22.000  
E01                                                                                                                                  23812496.951    93445352.573          40.594          26.000  
G10  20282977.687   106587747.046       -2304.231          23.000  
G25  20897833.431   109818904.462       -2264.983          21.000  
G32  21447025.933   112705030.970        -210.147          25.000  
J01  37687228.874   198047712.842        -209.439          29.000  
J02  38120746.456   200325894.729       -2109.775          29.000  
> 2021  9 12 11  0 15.9980716  0  5
E01                                                                                                                                  23812185.467    93444176.123          43.289          26.000  
G10  20283115.891   106588476.688       -2305.993          27.000  
G32  21446767.812   112703665.831        -210.567          24.000  
J01  37686967.156   198046346.963        -209.826          26.000  
J02  38120848.686   200326429.096       -2110.031          28.000  
> 2021  9 12 11  0 16.9980710  0  6
E01                                                                                                                                  23811994.199    93443470.253          42.922          26.000  
G10  20283373.713   106589838.080       -2307.220          25.000  
G25  20898216.266   109820917.2361      -2267.670          21.000  
G32  21446629.008   112702931.197        -210.700          23.000  
J01  37686826.853   198045611.621        -209.120          29.000  
J02  38121070.532   200327593.642       -2109.136          28.000  
> 2021  9 12 11  0 17.9980700  0  6
E01                                                                                                                                  23811683.614    93442293.803          41.570          23.000  
G10  20283513.716   106590570.292       -2308.119          24.000  
G25  20898343.978   109821610.186       -2268.995          21.000  
G32  21446369.387   112701566.404        -210.930          24.000  
J01  37686565.733   198044245.090        -209.351          29.000  
J02  38121171.862   200328127.422       -2109.472          25.000  
> 2021  9 12 11  0 18.9980692  0  5
E01                                                                                                                                  23811432.089    93441352.643          41.859          24.000  
G10  20283714.577   106591618.274       -2308.591          24.000  
G32  21446170.925   112700516.765        -210.714          23.000  
J01  37686366.072   198043193.855        -208.900          27.000  
J02  38121335.848   200328976.726       -2110.743          24.000  
> 2021  9 12 11  0 19.9980682  0  6
E01                                                                                                                                  23811121.504    93439954.193          42.689          25.000  
G10  20283852.781   106592351.912       -2309.116          25.000  
G25  20898665.055   109823316.8761      -2270.713          19.000  
G32  21445909.806   112699152.043        -210.859          23.000  
J01  37686104.952   198041826.980        -208.126          27.000  
J02  38121437.478   200329512.266       -2110.952          26.000  
> 2021  9 12 11  0 20.9980675  0  4
G10  20284083.022   106593559.297       -2310.126          24.000  
G32  21445736.526   112698261.032        -212.408          20.000  
J01  37685937.069   198040932.053        -207.834          24.000  
J02  38121631.744   200330520.345       -2109.941          23.000  
> 2021  9 12 11  0 21.9980667  0  4
C09  37723840.129   196438016.2761      -1390.955          22.000  
G10  20284280.885   106594608.689       -2310.022          26.000  
J01  37685737.107   198039878.932        -206.868          23.000  
J02  38121792.132   200331370.864       -2111.755          23.000  
> 2021  9 12 11  0 22.9980657  0  5
C09  37723806.852   196437846.043       -1390.723          22.000  
G10  20284421.487   106595343.382       -2310.907          28.000  
G32  21445283.239   112695850.8451       -212.667          22.000  
J01  37685476.587   198038511.829        -207.618          28.000  
J02  38121893.163   200331906.385       -2110.122          25.000  
> 2021  9 12 11  0 23.9980649  0  3
C09  37723833.234   196437987.722       -1391.052          25.000  
G10  20284621.749   106596393.801       -2311.218          26.000  
J01  37685279.024   198037459.304        -208.444          26.000  
> 2021  9 12 11  0 24.9980641  0  5
C09  37723859.615   196438128.706       -1389.701          25.000  
G10  20284824.408   106597444.882       -2312.185          28.000  
G32  21444886.914   112693755.5211       -212.031          21.000  
J01  37685077.863   198036407.891        -209.451          24.000  
J02  38122214.840   200333605.0251      -2108.276          23.000  
> 2021  9 12 11  0 25.9980631  0  5
C09  37723824.540   196437956.763       -1389.404          24.000  
G10  20284965.311   106598182.643       -2313.846          29.000  
G32  21444626.394   112692392.246        -211.082          20.000  
J01  37684818.543   198035042.047        -209.092          26.000  
J02  38122316.769   200334138.610       -2109.057          22.000  
> 2021  9 12 11  0 26.9980623  0  4
C09  37723850.022   196438096.756       -1389.638          24.000  
G10  20285167.970   106599236.666       -2314.799          29.000  
J01  37684617.982   198033991.427        -210.272          27.000  
J02  38122477.758   200334987.248       -2109.187          25.000  
> 2021  9 12 11  0 27.9980613  0  5
C09  37723817.045   196437925.101       -1389.157          24.000  
G10  20285309.772   106599976.554       -2315.634          27.000  
G32  21444167.112   112689979.0361       -210.001          21.000  
J01  37684356.863   198032624.933        -208.445          27.000  
J02  38122577.589   200335522.144       -2111.798          25.000  
> 2021  9 12 11  0 28.9980608  0  5
C09  37723936.362   196438534.579       -1390.836          25.000  
G10  20285599.971   106601503.889       -2315.347          28.000  
G32  21444053.491   112689401.634        -210.985          24.000  
J01  37684246.539   198032046.160        -209.448          21.000  
J02  38122828.815   200336847.059       -2112.659          19.000  
> 2021  9 12 11  0 29.9980598  0  6
C09  37723903.385   196438363.783       -1389.355          23.000  
G10  20285741.174   106602243.819       -2315.933          30.000  
G25  20900481.798   109832839.0621      -2286.324          16.000  
G32  21443794.770   112688039.199        -213.688          25.000  
J01  37683984.520   198030679.365        -207.603          22.000  
J02  38122928.646   200337383.714       -2112.164          24.000  
> 2021  9 12 11  0 30.9980588  0  4
C09  37723870.108   196438192.508       -1390.148          21.000  
G10  20285881.476   106602984.198       -2316.659          25.000  
G32  21443538.747   112686677.009        -212.747          20.000  
J01  37683721.902   198029311.530        -205.116          22.000  
> 2021  9 12 11  0 31.9980580  0  3
C09  37723897.389   196438333.763       -1388.898          21.000  
G10  20286084.136   106604040.572       -2316.433          20.000  
G25  20900808.871   109834571.7251      -2283.249          14.000  
> 2021  9 12 11  0 32.9980572  0  2
G25  20901002.837   109835593.031       -2283.783          14.000  
G32  21443143.920   112684582.7691       -213.294          22.000  
> 2021  9 12 11  0 33.9980564  0  3
C09  37723944.756   196438610.1301      -1387.170          19.000  
G10  20286484.959   106606154.3171      -2318.932          21.000  
G32  21442945.458   112683535.505        -212.955          22.000  
> 2021  9 12 11  0 34.9980554  0  2
G10  20286623.463   106606897.854       -2319.274          19.000  
G32  21442684.339   112682173.081        -213.127          24.000  
> 2021  9 12 11  0 35.9980544  0  1
G32  21442424.119   112680810.519        -212.929          23.000  
> 2021  9 12 11  0 36.9980539  0  3
C09  37723994.822   196438872.6071      -1390.250          22.000  
G10  20287051.566   106609174.9861      -2320.563          19.000  
G32  21442312.296   112680235.198        -212.345          22.000  
> 2021  9 12 11  0 37.9980529  0  2
C09  37723962.444   196438701.329       -1389.021          21.000  
G32  21442059.871   112678872.120        -212.215          22.000  
> 2021  9 12 11  0 38.9980521  0  4
C09  37723989.725   196438840.475       -1388.061          23.000  
G10  20287389.433   106610984.4771      -2322.119          18.000  
G25  20902079.691   109841249.6021      -2280.477          11.000  
G32  21441862.308   112677824.061        -212.396          23.000  
> 2021  9 12 11  0 39.9980511  0  3
C09  37723957.048   196438667.896       -1388.661          19.000  
G10  20287530.635   106611731.116       -2322.200          27.000  
G25  20902216.097   109841954.228       -2280.445          10.000  
> 2021  9 12 11  0 40.9980506  0  3
G10  20287824.132   106613265.740       -2322.636          30.000  
G25  20902498.501   109843447.286       -2281.372          10.000  
G32  21441493.263   112675887.0331       -213.331          26.000  
> 2021  9 12 11  0 41.9980495  0  4
C09  37724014.908   196438950.9311      -1389.932          24.000  
G10  20287938.353   106613855.583       -2323.003          26.000  
G25  20902601.330   109843996.127       -2282.335          16.000  
G32  21441202.764   112674367.012        -212.620          25.000  
> 2021  9 12 11  0 42.9980485  0  3
C09  37723981.031   196438779.193       -1388.913          24.000  
G10  20288084.651   106614603.445       -2323.703          29.000  
G32  21440941.045   112673004.161        -212.787          26.000  
> 2021  9 12 11  0 43.9980477  0  3
C09  37724007.713   196438919.494       -1388.394          26.000  
G10  20288287.311   106615667.284       -2324.694          31.000  
G32  21440741.084   112671956.632        -213.006          25.000  
> 2021  9 12 11  0 44.9980470  0  4
C09  37724064.374   196439214.822       -1387.588          27.000  
G10  20288521.149   106616889.435       -2325.513          30.000  
G25  20903149.051   109846910.9891      -2286.781          15.000  
G32  21440572.301   112671067.625        -214.072          22.000  
> 2021  9 12 11  0 45.9980462  0  3
C09  37724091.955   196439352.557       -1386.168          27.000  
G10  20288724.708   106617954.833       -2326.325          29.000  
G32  21440373.238   112670021.224        -213.437          23.000  
> 2021  9 12 11  0 46.9980452  0  3
C09  37724058.378   196439178.116       -1387.512          27.000  
G10  20288870.107   106618706.043       -2326.906          29.000  
G32  21440114.518   112668658.593        -212.733          24.000  
> 2021  9 12 11  0 47.9980442  0  3
C09  37724024.501   196439004.312       -1387.001          28.000  
G10  20289013.708   106619457.874       -2327.719          29.000  
G32  21439851.600   112667295.774        -212.784          23.000  
> 2021  9 12 11  0 48.9980436  0  3
C09  37724112.640   196439454.987       -1387.541          28.000  
G10  20289276.626   106620840.748       -2328.704          31.000  
G32  21439710.697   112666563.860        -214.206          25.000  
> 2021  9 12 11  0 49.9980426  0  3
C09  37724079.363   196439281.702       -1388.607          27.000  
G10  20289419.027   106621594.386       -2329.603          29.000  
G32  21439450.477   112665201.490        -210.637          22.000  
> 2021  9 12 11  0 50.9980419  0  4
C09  37724136.024   196439577.120       -1388.279          28.000  
G10  20289651.067   106622821.465       -2329.831          33.000  
G25  20904244.792   109852618.7141      -2294.708          15.000  
G32  21439279.895   112664309.837        -211.438          26.000  
> 2021  9 12 11  0 51.9980408  0  3
C09  37724073.667   196439248.560       -1388.387          28.000  
G10  20289764.988   106623418.390       -2330.455          32.000  
G32  21438990.895   112662789.926        -213.629          26.000  
> 2021  9 12 11  0 52.9980401  0  3
C09  37724130.628   196439544.482       -1388.598          28.000  
G10  20289998.526   106624646.407       -2332.722          31.000  
G32  21438822.712   112661901.079        -213.478          26.000  
> 2021  9 12 11  0 53.9980393  0  3
C09  37724157.609   196439684.280       -1388.208          27.000  
G10  20290199.687   106625718.216       -2331.663          31.000  
G32  21438624.849   112660855.794        -215.143          24.000  
> 2021  9 12 11  0 54.9980383  0  3
C09  37724125.232   196439510.598       -1386.923          27.000  
G10  20290342.988   106626474.422       -2332.168          29.000  
G32  21438368.227   112659495.335        -214.391          26.000  
> 2021  9 12 11  0 55.9980375  0  4
C09  37724150.714   196439648.464       -1386.190          27.000  
G10  20290545.648   106627546.160       -2331.919          30.000  
G25  20905123.184   109857163.6221      -2290.829          14.000  
G32  21438169.464   112658449.643        -214.906          26.000  
> 2021  9 12 11  0 56.9980367  0  3
C09  37724177.096   196439784.809       -1385.230          27.000  
G10  20290749.506   106628618.088       -2332.866          29.000  
G32  21437971.901   112657403.411        -213.884          27.000  
> 2021  9 12 11  0 57.9980357  0  4
C09  37724143.519   196439609.466       -1385.983          26.000  
C23  23271133.529   121178943.1591        378.034          24.000  
G10  20290893.407   106629375.698       -2332.956          29.000  
G32  21437713.480   112656042.153        -213.993          26.000  
> 2021  9 12 11  0 58.9980349  0  5
C09  37724171.400   196439746.748       -1386.319          26.000  
C23  23270822.645   121177315.471         378.024          23.000  
G10  20291097.266   106630449.068       -2334.203          29.000  
G25  20905652.918   109859949.1571      -2299.241          14.000  
G32  21437515.017   112654996.171        -214.887          26.000  
> 2021  9 12 11  0 59.9980339  0  3
C09  37724137.523   196439571.955       -1386.759          26.000  
C23  23270453.300   121175376.589         377.147          26.000  
G32  21437257.495   112653635.686        -214.166          26.000  
> 2021  9 12 11  1  0.9980334  0  3
C09  37724252.044   196440177.424       -1385.444          26.000  
C23  23270233.553   121174218.952         376.901          24.000  
G10  20291537.661   106632754.6631      -2334.171          30.000  
> 2021  9 12 11  1  1.9980324  0  5
C09  37724217.867   196440001.397       -1385.162          27.000  
C23  23269863.009   121172280.311         377.092          24.000  
G10  20291682.461   106633513.489       -2334.459          31.000  
G25  20906215.328   109862906.3361      -2298.205          11.000  
G32  21436885.453   112651696.7011       -211.171          24.000  
> 2021  9 12 11  1  2.9980316  0  4
C09  37724242.750   196440137.242       -1385.359          26.000  
C23  23269552.424   121170653.826         376.936          26.000  
G10  20291888.718   106634588.677       -2336.257          31.000  
G32  21436684.892   112650648.162        -212.494          24.000  
> 2021  9 12 11  1  3.9980306  0  3
C09  37724208.274   196439962.007       -1385.728          27.000  
G10  20292035.316   106635349.781       -2337.090          30.000  
G32  21436422.873   112649285.528        -213.281          23.000  
> 2021  9 12 11  1  4.9980298  0  3
C09  37724234.656   196440098.912       -1385.439          28.000  
C23  23268867.698   121167087.1461        376.889          22.000  
G32  21436225.010   112648238.619        -213.763          22.000  
> 2021  9 12 11  1  5.9980291  0  3
C09  37724290.117   196440391.325       -1385.309          26.000  
G10  20292478.709   106637662.2621      -2338.683          32.000  
G32  21436054.428   112647349.957        -214.741          24.000  
> 2021  9 12 11  1  6.9980280  0  3
C23  23268182.073   121163530.0431        371.676          20.000  
G10  20292595.029   106638267.584       -2337.814          31.000  
G32  21435765.129   112645831.920        -215.379          23.000  
> 2021  9 12 11  1  7.9980273  0  4
C09  37724280.824   196440354.3921      -1386.218          25.000  
C23  23267901.467   121162065.243         371.824          23.000  
G10  20292829.167   106639503.147       -2338.720          31.000  
G32  21435595.146   112644944.338        -215.177          22.000  
> 2021  9 12 11  1  8.9980265  0  4
C09  37724306.606   196440491.360       -1385.583          24.000  
C23  23267590.282   121160444.196         372.965          23.000  
G10  20293034.525   106640581.945       -2339.567          30.000  
G32  21435394.285   112643898.248        -213.904          23.000  
> 2021  9 12 11  1  9.9980255  0  3
C09  37724272.130   196440315.188       -1383.923          25.000  
C23  23267217.041   121158510.130         372.051          22.000  
G10  20293178.125   106641346.817       -2340.760          29.000  
> 2021  9 12 11  1 10.9980247  0  3
C09  37724298.512   196440450.199       -1383.842          26.000  
C23  23266905.257   121156888.535         373.315          25.000  
G10  20293381.384   106642427.451       -2341.629          28.000  
> 2021  9 12 11  1 11.9980237  0  1
C09  37724266.734   196440273.365       -1384.871          27.000  
> 2021  9 12 11  1 12.9980229  0  3
C09  37724292.216   196440408.160       -1382.869          24.000  
C23  23266222.929   121153332.3511        370.795          18.000  
G32  21434468.826   112639072.2261       -211.155          17.000  
> 2021  9 12 11  1 13.9980221  0  4
C09  37724317.099   196440542.854       -1383.753          23.000  
C23  23265909.946   121151713.008         369.169          18.000  
G10  20293936.300   106645362.8261      -2344.777          19.000  
G32  21434261.370   112638025.795        -218.033          16.000  
> 2021  9 12 11  1 14.9980211  0  4
C09  37724283.522   196440364.714       -1383.971          21.000  
C23  23265537.304   121149782.207         369.316          18.000  
G10  20294080.201   106646131.883       -2343.177          19.000  
G32  21434006.846   112636668.332        -213.522          15.000  
> 2021  9 12 11  1 15.9980204  0  2
C09  37724338.684   196440655.919       -1384.564          18.000  
G32  21433837.163   112635778.121        -211.652          15.000  
> 2021  9 12 11  1 16.9980196  0  2
C09  37724363.267   196440790.061       -1382.857          18.000  
G10  20294529.889   106648456.3191      -2344.463          20.000  
> 2021  9 12 11  1 17.9980188  0  2
G10  20294737.046   106649540.696       -2345.102          20.000  
G32  21433440.538   112633676.5621       -211.188          13.000  
> 2021  9 12 11  1 18.9980178  0  2
C09  37724357.870   196440750.1681      -1386.258          19.000  
G32  21433180.318   112632314.059        -216.347          12.000  
> 2021  9 12 11  1 19.9980170  0  2
C09  37724384.252   196440886.174       -1384.910          23.000  
G10  20295082.707   106651392.1611      -2345.230          30.000  
> 2021  9 12 11  1 20.9980160  0  2
C09  37724349.776   196440709.375       -1385.647          21.000  
G10  20295229.605   106652163.061       -2347.896          31.000  
> 2021  9 12 11  1 21.9980152  0  2
C09  37724378.256   196440845.418       -1384.107          27.000  
G10  20295437.961   106653250.962       -2348.657          31.000  
> 2021  9 12 11  1 22.9980145  0  1
G10  20295675.996   106654496.716       -2349.001          29.000  
> 2021  9 12 11  1 23.9980134  0  2
C09  37724369.263   196440803.4681      -1383.351          24.000  
G10  20295794.114   106655113.898       -2350.481          31.000  
> 2021  9 12 11  1 24.9980127  0  3
C09  37724424.724   196441094.165       -1383.738          22.000  
G10  20296032.449   106656361.850       -2351.013          33.000  
G32  21431914.894   112625582.0141       -217.524          24.000  
> 2021  9 12 11  1 25.9980119  0  3
G10  20296241.704   106657452.062       -2349.939          34.000  
G31  21360653.927   112250993.0531       -333.205          25.000  
G32  21431714.633   112624538.473        -215.396          23.000  
> 2021  9 12 11  1 26.9980109  0  3
G10  20296392.200                       -2351.787          36.000  
G31  21360415.292   112249750.186        -331.956          23.000  
G32  21431454.113   112623177.431        -212.095          21.000  
> 2021  9 12 11  1 27.9980101  0  2
G10  20296597.858   106659351.8651      -2350.573          34.000  
G31  21360233.618   112248822.023        -331.307          21.000  
> 2021  9 12 11  1 28.9980091  0  3
G10  20296745.356   106660128.630       -2352.044          31.000  
G31  21359993.784   112247578.399        -332.620          18.000  
G32  21430990.634   112620767.4311       -213.885          19.000  
> 2021  9 12 11  1 29.9980086  0  2
G10  20297046.047   106661693.818       -2353.436          35.000  
G32  21430880.910   112620193.815        -214.661          25.000  
> 2021  9 12 11  1 30.9980076  0  2
G10  20297191.147   106662472.062       -2354.156          30.000  
G32  21430620.990   112618832.290        -213.443          27.000  
> 2021  9 12 11  1 31.9980065  0  1
G10  20297314.961   106663093.481       -2354.994          30.000  
> 2021  9 12 11  1 32.9980058  0  2
G10  20297551.797   106664345.689       -2356.437          31.000  
G32  21430159.609   112616426.9301       -215.678          25.000  
> 2021  9 12 11  1 33.9980050  0  3
C09  37724494.876   196441522.8521      -1380.715          23.000  
G10  20297761.652   106665440.932       -2355.675          31.000  
G32  21429960.847   112615382.456        -215.934          26.000  
> 2021  9 12 11  1 34.9980042  0  3
C09  37724520.658   196441655.533       -1381.704          20.000  
G10  20297973.305   106666537.111       -2355.821          31.000  
G32  21429763.583   112614337.976        -215.918          25.000  
> 2021  9 12 11  1 35.9980032  0  2
G10  20298119.005   106667318.624       -2357.602          31.000  
G32  21429504.563   112612978.519        -216.176          26.000  
> 2021  9 12 11  1 36.9980022  0  2
C09  37724449.307   196441299.2251      -1383.470          19.000  
G10  20298270.700   106668100.649       -2357.434          28.000  
> 2021  9 12 11  1 37.9980017  0  3
C16  37337029.912   194423781.2281      -1236.150          20.000  
G10  20298566.295   106669670.534       -2358.286          30.000  
G32  21429139.116   112611047.8581       -216.175          27.000  
> 2021  9 12 11  1 38.9980006  0  3
C16  37336938.176   194423300.102       -1237.485          23.000  
G10  20298682.315   106670296.061       -2359.285          32.000  
G32  21428851.015   112609530.959        -216.381          28.000  
> 2021  9 12 11  1 39.9979999  0  3
C16  37336966.356   194423443.677       -1236.004          24.000  
G10  20298920.050   106671552.834       -2360.028          32.000  
G32  21428682.532   112608644.733        -216.847          29.000  
> 2021  9 12 11  1 40.9979988  0  3
C16  37336874.320   194422962.452       -1236.320          25.000  
G10  20299039.068   106672180.824       -2360.747          33.000  
G32  21428393.532   112607128.462        -216.796          29.000  
> 2021  9 12 11  1 41.9979983  0  4
C09  37724610.596   196442126.6761      -1378.884          17.000  
C16  37336960.960   194423418.163       -1235.705          25.000  
G10  20299341.258                       -2362.218          32.000  
G32  21428285.307   112606557.581        -216.622          28.000  
> 2021  9 12 11  1 42.9979973  0  4
C09  37724576.119   196441945.763       -1382.843          17.000  
C16  37336898.303   194423092.608       -1235.068          24.000  
G10  20299490.255   106674543.5091      -2361.113          33.000  
G32  21428028.684   112605198.619        -216.601          27.000  
> 2021  9 12 11  1 43.9979963  0  4
C16  37336837.146   194422766.465       -1234.600          24.000  
G10  20299633.256   106675330.434       -2361.232          33.000  
G32  21427769.664   112603839.703        -216.687          27.000  
J01  37667900.955   197946139.9811       -209.574          27.000  
> 2021  9 12 11  1 44.9979955  0  3
C16  37336834.148   194422752.812       -1236.258          25.000  
G32  21427571.801   112602795.916        -216.466          28.000  
J01  37667702.192   197945089.683        -210.397          25.000  
> 2021  9 12 11  1 45.9979948  0  4
C16  37336860.230   194422896.006       -1235.929          24.000  
G10  20300095.536   106677693.2291      -2361.297          31.000  
G32  21427403.317   112601909.684        -216.633          28.000  
J01  37667531.610   197944196.784        -209.384          27.000  
> 2021  9 12 11  1 46.9979937  0  4
C16  37336765.495   194422414.783       -1235.296          25.000  
G10  20300216.053   106678324.186       -2364.666          26.000  
G32  21427113.718   112600393.429        -217.035          26.000  
J01  37667241.411   197942673.216        -208.938          27.000  
> 2021  9 12 11  1 47.9979930  0  4
C16  37336793.076   194422556.673       -1233.753          23.000  
G10  20300451.690   106679586.011       -2364.567          30.000  
G32  21426947.633   112599507.845        -217.258          27.000  
J01  37667071.729   197941779.544        -209.378          27.000  
> 2021  9 12 11  1 48.9979919  0  4
C16  37336702.539   194422074.762       -1236.692          23.000  
G10  20300568.609   106680218.200       -2365.878          33.000  
G32  21426659.532   112597992.257        -217.321          27.000  
J01  37666781.230   197940257.096        -211.270          28.000  
> 2021  9 12 11  1 49.9979914  0  4
G10  20300867.202   106681796.723       -2366.587          33.000  
G32  21426554.305   112597420.392        -215.364          26.000  
J01  37666672.106   197939679.806        -210.360          26.000  
J02  38134579.780   200398725.8821      -2113.329          22.000  
> 2021  9 12 11  1 50.9979904  0  5
C09  37724616.292   196442195.9161      -1377.478          19.000  
E01                                                                                                                                  23787152.197    93345894.3831         13.432          30.000  
G10  20301015.899   106682587.643       -2365.922          29.000  
G32  21426296.184   112596059.346        -213.652          22.000  
J01  37666413.984   197938314.356        -210.012          26.000  
> 2021  9 12 11  1 51.9979894  0  6
C16  37336661.767   194421876.5601      -1234.005          18.000  
E01                                                                                                                                  23786848.507    93344717.933          15.022          29.000  
G10  20301164.296   106683378.160       -2366.449          29.000  
G32  21426038.362   112594698.265        -213.800          24.000  
J01  37666152.265   197936947.978        -208.688          21.000  
J02  38134789.634   200399802.3311      -2112.393          17.000  
> 2021  9 12 11  1 52.9979886  0  4
C16  37336659.069   194421861.248       -1234.750          21.000  
E01                                                                                                                                  23786605.376    93343776.773          12.687          29.000  
G10  20301373.552   106684485.812       -2368.346          30.000  
J02  38134952.122   200400654.864       -2113.897          18.000  
> 2021  9 12 11  1 53.9979878  0  4
E01                                                                                                                                  23786361.944    93342835.613          12.402          29.000  
G10  20301584.006   106685594.163       -2369.553          28.000  
G32  21425641.737   112592608.2131       -216.884          24.000  
J01  37665752.642   197934846.5951       -208.645          21.000  
> 2021  9 12 11  1 54.9979871  0  4
C16  37336681.553   194421987.6741      -1233.958          20.000  
E01                                                                                                                                  23786148.492    93342012.098          14.764          30.000  
G32  21425472.654   112591722.056        -218.022          22.000  
J01  37665581.461   197933952.489        -209.556          22.000  
> 2021  9 12 11  1 55.9979860  0  3
E01                                                                                                                                  23785814.823    93340718.003          12.598          28.000  
G10  20301947.654   106687498.1881      -2370.508          29.000  
G32  21425189.950   112590209.507        -220.480          23.000  
> 2021  9 12 11  1 56.9979850  0  4
C16  37336523.862   194421178.8161      -1234.709          21.000  
E01                                                                                                                                  23785511.733    93339541.553          10.630          26.000  
G10  20302098.749   106688293.214       -2370.263          29.000  
G32  21424933.327   112588853.809        -220.064          27.000  
> 2021  9 12 11  1 57.9979845  0  4
C16  37336612.301   194421633.307       -1235.675          21.000  
E01                                                                                                                                  23785359.139    93338953.328          10.718          27.000  
G10  20302401.840   106689876.285       -2371.133          30.000  
G32  21424826.901   112588286.108        -219.321          26.000  
> 2021  9 12 11  1 58.9979835  0  3
C16  37336551.743   194421307.818       -1235.669          21.000  
G10  20302554.434   106690672.862       -2372.355          34.000  
G32  21424572.677   112586930.605        -219.290          25.000  
> 2021  9 12 11  1 59.9979827  0  2
C16  37336549.944   194421294.672       -1236.052          22.000  
G32  21424378.411   112585889.830        -219.024          24.000  
> 2021  9 12 11  2  0.9979817  0  2
C16  37336487.887   194420970.271       -1236.703          23.000  
G10  20302921.080   106692582.5861      -2372.511          35.000  
> 2021  9 12 11  2  1.9979812  0  4
C16  37336574.228   194421423.621       -1232.645          22.000  
G10  20303225.669                       -2373.290          35.000  
G31  21353779.986   112214762.5841       -345.800          26.000  
G32  21424010.266   112583967.0791       -220.046          24.000  
> 2021  9 12 11  2  2.9979802  0  2
C16  37336512.470   194421094.693       -1232.940          22.000  
G10  20303377.364   106694970.2291      -2376.335          34.000  
> 2021  9 12 11  2  3.9979791  0  4
C16  37336421.933   194420610.109       -1232.762          24.000  
G10  20303500.579   106695612.825       -2375.204          35.000  
G31  21353273.037   112212147.8151       -347.980          25.000  
G32  21423458.948   112581096.6461       -218.332          24.000  
> 2021  9 12 11  2  4.9979784  0  4
C16  37336450.113   194420749.945       -1233.427          26.000  
G10  20303739.813   106696886.391       -2376.914          35.000  
G31  21353126.438   112211393.164        -349.524          25.000  
G32  21423288.066   112580212.044        -218.296          24.000  
> 2021  9 12 11  2  5.9979776  0  4
C16  37336447.415   194420735.061       -1235.623          26.000  
G10  20303954.465   106698002.947       -2378.611          34.000  
G31  21352951.359   112210482.261        -348.894          26.000  
G32  21423090.503   112579170.222        -218.721          24.000  
> 2021  9 12 11  2  6.9979768  0  4
C16  37336447.415   194420721.761       -1235.401          25.000  
G10  20304166.418   106699120.227       -2378.668          34.000  
G31  21352777.180   112209571.756        -350.159          24.000  
G32  21422892.040   112578128.643        -219.149          27.000  
> 2021  9 12 11  2  7.9979758  0  5
C16  37336385.058   194420394.777       -1233.743          25.000  
G10  20304317.513   106699922.868       -2379.663          34.000  
G23  22090312.795   116085377.1951      -4375.220          19.000  
G32  21422630.921   112576772.207        -219.020          27.000  
J01  37662699.855   197918894.0461       -209.946          21.000  
> 2021  9 12 11  2  8.9979748  0  4
C16  37336322.702   194420067.263       -1233.505          25.000  
G10  20304475.804   106700726.176       -2379.084          35.000  
G23  22090844.626   116088178.031       -4379.869          20.000  
G32  21422372.200   112575415.765        -219.130          25.000  
> 2021  9 12 11  2  9.9979743  0  8
C09  37724840.536   196443279.2261      -1380.621          27.000  
C13  37506017.524   195303675.0201      -3043.759          21.000  
C16  37336409.342   194420521.192       -1234.757          24.000  
C23  23247687.361   121056801.7551        350.951          28.000  
G10  20304775.896   106702317.809       -2379.852          33.000  
G23  22091526.055   116091768.382       -4377.547          19.000  
G32  21422264.575   112574847.224        -219.318          26.000  
J01  37662331.411   197916949.8451       -209.781          23.000  
> 2021  9 12 11  2 10.9979732  0  7
C09  37724776.681   196442942.171       -1379.052          28.000  
C16  37336319.404   194420038.612       -1234.531          22.000  
C23  23247290.736   121054733.933         350.507          28.000  
G10  20304896.113   106702964.909       -2379.872          33.000  
G23  22092030.306   116094412.735       -4377.527          20.000  
G32  21421974.975   112573333.247        -219.003          24.000  
J01  37662038.213   197915426.078        -209.998          22.000  
> 2021  9 12 11  2 11.9979725  0  7
C09  37724832.442   196443228.650       -1379.199          27.000  
C16  37336346.085   194420180.369       -1234.583          22.000  
C23  23247013.427   121053290.858         349.276          27.000  
G10  20305141.643   106704242.802       -2379.939          33.000  
G23  22092652.675   116097687.412       -4377.259          20.000  
G32  21421810.389   112572449.537        -219.153          23.000  
J01  37661867.931   197914534.304        -210.511          22.000  
> 2021  9 12 11  2 12.9979715  0  6
C13  37506926.195   195308427.2861      -3037.552          21.000  
C16  37336283.129   194419853.571       -1232.645          21.000  
C23  23246646.182   121051381.083         348.898          28.000  
G10  20305296.935   106705048.616       -2379.460          32.000  
G23  22093183.307   116100489.217       -4377.169          20.000  
G32  21421551.069   112571093.225        -219.544          23.000  
> 2021  9 12 11  2 13.9979707  0  5
C09  37724824.947   196443179.0971      -1380.506          27.000  
C23  23246337.995   121049782.864         348.406          27.000  
G10  20305505.891   106706170.133       -2381.379          31.000  
G32  21421352.606   112570052.821        -220.149          24.000  
J01  37661412.247   197912122.1951       -211.565          21.000  
> 2021  9 12 11  2 14.9979699  0  6
C09  37724850.729   196443309.015       -1377.039          23.000  
C13  37507613.320   195312013.3881      -3044.880          20.000  
C23  23246030.708   121048185.583         348.643          26.000  
G10  20305721.741   106707292.237       -2384.007          32.000  
G31  21351217.360   112201507.1051       -350.623          19.000  
J01  37661212.585   197911072.818        -208.561          22.000  
> 2021  9 12 11  2 15.9979689  0  7
C09  37724813.855   196443126.395       -1378.972          23.000  
C13  37507898.122   195313496.262       -3043.769          20.000  
C16  37336212.378   194419488.6991      -1231.988          22.000  
C23  23245663.462   121046275.777         348.486          29.000  
G10  20305877.034   106708100.025       -2384.761          30.000  
G31  21350983.222   112200282.945        -352.106          19.000  
G32  21420890.626   112567658.7021       -219.821          22.000  
> 2021  9 12 11  2 16.9979681  0  5
C09  37724840.237   196443256.163       -1378.785          25.000  
C13  37508241.085   195315292.418       -3045.769          20.000  
C23  23245356.475   121044678.395         348.285          30.000  
G10  20306092.285   106709223.496       -2384.398          31.000  
G32  21420686.767   112566617.766        -219.416          23.000  
> 2021  9 12 11  2 17.9979674  0  5
C09  37724894.199   196443542.341       -1378.083          25.000  
C16  37336233.363   194419610.1101      -1231.021          22.000  
C23  23245079.766   121043237.536         347.797          29.000  
G10  20306339.314   106710505.059       -2387.446          32.000  
G32  21420517.984   112565734.447        -219.613          26.000  
> 2021  9 12 11  2 18.9979663  0  6
C09  37724831.543   196443202.855       -1376.771          24.000  
C13  37508869.750   195318571.3221      -3043.761          19.000  
C16  37336139.828   194419122.449       -1229.443          23.000  
C23  23244682.541   121041172.377         348.178          30.000  
G10  20306462.229   106711157.173       -2386.424          32.000  
G32  21420229.883   112564220.615        -218.761          25.000  
> 2021  9 12 11  2 19.9979656  0  9
C09  37724886.405   196443487.006       -1376.534          23.000  
C13  37509245.989   195320522.003       -3043.532          19.000  
C16  37336165.910   194419260.054       -1231.392          19.000  
C23  23244404.634   121039731.333         348.128          29.000  
G10  20306701.163   106712440.057       -2386.859          31.000  
G23  22097246.994   116121839.5401      -4380.095          21.000  
G31  21350279.609   112196500.0741       -354.783          24.000  
G32  21420062.599   112563336.325        -218.204          22.000  
J02  38138917.777   200421520.4231      -2114.438          25.000  
> 2021  9 12 11  2 20.9979645  0  5
C09  37724819.551   196443146.886       -1377.112          26.000  
C23  23244007.708   121037666.265         347.715          29.000  
G10  20306823.778   106713093.498       -2387.916          30.000  
G23  22097751.245   116124486.517       -4380.095          22.000  
J02  38138991.825   200421902.344       -2115.398          26.000  
> 2021  9 12 11  2 21.9979640  0  6
C09  37724933.772   196443742.618       -1375.260          25.000  
C23  23243791.258   121036538.518         346.026          29.000  
G10  20307129.567   106714692.878       -2388.143          32.000  
G31  21349942.342   112194690.2971       -356.146          27.000  
G32  21419671.370   112561254.2471       -220.613          23.000  
J02  38139242.452   200423229.980       -2115.338          24.000  
> 2021  9 12 11  2 22.9979630  0  9
C09  37724900.195   196443557.232       -1376.200          26.000  
C13  37510222.114   195325595.4251      -3041.454          19.000  
C16  37336094.859   194418900.0971      -1234.365          20.000  
C23  23243424.612   121034631.185         346.110          27.000  
G10  20307285.159   106715505.194       -2388.763          32.000  
G23  22098973.199   116130886.0021      -4383.227          22.000  
G31  21349710.303   112193470.712        -355.822          25.000  
G32  21419410.850   112559899.742        -221.233          22.000  
J02  38139344.381   200423768.891       -2113.512          23.000  
> 2021  9 12 11  2 23.9979622  0  6
C09  37724925.378   196443684.544       -1376.020          24.000  
C23  23243119.123   121033035.667         346.874          31.000  
G10  20307498.611   106716633.088       -2388.236          35.000  
G23  22099572.185   116134009.000       -4382.597          22.000  
G31  21349541.220   112192565.533        -354.649          26.000  
J02  38139506.569   200424622.596       -2114.633          22.000  
> 2021  9 12 11  2 24.9979612  0  7
C09  37724890.901   196443498.827       -1375.681          24.000  
C23  23242753.377   121031127.875         346.542          29.000  
G10  20307653.604   106717446.319       -2389.087          35.000  
G23  22100105.515   116136816.666       -4383.397          22.000  
G31  21349312.778   112191345.463        -356.423          26.000  
G32  21418951.868   112557504.1561       -220.835          22.000  
J02  38139610.597   200425161.295       -2114.296          22.000  
> 2021  9 12 11  2 25.9979604  0  6
C09  37724915.185   196443625.875       -1376.333          24.000  
C23  23242449.087   121029533.366         344.644          28.000  
G10  20307865.557   106718575.277       -2388.732          34.000  
G31  21349141.597   112190442.352        -357.504          26.000  
G32  21418751.907   112556464.297        -219.754          23.000  
J02  38139773.085   200426015.393       -2116.039          23.000  
> 2021  9 12 11  2 26.9979597  0  7
C09  37724970.946   196443909.981       -1377.744          21.000  
C16  37336056.786   194418678.7541      -1231.163          20.000  
C23  23242174.178   121028096.030         344.895          27.000  
G10  20308108.389   106719862.378       -2390.674          33.000  
G31  21349000.095   112189697.522        -357.902          26.000  
G32  21418581.025   112555581.571        -220.268          23.000  
J02  38139963.453   200427028.931       -2116.387          20.000  
> 2021  9 12 11  2 27.9979587  0  5
C23  23241809.330   121026189.930         345.147          26.000  
G10  20308263.981   106720677.606       -2388.679          33.000  
G31  21348768.355   112188479.387        -356.684          26.000  
G32  21418318.707   112554227.255        -220.497          17.000  
J02  38140067.181   200427569.416       -2115.087          24.000  
> 2021  9 12 11  2 28.9979579  0  5
C09  37724961.053   196443856.4321      -1377.028          23.000  
C23  23241503.242   121024596.206         345.142          29.000  
G10  20308483.729   106721808.636       -2390.045          32.000  
G31  21348593.576   112187576.128        -357.241          25.000  
G32  21418122.942   112553189.826        -224.053          18.000  
> 2021  9 12 11  2 29.9979569  0  4
C09  37724924.778   196443671.837       -1376.618          25.000  
C23  23241136.296   121022690.841         344.201          26.000  
G10  20308640.521   106722625.040       -2391.274          32.000  
J02  38140332.797   200428964.8951      -2116.119          21.000  
> 2021  9 12 11  2 30.9979561  0  6
C09  37724948.162   196443800.185       -1377.458          25.000  
C23  23240829.309   121021097.414         344.379          22.000  
G10  20308853.973   106723756.319       -2392.086          32.000  
G31  21348191.854   112185450.6391       -355.676          17.000  
G32  21417669.956   112550797.1801       -219.628          20.000  
J02  38140495.584   200429821.044       -2117.009          26.000  
> 2021  9 12 11  2 31.9979553  0  6
C09  37724973.344   196443928.098       -1375.911          27.000  
C16  37335925.177   194417966.2861      -1228.808          18.000  
C23  23240527.118   121019505.174         342.710          28.000  
G10  20309066.526   106724888.278       -2392.652          33.000  
G31  21348018.574   112184547.279        -357.442          17.000  
J02  38140657.472   200430677.755       -2115.946          25.000  
> 2021  9 12 11  2 32.9979543  0  6
C09  37724937.669   196443743.763       -1376.870          26.000  
C23  23240164.069   121017600.280         343.239          22.000  
G10  20309226.015   106725706.509       -2394.216          31.000  
G31  21347788.933   112183330.363        -357.819          16.000  
G32  21417220.267   112548395.9741       -219.168          19.000  
J02  38140759.402   200431218.045       -2115.332          28.000  
> 2021  9 12 11  2 33.9979535  0  5
C09  37724960.753   196443871.326       -1375.454          25.000  
C23  23239859.780   121016008.233         343.917          22.000  
G10  20309439.767   106726840.243       -2394.032          31.000  
G32  21417039.792   112547361.840        -228.427          18.000  
J02  38140922.489   200432073.064       -2115.380          28.000  
> 2021  9 12 11  2 34.9979528  0  7
C09  37725014.416   196444153.656       -1375.084          23.000  
C16  37335884.405   194417751.8331      -1230.629          19.000  
C23  23239585.470   121014572.948         339.780          23.000  
G10  20309683.499   106728131.667       -2394.720          32.000  
G31  21347471.453   112181690.9991       -361.950          15.000  
G32  21416871.908   112546485.117        -223.862          18.000  
J02  38141115.255   200433085.297       -2114.969          26.000  
> 2021  9 12 11  2 35.9979520  0  7
C09  37725039.299   196444280.269       -1376.091          25.000  
C16  37335880.508   194417732.838       -1230.980          20.000  
C23  23239280.581   121012983.961         340.288          23.000  
G10  20309898.150   106729265.145       -2393.563          30.000  
G31  21347298.473   112180792.275        -361.752          16.000  
G32  21416673.146   112545446.830        -220.970          18.000  
J02  38141279.242   200433940.412       -2115.696          27.000  
> 2021  9 12 11  2 36.9979510  0  5
C09  37725005.122   196444095.740       -1377.486          25.000  
C23  23238914.534   121011081.379         343.196          29.000  
G10  20310053.443   106730083.902       -2394.931          29.000  
G32  21416416.224   112544091.195        -219.351          19.000  
J02  38141384.469   200434480.173       -2115.018          27.000  
> 2021  9 12 11  2 37.9979500  0  3
C23  23238548.188   121009178.014         341.914          23.000  
G32  21416159.901   112542735.423        -220.922          21.000  
J02  38141487.298   200435020.363       -2116.875          28.000  
> 2021  9 12 11  2 38.9979494  0  6
C16  37335802.862   194417363.9761      -1229.168          22.000  
C23  23238300.559   121007899.269         341.520          25.000  
G10  20310486.942   106732356.3801      -2397.859          29.000  
G31  21346727.068   112177782.5891       -363.226          19.000  
G32  21416032.189   112542009.861        -219.979          21.000  
J02  38141710.044   200436191.417       -2115.979          26.000  
> 2021  9 12 11  2 39.9979484  0  5
C16  37335741.404   194417033.398       -1230.718          22.000  
C23  23237933.014   121005997.100         340.128          27.000  
G10  20310642.535   106733179.330       -2398.887          26.000  
G32  21415777.066   112540654.418        -221.043          20.000  
J02  38141813.772   200436731.769       -2115.867          26.000  
> 2021  9 12 11  2 40.9979476  0  5
C16  37335738.406   194417015.372       -1230.488          22.000  
C23  23237625.427   121004407.125         341.729          26.000  
G10  20310858.086   106734317.839       -2399.101          31.000  
G31  21346331.043   112175671.5411       -361.800          21.000  
J02  38141974.161   200437587.200       -2115.675          24.000  
> 2021  9 12 11  2 41.9979466  0  2
C23  23237260.879   121002501.598         345.661          19.000  
J02  38142075.790   200438126.781       -2114.512          24.000  
> 2021  9 12 11  2 42.9979459  0  4
C16  37335703.630   194416818.8631      -1227.700          22.000  
C23  23236982.372   121001061.523         348.596          18.000  
G10  20311268.801   106736438.8401      -2400.676          36.000  
J02  38142267.058   200439139.149       -2116.109          24.000  
> 2021  9 12 11  2 43.9979451  0  5
C16  37335698.534   194416796.826       -1228.876          21.000  
C23  23236676.883   120999463.486         347.265          17.000  
G10  20311484.952   106737579.238       -2400.807          31.000  
G31  21345792.915   112172809.3001       -362.756          19.000  
J02  38142429.246   200439994.644       -2115.699          25.000  
> 2021  9 12 11  2 44.9979441  0  4
C23  23236310.537   120997556.431         344.729          16.000  
G10  20311639.944   106738404.617       -2401.195          29.000  
G31  21345563.574   112171597.885        -365.073          17.000  
J02  38142530.875   200440534.909       -2115.819          27.000  
> 2021  9 12 11  2 45.9979433  0  4
C23  23236006.547   120995964.174         340.915          15.000  
G10  20311854.895   106739545.920       -2402.092          29.000  
G31  21345392.392   112170704.888        -370.488          14.000  
G32  21414495.453   112533935.7701       -221.584          16.000  
> 2021  9 12 11  2 46.9979425  0  6
C16  37335629.881   194416421.6181      -1226.908          20.000  
C23  23235700.459   120994375.856         338.021          13.000  
G10  20312071.346   106740687.631       -2402.283          27.000  
G31  21345223.909   112169816.876        -374.883          13.000  
G32  21414294.293   112532897.900        -224.035          18.000  
J02  38142859.748   200442238.8381      -2111.254          18.000  
> 2021  9 12 11  2 47.9979415  0  5
C16  37335564.826   194416087.255       -1227.474          21.000  
C23  23235336.811   120992477.707         337.392          10.000  
G10  20312227.238   106741514.811       -2402.987          31.000  
G32  21414029.276   112531546.576        -223.262          18.000  
J02  38142963.176   200442774.474       -2111.116          20.000  
> 2021  9 12 11  2 48.9979407  0  2
C16  37335559.430   194416066.669       -1228.557          21.000  
J02  38143126.563   200443626.190       -2112.433          21.000  
> 2021  9 12 11  2 49.9979397  0  5
C16  37335495.874   194415733.173       -1227.167          21.000  
C23  23234666.475   120988991.8191        335.634          11.000  
G10  20312601.978   106743487.6781      -2404.557          33.000  
G31  21344585.351   112166521.8361       -370.188          12.000  
G32  21413571.193   112529160.1681       -230.377          19.000  
> 2021  9 12 11  2 50.9979392  0  2
C23  23234453.922   120987874.484         336.876          13.000  
J02  38143484.215   200445491.8191      -2115.580          23.000  
> 2021  9 12 11  2 51.9979382  0  3
C16  37335516.860   194415843.7881      -1226.179          21.000  
C23  23234089.075   120985976.797         336.051          27.000  
G10  20313078.648   106745935.3821      -2405.076          35.000  
> 2021  9 12 11  2 52.9979374  0  5
C16  37335515.061   194415820.904       -1226.364          20.000  
C23  23233784.785   120984392.503         335.094          25.000  
G10  20313298.996                       -2407.295          36.000  
G31  21344104.184   112164005.1921       -365.223          16.000  
J02  38143745.035   200446882.6021      -2113.588          24.000  
> 2021  9 12 11  2 53.9979364  0  4
C23  23233422.636   120982496.236         335.502          25.000  
G10  20313455.787   106747937.7421      -2406.820          38.000  
G32  21412741.667   112524865.0831       -220.887          26.000  
J02  38143847.264   200447422.141       -2115.365          28.000  
> 2021  9 12 11  2 54.9979356  0  5
C16  37335448.807   194415463.6351      -1226.299          19.000  
C23  23233118.946   120980911.647         335.702          30.000  
G10  20313673.736   106749084.544       -2408.013          39.000  
G31  21343710.257   112161898.1761       -364.421          26.000  
J02  38144011.550   200448277.521       -2115.983          25.000  
> 2021  9 12 11  2 55.9979348  0  7
C16  37335444.310   194415441.844       -1227.453          25.000  
C23  23232814.957   120979327.195         335.070          29.000  
G10  20313890.786   106750232.752       -2408.108          40.000  
G31  21343540.275   112161002.992        -365.829          18.000  
G32  21412344.143   112522785.3231       -219.076          24.000  
J01  37652339.927   197864397.9121       -211.014          29.000  
J02  38144171.939   200449132.091       -2113.574          26.000  
> 2021  9 12 11  2 56.9979338  0  4
G10  20314049.076   106751066.524       -2409.650          38.000  
G31  21343307.636   112159788.483        -360.383          17.000  
G32  21412084.522   112521429.807        -220.319          23.000  
J01  37652081.207   197863033.680        -211.216          29.000  
> 2021  9 12 11  2 57.9979331  0  4
G10  20314297.305   106752373.347       -2409.968          39.000  
G31  21343167.033   112159047.321        -363.898          16.000  
J01  37651913.623   197862142.041        -211.596          29.000  
J02  38144464.836   200450680.0831      -2112.476          21.000  
> 2021  9 12 11  2 58.9979323  0  6
C23  23231868.512   120974415.8081        333.019          18.000  
C33  22475161.769   117034047.6851      -2358.056          22.000  
G10  20314516.453   106753523.435       -2410.445          40.000  
G31  21342994.952   112158150.793        -359.092          14.000  
J01  37651713.661   197861092.979        -211.286          28.000  
J02  38144628.523   200451532.957       -2114.727          23.000  
> 2021  9 12 11  2 59.9979313  0  5
C33  22475316.762   117034845.183       -2358.786          21.000  
G10  20314675.643   106754359.269       -2411.541          39.000  
G31  21342757.516   112156934.808        -361.717          13.000  
J01  37651452.542   197859728.907        -211.669          26.000  
J02  38144731.952   200452072.400       -2114.731          25.000  
> 2021  9 12 11  3  0.9979305  0  6
C23  23231203.572   120970941.4041        333.295          19.000  
C33  22475533.512   117035954.769       -2358.174          19.000  
G10  20314892.992   106755510.818       -2412.565          39.000  
G31  21342587.234   112156038.102        -362.424          12.000  
J01  37651254.679   197858680.095        -211.856          25.000  
J02  38144898.037   200452926.372       -2114.196          23.000  
> 2021  9 12 11  3  1.9979295  0  5
C23  23230840.824   120969047.748         332.085          19.000  
C33  22475689.404   117036753.395       -2361.502          20.000  
G10  20315053.981   106756347.764       -2413.174          39.000  
J01  37650996.857   197857316.379        -211.370          27.000  
J02  38144999.666   200453466.197       -2115.602          24.000  
> 2021  9 12 11  3  2.9979290  0  5
C23  23230628.870   120967934.850         331.740          20.000  
G10  20315363.966   106757972.864       -2413.399          37.000  
G31  21342279.347   112154403.7151       -368.610          16.000  
J01  37650888.632   197856740.191        -211.565          27.000  
J02  38145251.492   200454793.990       -2115.542          22.000  
> 2021  9 12 11  3  3.9979279  0  5
C09  37725211.380   196445151.9011      -1374.070          28.000  
C23  23230235.842   120965887.080         330.187          21.000  
G10  20315492.277   106758653.373       -2413.983          37.000  
J01  37650599.033   197855218.729        -211.239          27.000  
J02  38145321.044   200455177.912       -2117.418          23.000  
> 2021  9 12 11  3  4.9979269  0  5
C09  37725175.405   196444964.802       -1373.834          25.000  
C23  23229870.695   120963994.991         331.042          26.000  
G10  20315653.266   106759492.022       -2414.571          37.000  
G31  21341794.583   112151838.8831       -373.708          21.000  
J01  37650337.913   197853854.144        -211.083          26.000  
> 2021  9 12 11  3  5.9979261  0  5
C09  37725199.388   196445090.252       -1374.893          20.000  
C23  23229566.106   120962414.342         331.685          24.000  
G10  20315869.716   106760646.378       -2415.616          36.000  
G32  21410149.362   112511312.0871       -223.629          18.000  
J01  37650137.652   197852804.875        -211.293          27.000  
> 2021  9 12 11  3  6.9979254  0  7
C09  37725252.751   196445371.624       -1373.675          23.000  
C23  23229292.995   120960989.964         330.907          26.000  
C33  22476733.881   117042155.7551      -2359.121          18.000  
G10  20316120.343   106761959.071       -2417.297          37.000  
G31  21341498.388   112150224.4361       -374.506          22.000  
J01  37649969.169   197851912.478        -209.341          27.000  
J02  38145786.921   200457590.1621      -2118.619          23.000  
> 2021  9 12 11  3  7.9979246  0  5
C09  37725275.835   196445496.729       -1373.630          22.000  
C23  23228991.104   120959410.664         329.460          25.000  
G10  20316342.189   106763114.842       -2416.023          37.000  
G31  21341331.703   112149339.225        -374.875          22.000  
J01  37649769.507   197850861.338        -210.103          26.000  
> 2021  9 12 11  3  8.9979236  0  5
C09  37725240.759   196445309.187       -1373.478          20.000  
G10  20316503.477   106763955.966       -2417.954          37.000  
G31  21341105.360   112148138.537        -374.519          22.000  
J01  37649509.587   197849495.552        -209.512          24.000  
J02  38146055.235   200458990.8961      -2117.905          21.000  
> 2021  9 12 11  3  9.9979228  0  5
C23  23228322.867   120955943.5531        328.388          20.000  
G10  20316722.925   106765112.943       -2418.192          37.000  
G31  21340938.676   112147252.525        -374.609          22.000  
J01  37649310.225   197848445.816        -211.585          25.000  
J02  38146220.721   200459849.264       -2119.421          23.000  
> 2021  9 12 11  3 10.9979220  0  4
C23  23228020.976   120954365.993         328.652          23.000  
G10  20316941.474   106766270.651       -2418.433          37.000  
G32  21409151.053   112505971.7561       -223.507          18.000  
J01  37649109.964   197847396.300        -211.783          25.000  
> 2021  9 12 11  3 11.9979210  0  7
C09  37725241.359   196445363.4921      -1370.255          22.000  
C23  23227659.426   120952475.808         329.138          26.000  
C33  22477690.519   117047105.9471      -2367.715          14.000  
G10  20317100.064   106767113.690       -2419.635          37.000  
G31  21340542.050   112145163.0111       -372.127          21.000  
G32  21408895.930   112504620.471        -224.651          18.000  
J01  37648850.343   197846032.308        -211.169          27.000  
> 2021  9 12 11  3 12.9979203  0  7
C09  37725292.324   196445641.678       -1371.837          21.000  
C23  23227386.315   120951054.926         327.034          25.000  
C33  22477936.648   117048386.287       -2373.911          13.000  
G10  20317353.389   106768430.158       -2420.760          36.000  
G31  21340399.649   112144432.963        -373.217          21.000  
G32  21408726.547   112503742.015        -224.596          18.000  
J01  37648677.663   197845140.237        -210.875          25.000  
> 2021  9 12 11  3 13.9979192  0  6
C09  37725225.470   196445295.348       -1371.203          22.000  
C23  23226991.189   120949009.810         328.213          24.000  
G10  20317484.698   106769117.178       -2419.556          36.000  
G31  21340140.928   112143073.784        -374.791          20.000  
G32  21408437.247   112502233.000        -223.341          19.000  
J01  37648385.665   197843618.202        -210.849          23.000  
> 2021  9 12 11  3 14.9979187  0  6
C09  37725338.192   196445884.998       -1369.861          22.000  
C23  23226778.036   120947900.717         327.730          25.000  
C33  22478373.746   117050644.0801      -2385.125          10.000  
G10  20317795.883   106770750.116       -2421.702          36.000  
G32  21408329.322   112501668.801        -224.028          19.000  
J01  37648275.341   197843041.668        -210.134          24.000  
> 2021  9 12 11  3 15.9979177  0  4
C09  37725303.116   196445694.371       -1368.560          22.000  
C23  23226417.086   120946012.404         326.782          24.000  
G10  20317955.372   106771595.877       -2421.637          36.000  
J01  37648015.721   197841677.068        -209.874          25.000  
> 2021  9 12 11  3 16.9979167  0  4
C09  37725268.940   196445503.100       -1371.179          22.000  
C23  23226055.536   120944124.428         326.335          24.000  
G10  20318117.860   106772442.407       -2422.448          36.000  
J01  37647758.199   197840313.342        -212.133          25.000  
> 2021  9 12 11  3 17.9979159  0  5
C09  37725295.621   196445625.911       -1372.001          23.000  
C23  23225756.343   120942549.806         326.048          24.000  
G10  20318337.308   106773604.611       -2423.263          36.000  
G31  21339437.015   112139380.1901       -379.899          16.000  
J01  37647559.437   197839264.344        -211.491          23.000  
> 2021  9 12 11  3 18.9979151  0  4
C09  37725318.106   196445749.064       -1371.214          22.000  
C23  23225455.951   120940974.629         325.675          26.000  
G10  20318558.555   106774767.348       -2425.161          35.000  
J01  37647358.876   197838215.251        -212.138          24.000  
> 2021  9 12 11  3 19.9979144  0  4
C09  37725370.270   196446029.561       -1375.409          13.000  
C23  23225183.740   120939555.701         326.175          26.000  
G10  20318807.682   106776088.392       -2423.991          34.000  
J01  37647192.791   197837324.555        -211.950          24.000  
> 2021  9 12 11  3 20.9979133  0  4
C09  37725304.915   196445689.236       -1376.936          19.000  
C23  23224790.112   120937513.553         324.611          25.000  
G10  20318943.788   106776780.454       -2427.245          28.000  
G32  21406964.667   112494520.2891       -226.669          17.000  
> 2021  9 12 11  3 21.9979126  0  3
G10  20319193.815   106778105.278       -2427.539          28.000  
G31  21338736.700   112135691.1061       -376.946          17.000  
G32  21406796.183   112493645.035        -229.251          18.000  
> 2021  9 12 11  3 22.9979118  0  2
G10  20319410.565   106779272.011       -2426.118          24.000  
G32  21406598.620   112492613.273        -227.721          23.000  
> 2021  9 12 11  3 23.9979108  0  2
G10  20319570.654   106780123.128       -2426.335          22.000  
G32  21406339.899   112491263.611        -224.579          24.000  
> 2021  9 12 11  3 24.9979100  0  3
G10  20319791.601   106781289.693       -2426.636          24.000  
G31  21338171.891   112132729.9991       -383.015          19.000  
G32  21406141.137   112490226.354        -222.965          25.000  
> 2021  9 12 11  3 25.9979090  0  1
G10  20319953.789   106782141.534       -2427.832          22.000  
> 2021  9 12 11  3 26.9979085  0  0
> 2021  9 12 11  3 27.9979075  0  0
> 2021  9 12 11  3 28.9979064  0  0
> 2021  9 12 11  3 29.9979057  0  2
G10  20320819.290   106786669.0411      -2433.885          20.000  
G31  21337247.331   112127880.2071       -384.529          18.000  
> 2021  9 12 11  3 30.9979049  0  2
G10  20321044.434   106787842.108       -2433.302          28.000  
G32  21404859.224   112483500.4021       -217.926          17.000  
> 2021  9 12 11  3 31.9979041  0  0
> 2021  9 12 11  3 32.9979031  0  2
G10  20321433.264   106789873.6441      -2433.615          27.000  
G32  21404400.542   112481107.0741       -224.428          19.000  
> 2021  9 12 11  3 33.9979021  0  2
G10  20321596.352   106790732.224       -2434.465          29.000  
G32  21404149.016   112479757.298        -226.631          20.000  
> 2021  9 12 11  3 34.9979013  0  2
G10  20321820.297   106791906.758       -2435.372          31.000  
G32  21403952.052   112478723.012        -226.259          20.000  
> 2021  9 12 11  3 35.9979005  0  1
G10  20322043.342   106793082.113       -2436.260          27.000  
> 2021  9 12 11  3 36.9978998  0  2
G10  20322297.266   106794415.420       -2436.511          29.000  
G32  21403594.100   112476812.0951       -226.400          25.000  
> 2021  9 12 11  3 37.9978988  0  3
G10  20322461.253   106795276.846       -2437.324          29.000  
G31  21335781.646   112120070.0421       -381.495          17.000  
G32  21403336.279   112475462.906        -225.370          23.000  
> 2021  9 12 11  3 38.9978980  0  2
G10  20322683.999   106796454.158       -2437.786          31.000  
G31  21335616.160   112119191.049        -380.459          19.000  
> 2021  9 12 11  3 39.9978972  0  2
G10  20322909.143   106797631.670       -2437.978          26.000  
G32  21402942.351   112473390.7081       -224.239          26.000  
> 2021  9 12 11  3 40.9978962  0  2
G10  20323073.729   106798493.944       -2436.434          26.000  
G31  21335231.826   112117399.8521       -380.502          24.000  
> 2021  9 12 11  3 41.9978954  0  2
G10  20323297.374   106799671.152       -2438.435          32.000  
G32  21402484.568   112471003.6951       -226.035          26.000  
> 2021  9 12 11  3 42.9978944  0  2
G10  20323460.761   106800534.831       -2439.936          31.000  
G31  21334843.295   112115333.3851       -390.245          17.000  
> 2021  9 12 11  3 43.9978939  0  2
G10  20323775.243   106802187.556       -2441.227          29.000  
G32  21402126.016   112469096.5271       -227.148          22.000  
> 2021  9 12 11  3 44.9978929  0  2
G10  20323939.529   106803053.433       -2441.921          25.000  
G32  21401867.895   112467747.305        -224.885          23.000  
> 2021  9 12 11  3 45.9978918  0  2
G10  20324077.434   106803763.045       -2442.983          25.000  
G32  21401579.495   112466239.226        -223.976          20.000  
> 2021  9 12 11  3 46.9978911  0  2
G10  20324334.356   106805103.518       -2443.404          25.000  
G32  21401410.712   112465361.353        -224.926          22.000  
> 2021  9 12 11  3 47.9978903  0  1
G10  20324563.697   106806286.774       -2443.329          28.000  
> 2021  9 12 11  3 48.9978895  0  2
G10  20324790.640   106807470.241       -2444.524          32.000  
G32  21401011.388   112463288.1991       -223.756          19.000  
> 2021  9 12 11  3 49.9978885  0  1
G10  20324955.526   106808340.231       -2445.929          29.000  
> 2021  9 12 11  3 50.9978875  0  2
G10  20325122.510   106809209.538       -2443.019          26.000  
G32  21400501.741   112460588.0271       -225.681          19.000  
> 2021  9 12 11  3 51.9978870  0  1
G10  20325436.993   106810864.809       -2443.731          23.000  
> 2021  9 12 11  3 52.9978860  0  3
G10  20325602.778   106811733.847       -2444.958          23.000  
G31  21333063.128   112106009.6651       -389.875          17.000  
G32  21400138.992   112458681.1181       -229.866          20.000  
> 2021  9 12 11  3 53.9978852  0  2
G10  20325829.421   106812920.341       -2448.168          24.000  
G31  21332897.942   112105139.854        -389.678          18.000  
> 2021  9 12 11  3 54.9978842  0  2
G31  21332671.899   112103953.925        -389.901          19.000  
G32  21399688.704   112456304.4211       -228.622          20.000  
> 2021  9 12 11  3 55.9978834  0  2
G10  20326220.950   106814982.0141      -2449.544          25.000  
G32  21399495.338   112455270.267        -225.228          20.000  
> 2021  9 12 11  3 56.9978826  0  1
G10  20326449.092   106816171.550       -2449.524          23.000  
> 2021  9 12 11  3 57.9978816  0  2
G10  20326616.376   106817045.428       -2449.897          24.000  
G31  21332111.287   112101025.8491       -390.453          20.000  
> 2021  9 12 11  3 58.9978808  0  1
G10  20326841.820   106818235.018       -2450.929          27.000  
> 2021  9 12 11  3 59.9978801  0  2
G10  20327097.243   106819583.724       -2451.884          23.000  
G31  21331805.199   112099443.8201       -391.775          19.000  
> 2021  9 12 11  4  0.9978790  0  3
G10  20327233.649   106820302.340       -2451.994          24.000  
G31  21331547.677   112098104.202        -394.038          19.000  
G32  21398395.699   112449465.4321       -225.023          18.000  
> 2021  9 12 11  4  1.9978783  0  2
G10  20327491.470   106821650.753       -2451.705          25.000  
G32  21398225.417   112448588.234        -225.760          18.000  
> 2021  9 12 11  4  2.9978772  0  1
G10  20327627.876   106822370.192       -2453.407          28.000  
> 2021  9 12 11  4  3.9978767  0  1
G10  20327947.455   106824035.763       -2452.515          23.000  
> 2021  9 12 11  4  4.9978757  0  3
G10  20328112.640   106824913.298       -2453.089          24.000  
G31  21330828.475   112094472.1361       -393.099          31.000  
G32  21397571.270   112445161.6361       -223.233          19.000  
> 2021  9 12 11  4  5.9978749  0  3
G10  20328338.684   106826106.711       -2454.578          27.000  
G31  21330656.993   112093605.310        -394.274          30.000  
G32  21397374.606   112444125.515        -225.039          20.000  
> 2021  9 12 11  4  6.9978739  0  3
G10  20328505.668   106826986.224       -2454.303          27.000  
G31  21330429.751   112092424.508        -395.280          28.000  
G32  21397115.585   112442775.675        -226.954          20.000  
> 2021  9 12 11  4  7.9978732  0  2
G10  20328760.792   106828338.135       -2456.400          26.000  
G31  21330292.146   112091441.637        -396.310          29.000  
> 2021  9 12 11  4  8.9978724  0  2
G10  20328988.634   106829534.095       -2456.788          26.000  
G31  21330126.661   112090576.330        -395.011          30.000  
> 2021  9 12 11  4  9.9978714  0  3
G10  20329156.218   106830415.223       -2456.942          27.000  
G31  21329900.917   112089396.257        -396.218          28.000  
G32  21396479.426   112439515.1881       -225.715          24.000  
> 2021  9 12 11  4 10.9978706  0  2
G10  20329383.760   106831612.304       -2457.981          28.000  
G31  21329734.232   112088532.435        -397.962          28.000  
> 2021  9 12 11  4 11.9978698  0  3
G10  20329611.903   106832810.125       -2458.865          27.000  
G31  21329569.946   112087670.530        -398.717          29.000  
G32  21396078.303   112437149.4311       -223.473          22.000  
> 2021  9 12 11  4 12.9978691  0  3
G10  20329872.122   106834166.929       -2459.415          25.000  
G31  21329436.538   112086966.624        -398.895          27.000  
G32  21395910.120   112436270.208        -224.194          24.000  
> 2021  9 12 11  4 13.9978680  0  3
G10  20330011.226   106834893.268       -2459.827          24.000  
G31  21329184.413   112085632.461        -399.349          29.000  
G32  21395618.422   112434761.642        -225.262          23.000  
> 2021  9 12 11  4 14.9978670  0  3
G10  20330180.609   106835777.473       -2458.067          22.000  
G31  21328964.665   112084456.186        -398.722          28.000  
G32  21395360.900   112433411.991        -226.658          24.000  
> 2021  9 12 11  4 15.9978665  0  3
G10  20330497.789   106837448.866       -2459.508          23.000  
G31  21328892.715   112084067.799        -399.935          25.000  
G32  21395254.474   112432850.696        -225.863          24.000  
> 2021  9 12 11  4 16.9978655  0  3
G10  20330668.371   106838334.187       -2462.304          22.000  
G31  21328669.669   112082891.464        -399.028          29.000  
G32  21394995.753   112431501.697        -226.318          23.000  
> 2021  9 12 11  4 17.9978647  0  3
G10  20330896.213   106839535.428       -2461.296          23.000  
G31  21328505.083   112082030.492        -399.790          32.000  
G32  21394795.191   112430467.481        -225.812          23.000  
> 2021  9 12 11  4 18.9978637  0  3
G10  20331066.496   106840422.432       -2462.999          24.000  
G31  21328281.738   112080855.131        -400.393          29.000  
G32  21394537.970   112429120.298        -229.076          24.000  
> 2021  9 12 11  4 19.9978629  0  2
G10  20331298.535   106841625.002       -2462.312          24.000  
G31  21328121.349   112079995.498        -401.529          23.000  
> 2021  9 12 11  4 20.9978621  0  3
G10  20331527.576   106842828.028       -2463.346          21.000  
G31  21327956.763   112079137.099        -402.890          28.000  
G32  21394152.736   112427059.1431       -229.261          24.000  
> 2021  9 12 11  4 21.9978611  0  1
G31  21327732.218   112077964.403        -402.893          29.000  
> 2021  9 12 11  4 22.9978604  0  1
G31  21327598.511   112077264.214        -402.714          32.000  
> 2021  9 12 11  4 23.9978596  0  1
G31  21327434.524   112076406.642        -402.703          28.000  
> 2021  9 12 11  4 24.9978586  0  2
G10  20332365.796   106847176.0091      -2466.455          23.000  
G31  21327213.277   112075233.278        -402.022          26.000  
> 2021  9 12 11  4 25.9978578  0  1
G31  21327048.691   112074374.620        -401.555          32.000  
> 2021  9 12 11  4 26.9978568  0  3
G10  20332761.522   106849270.1381      -2464.726          20.000  
G31  21326825.646   112073200.435        -400.979          28.000  
G32  21392840.545   112420082.0441       -229.354          24.000  
> 2021  9 12 11  4 27.9978563  0  2
G31  21326751.297   112072814.830        -403.050          24.000  
G32  21392732.320   112419522.383        -226.454          18.000  
> 2021  9 12 11  4 28.9978552  0  2
G10  20333224.102   106851678.5851      -2465.126          22.000  
G31  21326500.371   112071484.540        -403.065          23.000  
> 2021  9 12 11  4 29.9978545  0  2
G10  20333481.923   106853041.873       -2466.867          24.000  
G31  21326367.263   112070785.160        -404.593          21.000  
> 2021  9 12 11  4 30.9978534  0  2
G10  20333623.425   106853777.978       -2471.046          26.000  
G32  21391996.329   112415639.4461       -230.434          25.000  
> 2021  9 12 11  4 31.9978527  0  1
G32  21391828.445   112414768.251        -232.553          23.000  
> 2021  9 12 11  4 32.9978519  0  1
G32  21391631.781   112413741.524        -234.111          26.000  
> 2021  9 12 11  4 33.9978509  0  2
G10  20334279.671   106857255.3491      -2471.474          30.000  
G32  21391373.061   112412400.420        -233.408          24.000  
> 2021  9 12 11  4 34.9978501  0  2
G10  20334507.214   106858467.430       -2474.199          27.000  
G32  21391172.799   112411373.664        -231.202          25.000  
> 2021  9 12 11  4 35.9978493  0  2
G10  20334735.056   106859681.186       -2474.023          28.000  
G32  21390974.936   112410344.443        -232.195          27.000  
> 2021  9 12 11  4 36.9978483  0  2
G10  20334903.239   106860578.876       -2473.234          29.000  
G32  21390718.314   112409001.878        -233.820          25.000  
> 2021  9 12 11  4 37.9978476  0  2
G10  20335161.960   106861949.904       -2474.032          29.000  
G32  21390554.028   112408133.133        -234.380          26.000  
> 2021  9 12 11  4 38.9978465  0  2
G10  20335300.464   106862691.577       -2475.209          31.000  
G32  21390268.625   112406633.849        -229.531          21.000  
> 2021  9 12 11  4 39.9978460  0  2
G10  20335619.144   106864379.305       -2475.994          30.000  
G32  21390163.698   112406075.158        -226.595          23.000  
> 2021  9 12 11  4 40.9978450  0  2
G10  20335791.225   106865279.474       -2475.569          29.000  
G31  21324427.606   112060623.1291       -408.273          17.000  
> 2021  9 12 11  4 41.9978442  0  3
G10  20336021.465   106866494.943       -2476.718          29.000  
G31  21324270.815   112059772.388        -409.541          18.000  
G32  21389704.416   112403693.0151       -225.863          23.000  
> 2021  9 12 11  4 42.9978432  0  2
G10  20336191.448   106867396.867       -2477.896          30.000  
G32  21389446.894   112402343.378        -226.186          19.000  
> 2021  9 12 11  4 43.9978424  0  1
G32  21389244.234   112401311.186        -228.342          20.000  
> 2021  9 12 11  4 44.9978417  0  2
G10  20336685.506   106869991.4571      -2480.072          32.000  
G32  21389072.753   112400436.127        -227.278          21.000  
> 2021  9 12 11  4 45.9978406  0  3
G10  20336829.706   106870738.418       -2479.821          32.000  
G31  21323497.050   112055734.5991       -408.455          19.000  
G32  21388791.548   112398930.803        -226.697          21.000  
> 2021  9 12 11  4 46.9978399  0  2
G10  20337090.225   106872114.826       -2478.803          31.000  
G32  21388627.561   112398054.427        -226.854          21.000  
> 2021  9 12 11  4 47.9978388  0  1
G10  20337232.327   106872861.720       -2480.818          30.000  
> 2021  9 12 11  4 48.9978381  0  1
G10  20337495.845   106874240.040       -2481.708          30.000  
> 2021  9 12 11  4 49.9978373  0  1
G10  20337727.884   106875461.805       -2482.073          30.000  
> 2021  9 12 11  4 50.9978363  0  2
G10  20337899.965   106876368.232       -2481.697          25.000  
G32  21387723.987   112393307.2661       -231.666          19.000  
> 2021  9 12 11  4 51.9978355  0  1
G31  21322443.280   112050160.1241       -414.583          18.000  
> 2021  9 12 11  4 52.9978348  0  1
G10  20338399.419   106878966.3901      -2480.684          25.000  
> 2021  9 12 11  4 53.9978340  0  2
G10  20338633.257   106880187.163       -2481.539          22.000  
G31  21322154.879   112048622.6261       -410.085          19.000  
> 2021  9 12 11  4 54.9978330  0  2
G10  20338805.638   106881094.022       -2482.902          25.000  
G32  21386908.252   112389036.6051       -228.853          20.000  
> 2021  9 12 11  4 55.9978319  0  3
G10  20338951.937   106881843.779       -2482.238          21.000  
G31  21321685.404   112046137.8501       -412.382          19.000  
G32  21386616.254   112387532.402        -229.854          20.000  
> 2021  9 12 11  4 56.9978314  0  1
G10  20339277.511   106883536.858       -2480.810          22.000  
> 2021  9 12 11  4 57.9978304  0  2
G10  20339449.592   106884443.215       -2482.213          25.000  
G31  21321394.606   112044597.0031       -411.760          19.000  
> 2021  9 12 11  4 58.9978296  0  2
G10  20339682.231   106885666.326       -2485.049          23.000  
G31  21321234.816   112043747.729        -412.398          19.000  
> 2021  9 12 11  4 59.9978286  0  2
G10  20339855.811   106886576.348       -2486.022          25.000  
G32  21385804.116   112383257.7391       -232.401          19.000  
> 2021  9 12 11  5  0.9978278  0  3
G10  20340089.649   106887803.260       -2488.280          26.000  
G31  21320856.478   112041735.7531       -411.221          19.000  
G32  21385607.752   112382227.664        -229.272          19.000  
> 2021  9 12 11  5  1.9978271  0  1
G10  20340354.366   106889188.720       -2487.817          23.000  
> 2021  9 12 11  5  2.9978260  0  1
G10  20340495.868   106889943.247       -2487.686          24.000  
> 2021  9 12 11  5  3.9978253  0  2
G10  20340757.587   106891328.167       -2489.597          27.000  
G32  21384982.085   112378975.7451       -229.444          20.000  
> 2021  9 12 11  5  4.9978245  0  2
G10  20340991.425   106892557.035       -2489.702          26.000  
G32  21384781.524   112377943.936        -227.041          20.000  
> 2021  9 12 11  5  5.9978237  0  1
G10  20341225.263   106893786.878       -2490.748          24.000  
> 2021  9 12 11  5  6.9978227  0  1
G10  20341400.342   106894703.075       -2492.467          24.000  
> 2021  9 12 11  5  7.9978217  0  2
G10  20341579.018   106895620.240       -2493.431          25.000  
G32  21384084.506   112374223.2131       -229.626          20.000  
> 2021  9 12 11  5  8.9978212  0  1
G10  20341903.693   106897326.170       -2493.569          24.000  
> 2021  9 12 11  5  9.9978202  0  3
G10  20342080.571   106898245.132       -2495.018          25.000  
G31  21319259.784   112033455.7491       -409.833          16.000  
G32  21383719.359   112372318.7411       -228.604          20.000  
> 2021  9 12 11  5 10.9978194  0  2
G10  20342317.407   106899480.235       -2495.509          23.000  
G32  21383522.695   112371286.860        -228.417          24.000  
> 2021  9 12 11  5 11.9978184  0  3
G10  20342496.982   106900399.774       -2495.056          25.000  
G31  21318877.248   112031443.4861       -413.539          16.000  
G32  21383263.375   112369939.582        -228.360          26.000  
> 2021  9 12 11  5 12.9978176  0  2
G10  20342731.420   106901634.136       -2493.510          25.000  
G32  21383068.809   112368907.579        -228.045          23.000  
> 2021  9 12 11  5 13.9978168  0  2
G10  20342968.556   106902866.996       -2493.568          21.000  
G31  21318554.072   112029755.2281       -418.782          17.000  
> 2021  9 12 11  5 14.9978158  0  2
G10  20343143.035   106903784.884       -2493.505          24.000  
G32  21382613.425   112366528.3541       -228.642          23.000  
> 2021  9 12 11  5 15.9978150  0  3
G10  20343379.272   106905019.405       -2496.073          25.000  
G31  21318169.139   112027758.2621       -416.662          17.000  
G32  21382415.862   112365496.849        -229.309          21.000  
> 2021  9 12 11  5 16.9978143  0  2
G10  20343643.689   106906413.399       -2497.427          24.000  
G32  21382247.978   112364622.775        -228.802          19.000  
> 2021  9 12 11  5 17.9978132  0  2
G10  20343788.488   106907177.162       -2497.221          23.000  
G32  21381970.970   112363120.171        -231.668          20.000  
> 2021  9 12 11  5 18.9978125  0  2
G10  20344052.306   106908571.457       -2497.834          24.000  
G31  21317656.793   112025070.2371       -417.357          18.000  
> 2021  9 12 11  5 19.9978115  0  2
G10  20344228.284   106909494.211       -2497.825          25.000  
G32  21381548.562   112360902.1101       -229.296          18.000  
> 2021  9 12 11  5 20.9978109  0  1
G32  21381412.456   112360186.691        -229.667          20.000  
> 2021  9 12 11  5 21.9978099  0  2
G10  20344696.859   106911969.8621      -2496.013          22.000  
G32  21381156.433   112358841.358        -230.387          21.000  
> 2021  9 12 11  5 22.9978092  0  3
G10  20344962.176   106913363.356       -2497.137          24.000  
G31  21316977.464   112021539.2271       -422.829          18.000  
G32  21380990.948   112357968.813        -230.132          24.000  
> 2021  9 12 11  5 23.9978081  0  3
G10  20345108.175   106914128.834       -2499.834          28.000  
G31  21316728.336   112020229.527        -424.484          17.000  
G32  21380705.845   112356465.792        -228.564          20.000  
> 2021  9 12 11  5 24.9978074  0  2
G10  20345376.189   106915526.339       -2501.125          25.000  
G32  21380538.561   112355593.586        -231.683          23.000  
> 2021  9 12 11  5 25.9978066  0  2
G10  20345611.226   106916767.979       -2502.820          25.000  
G32  21380346.394   112354565.888        -233.448          21.000  
> 2021  9 12 11  5 26.9978056  0  2
G10  20345785.706   106917694.366       -2502.555          26.000  
G32  21380090.072   112353224.277        -234.960          20.000  
> 2021  9 12 11  5 27.9978048  0  2
G10  20346024.640   106918937.596       -2504.158          26.000  
G32  21379894.307   112352197.937        -233.747          23.000  
> 2021  9 12 11  5 28.9978040  0  2
G10  20346263.575   106920181.702       -2504.925          25.000  
G32  21379698.842   112351171.307        -234.308          23.000  
> 2021  9 12 11  5 29.9978030  0  3
G10  20346443.750   106921110.884       -2504.952          23.000  
G31  21315676.664   112014783.5631       -426.467          24.000  
G32  21379441.920   112349829.137        -232.788          24.000  
> 2021  9 12 11  5 30.9978022  0  3
G10  20346679.987   106922356.396       -2505.969          23.000  
G31  21315511.478   112013949.723        -426.064          24.000  
G32  21379245.556   112348801.381        -233.181          23.000  
> 2021  9 12 11  5 31.9978012  0  3
G10  20346858.963   106923287.319       -2507.225          24.000  
G31  21315288.733   112012799.801        -424.959          24.000  
G32  21378990.133   112347460.020        -234.394          24.000  
> 2021  9 12 11  5 32.9978007  0  3
G10  20347186.636   106925007.742       -2508.841          23.000  
G31  21315215.583   112012436.841        -424.520          24.000  
G32  21378884.306   112346906.356        -234.224          26.000  
> 2021  9 12 11  5 33.9977997  0  3
G10  20347362.914   106925941.713       -2509.395          23.000  
G31  21314991.638   112011285.993        -425.418          24.000  
G32  21378627.684   112345565.236        -234.763          24.000  
> 2021  9 12 11  5 34.9977989  0  2
G10  20347600.649   106927189.443       -2508.448          21.000  
G32  21378431.620   112344539.224        -234.444          24.000  
> 2021  9 12 11  5 35.9977979  0  3
G10  20347779.325   106928120.662       -2506.033          24.000  
G31  21314606.705   112009013.7561       -428.080          31.000  
G32  21378175.597   112343198.498        -234.003          21.000  
> 2021  9 12 11  5 36.9977971  0  3
G10  20348019.459   106929365.673       -2506.343          23.000  
G31  21314446.616   112008181.549        -427.824          28.000  
G32  21377978.933   112342171.727        -233.723          25.000  
> 2021  9 12 11  5 37.9977964  0  3
G10  20348287.174   106930769.028       -2505.872          24.000  
G31  21314321.302   112007506.304        -429.057          23.000  
G32  21377811.949   112341303.604        -233.001          23.000  
> 2021  9 12 11  5 38.9977953  0  3
G10  20348436.171   106931542.373       -2508.071          23.000  
G31  21314076.372   112006203.237        -431.324          23.000  
G32  21377525.347   112339803.581        -233.907          23.000  
> 2021  9 12 11  5 39.9977946  0  2
G10  20348701.487   106932947.691       -2508.917          25.000  
G32  21377360.761   112338935.453        -234.280          25.000  
> 2021  9 12 11  5 40.9977938  0  2
G10  20348938.323   106934195.784       -2508.597          25.000  
G32  21377164.097   112337909.726        -235.337          23.000  
> 2021  9 12 11  5 41.9977930  0  3
G10  20349176.658   106935444.971       -2509.762          23.000  
G31  21313635.077   112003876.5631       -434.420          19.000  
G32  21376970.731   112336885.617        -235.571          23.000  
> 2021  9 12 11  5 42.9977920  0  2
G10  20349353.835   106936380.991       -2512.881          27.000  
G32  21376720.404   112335545.396        -237.117          21.000  
> 2021  9 12 11  5 43.9977910  0  2
G10  20349532.212   106937318.863       -2513.959          30.000  
G31  21313207.873   112001593.4371       -434.151          20.000  
> 2021  9 12 11  5 44.9977905  0  2
G10  20349860.785   106939045.178       -2514.341          31.000  
G32  21376360.653   112333652.1181       -232.271          25.000  
> 2021  9 12 11  5 45.9977894  0  1
G10  20350012.480   106939827.788       -2516.623          30.000  
> 2021  9 12 11  5 46.9977887  0  2
G10  20350282.593   106941241.369       -2516.749          32.000  
G32  21375903.170   112331279.1001       -230.394          24.000  
> 2021  9 12 11  5 47.9977876  0  2
G10  20350431.889   106942026.296       -2518.588          32.000  
G32  21375617.768   112329776.265        -230.452          23.000  
> 2021  9 12 11  5 48.9977869  0  1
G10  20350697.505   106943442.208       -2519.050          34.000  
> 2021  9 12 11  5 49.9977861  0  3
G10  20350935.840   106944701.660       -2521.184          37.000  
G31  21312246.439   111996454.4131       -430.407          20.000  
G32  21375252.920   112327882.2641       -237.102          21.000  
> 2021  9 12 11  5 50.9977851  0  3
G10  20351114.217   106945646.495       -2520.111          30.000  
G31  21312032.087   111995312.249        -436.125          20.000  
G32  21375003.793   112326542.733        -236.095          22.000  
> 2021  9 12 11  5 51.9977843  0  3
G10  20351352.852   106946906.134       -2519.728          30.000  
G31  21311874.996   111994489.081        -437.718          20.000  
G32  21374808.028   112325518.844        -237.229          22.000  
> 2021  9 12 11  5 52.9977833  0  2
G10  20351532.727   106947850.374       -2519.654          31.000  
G31  21311660.045   111993353.526        -441.155          20.000  
> 2021  9 12 11  5 53.9977828  0  2
G10  20351861.000   106949583.379       -2522.081          28.000  
G32  21374448.277   112323629.9821       -234.914          21.000  
> 2021  9 12 11  5 54.9977818  0  2
G10  20352041.775   106950531.713       -2524.632          28.000  
G32  21374193.154   112322289.422        -235.565          21.000  
> 2021  9 12 11  5 55.9977807  0  2
G10  20352192.570   106951324.386       -2526.425          29.000  
G32  21373905.953   112320791.321        -235.494          21.000  
> 2021  9 12 11  5 56.9977800  0  2
G31  21311011.294   111989916.7831       -440.330          18.000  
G32  21373738.669   112319921.621        -233.416          21.000  
> 2021  9 12 11  5 57.9977792  0  2
G10  20352704.916   106954015.7281      -2527.758          30.000  
G32  21373541.405   112318895.939        -236.404          22.000  
> 2021  9 12 11  5 58.9977784  0  3
G10  20352950.146   106955283.155       -2529.158          30.000  
G31  21310699.210   111988276.3591       -437.342          18.000  
G32  21373347.439   112317871.445        -235.537          22.000  
> 2021  9 12 11  5 59.9977774  0  2
G10  20353131.820   106956237.507       -2529.696          28.000  
G32  21373089.918   112316532.290        -238.273          22.000  
> 2021  9 12 11  6  0.9977766  0  2
G10  20353376.151   106957506.233       -2528.689          28.000  
G32  21372893.254   112315509.976        -238.400          22.000  
> 2021  9 12 11  6  1.9977759  0  3
G10  20353647.463   106958932.128       -2528.542          30.000  
G31  21310187.164   111985654.3151       -440.793          18.000  
G32  21372725.070   112314645.188        -237.423          21.000  
> 2021  9 12 11  6  2.9977748  0  2
G10  20353799.458   106959728.554       -2530.192          30.000  
G32  21372437.869   112313148.711        -236.069          25.000  
> 2021  9 12 11  6  3.9977741  0  2
G10  20354071.669   106961156.060       -2529.886          29.000  
G31  21309801.931   111983699.2021       -440.198          20.000  
> 2021  9 12 11  6  4.9977731  0  2
G10  20354254.543   106962110.791       -2529.673          27.000  
G32  21372020.858   112310939.6601       -233.548          20.000  
> 2021  9 12 11  6  5.9977725  0  2
G10  20354555.834   106963695.793       -2530.603          24.000  
G32  21371882.054   112310227.532        -233.900          19.000  
> 2021  9 12 11  6  6.9977715  0  2
G10  20354736.309   106964651.412       -2531.938          24.000  
G32  21371623.933   112308887.024        -236.259          19.000  
> 2021  9 12 11  6  7.9977705  0  2
G10  20354917.984   106965608.033       -2532.942          28.000  
G32  21371371.507   112307549.683        -239.159          19.000  
> 2021  9 12 11  6  8.9977697  0  1
G10  20355159.316   106966881.154       -2534.489          32.000  
> 2021  9 12 11  6  9.9977690  0  3
G10  20355430.329   106968313.647       -2535.882          30.000  
G31  21308791.631   111978309.0721       -445.432          19.000  
G32  21371014.455   112305662.9931       -238.753          20.000  
> 2021  9 12 11  6 10.9977682  0  2
G10  20355671.662   106969588.395       -2533.720          27.000  
G32  21370817.191   112304640.176        -237.171          20.000  
> 2021  9 12 11  6 11.9977672  0  1
G10  20355852.736   106970546.964       -2533.875          27.000  
> 2021  9 12 11  6 12.9977661  0  2
G10  20356005.031   106971349.005       -2535.892          30.000  
G31  21308186.350   111975083.9471       -450.421          18.000  
> 2021  9 12 11  6 13.9977656  0  3
G10  20356338.100   106973098.503       -2538.153          31.000  
G31  21308124.592   111974745.368        -449.003          18.000  
G32  21370164.243   112300970.7961       -243.434          20.000  
> 2021  9 12 11  6 14.9977646  0  2
G10  20356521.873   106974062.137       -2540.369          28.000  
G31  21307910.241   111973617.794        -448.489          19.000  
> 2021  9 12 11  6 15.9977638  0  4
C09  37726156.925   196449998.4871      -1353.248          24.000  
G10  20356768.003   106975342.404       -2540.550          29.000  
G31  21307757.347   111972804.432        -446.195          20.000  
G32  21369724.747   112298616.9181       -240.450          21.000  
> 2021  9 12 11  6 16.9977628  0  3
C09  37726114.954   196449790.060       -1350.187          21.000  
G10  20356951.776   106976307.378       -2540.261          27.000  
G32  21369468.425   112297281.014        -239.482          25.000  
> 2021  9 12 11  6 17.9977623  0  3
G10  20357287.543   106978060.422       -2541.803          27.000  
G31  21307474.342   111971334.9531       -445.336          20.000  
G32  21369361.399   112296731.970        -237.987          24.000  
> 2021  9 12 11  6 18.9977613  0  4
C09  37726186.305   196450152.0491      -1351.435          21.000  
G10  20357472.515   106979026.250       -2541.360          29.000  
G31  21307256.993   111970204.270        -443.246          20.000  
G32  21369105.376   112295394.579        -237.531          28.000  
> 2021  9 12 11  6 19.9977603  0  3
G10  20357658.087   106979991.635       -2540.662          31.000  
G31  21307040.543   111969072.446        -445.016          21.000  
G32  21368850.852   112294056.828        -237.306          28.000  
> 2021  9 12 11  6 20.9977595  0  3
G10  20357901.818   106981272.359       -2541.430          30.000  
G31  21306884.651   111968257.990        -446.316          20.000  
G32  21368658.685   112293034.521        -238.809          29.000  
> 2021  9 12 11  6 21.9977587  0  3
G10  20358146.448   106982554.622       -2543.245          28.000  
G31  21306731.457   111967444.869        -448.132          21.000  
G32  21368463.820   112292012.141        -239.101          27.000  
> 2021  9 12 11  6 22.9977580  0  2
G10  20358422.258   106983994.865       -2545.076          27.000  
G32  21368297.436   112291148.763        -239.526          27.000  
> 2021  9 12 11  6 23.9977569  0  3
G10  20358575.451   106984807.064       -2545.450          29.000  
G31  21306361.813   111965509.2621       -451.360          22.000  
G32  21368012.932   112289654.792        -239.253          28.000  
> 2021  9 12 11  6 24.9977559  0  4
C09  37726130.543   196449826.0671      -1351.139          19.000  
G10  20358758.325   106985777.675       -2545.848          29.000  
G31  21306150.759   111964384.317        -450.442          21.000  
G32  21367757.509   112288317.968        -238.147          32.000  
> 2021  9 12 11  6 25.9977554  0  3
G10  20359092.294   106987536.019       -2546.409          30.000  
G31  21306085.404   111964046.912        -450.712          21.000  
G32  21367653.481   112287768.735        -239.415          31.000  
> 2021  9 12 11  6 26.9977544  0  4
C09  37726198.896   196450186.9811      -1354.198          19.000  
G10  20359275.467   106988507.080       -2547.168          29.000  
G31  21305871.952   111962921.795        -450.231          21.000  
G32  21367398.958   112286432.799        -239.411          28.000  
> 2021  9 12 11  6 27.9977536  0  4
C09  37726219.282   196450292.376       -1354.920          20.000  
G10  20359519.798   106989794.159       -2548.114          32.000  
G31  21305715.760   111962113.574        -454.030          23.000  
G32  21367203.193   112285413.122        -241.292          30.000  
> 2021  9 12 11  6 28.9977526  0  4
C09  37726180.609   196450088.255       -1358.355          20.000  
G10  20359705.069   106990766.886       -2548.173          30.000  
G31  21305502.607   111960990.335        -451.014          24.000  
G32  21366948.969   112284078.643        -240.868          30.000  
> 2021  9 12 11  6 29.9977518  0  4
C09  37726202.194   196450196.689       -1355.579          20.000  
G10  20359947.901   106992054.885       -2548.223          32.000  
G31  21305350.613   111960180.747        -450.710          24.000  
G32  21366754.704   112283059.402        -240.257          29.000  
> 2021  9 12 11  6 30.9977510  0  3
C09  37726224.378   196450301.845       -1352.384          21.000  
G31  21305193.821   111959371.935        -452.880          22.000  
G32  21366562.537   112282039.212        -239.817          31.000  
> 2021  9 12 11  6 31.9977500  0  3
G10  20360378.104   106994316.8831      -2549.436          33.000  
G31  21304979.170   111958248.973        -451.736          22.000  
G32  21366310.111   112280703.615        -239.230          30.000  
> 2021  9 12 11  6 32.9977492  0  4
C09  37726209.688   196450195.4731      -1352.350          20.000  
G10  20360621.535   106995606.777       -2550.752          32.000  
G31  21304823.278   111957440.895        -452.291          25.000  
G32  21366116.445   112279682.197        -239.147          34.000  
> 2021  9 12 11  6 33.9977485  0  2
G31  21304697.965   111956791.888        -453.607          24.000  
G32  21365952.159   112278818.589        -239.425          33.000  
> 2021  9 12 11  6 34.9977475  0  1
G31  21304483.013   111955670.270        -453.191          23.000  
> 2021  9 12 11  6 35.9977467  0  2
G31  21304331.318   111954862.931        -452.296          25.000  
G32  21365499.173   112276461.4421       -241.298          33.000  
> 2021  9 12 11  6 36.9977457  0  1
G32  21365241.651   112275126.718        -241.205          30.000  
> 2021  9 12 11  6 37.9977452  0  3
G10  20361858.479                       -2556.770          35.000  
G31  21304051.612   111953405.3951       -452.846          23.000  
G32  21365136.124   112274579.915        -240.649          29.000  
> 2021  9 12 11  6 38.9977441  0  3
G10  20362012.272   107003107.9251      -2556.483          33.000  
G31  21303809.080   111952125.671        -454.442          22.000  
G32  21364850.722   112273087.104        -240.142          32.000  
> 2021  9 12 11  6 39.9977431  0  3
C06  36696398.912   191087778.0371      -1244.787          27.000  
G10  20362194.546   107004086.794       -2553.245          30.000  
G31  21303594.129   111951006.507        -457.193          19.000  
> 2021  9 12 11  6 40.9977423  0  4
C06  36696396.813   191087772.507       -1243.924          23.000  
G10  20362440.676   107005382.540       -2555.085          30.000  
G31  21303438.536   111950202.799        -455.873          21.000  
G32  21364401.633   112270730.5291       -240.367          30.000  
> 2021  9 12 11  6 41.9977416  0  3
C06  36696426.193   191087923.743       -1243.986          26.000  
G31  21303314.722   111949556.375        -456.869          23.000  
G32  21364237.346   112269868.003        -240.290          31.000  
> 2021  9 12 11  6 42.9977408  0  4
C06  36696425.893   191087917.801       -1242.194          26.000  
G10  20362961.715   107008129.5471      -2554.915          31.000  
G31  21303159.729   111948754.084        -458.451          24.000  
G32  21364043.980   112268847.544        -239.688          30.000  
> 2021  9 12 11  6 43.9977398  0  2
C06  36696367.134   191087598.396       -1241.657          24.000  
G32  21363789.756   112267511.536        -239.274          29.000  
> 2021  9 12 11  6 44.9977388  0  4
C06  36696302.378   191087278.436       -1241.548          24.000  
G10  20363333.757   107010090.2801      -2556.488          31.000  
G31  21302732.525   111946518.4571       -457.538          24.000  
G32  21363535.532   112266175.590        -239.644          29.000  
> 2021  9 12 11  6 45.9977382  0  4
C06  36696357.540   191087582.229       -1240.337          22.000  
G10  20363640.745   107011702.386       -2558.436          30.000  
G31  21302643.487   111946031.699        -459.187          20.000  
G32  21363400.326   112265469.870        -240.150          31.000  
> 2021  9 12 11  6 46.9977372  0  4
C06  36696294.884   191087261.315       -1241.763          27.000  
G10  20363829.015   107012685.884       -2559.145          30.000  
G31  21302432.133   111944915.359        -459.082          22.000  
G32  21363146.401   112264134.389        -240.146          31.000  
> 2021  9 12 11  6 47.9977364  0  3
C06  36696295.783   191087254.327       -1242.751          24.000  
G10  20364076.643   107013985.732       -2560.767          31.000  
G31  21302278.340   111944113.520        -457.682          22.000  
> 2021  9 12 11  6 48.9977354  0  4
C06  36696234.326   191086935.490       -1242.048          25.000  
G10  20364264.313   107014970.734       -2560.715          33.000  
G31  21302066.386   111942996.819        -459.084          25.000  
G32  21362703.608   112261778.6721       -240.633          31.000  
> 2021  9 12 11  6 49.9977347  0  3
C06  36696262.806   191087084.093       -1241.034          27.000  
G31  21301952.165   111942352.686        -457.569          21.000  
G32  21362537.823   112260916.554        -240.849          28.000  
> 2021  9 12 11  6 50.9977339  0  4
C06  36696258.909   191087075.214       -1240.449          21.000  
G10  20364790.449   107017727.5631      -2558.824          31.000  
G31  21301797.472   111941549.859        -457.481          24.000  
G32  21362345.056   112259897.743        -243.596          27.000  
> 2021  9 12 11  6 51.9977329  0  4
C06  36696195.952   191086754.448       -1238.297          21.000  
G10  20364976.620   107018712.162       -2561.037          30.000  
G31  21301584.320   111940432.114        -458.468          21.000  
G32  21362092.031   112258564.841        -241.859          28.000  
> 2021  9 12 11  6 52.9977321  0  3
C06  36696195.053   191086743.754       -1238.959          23.000  
G10  20365223.949   107020013.156       -2562.036          31.000  
G32  21361898.365   112257546.073        -241.926          30.000  
> 2021  9 12 11  6 53.9977313  0  2
C06  36696191.755   191086734.191       -1238.939          23.000  
G32  21361704.700   112256527.035        -241.277          31.000  
> 2021  9 12 11  6 54.9977303  0  3
C06  36696129.398   191086412.472       -1238.850          26.000  
G10  20365660.746   107022303.9751      -2564.408          31.000  
G32  21361452.574   112255193.409        -242.361          29.000  
> 2021  9 12 11  6 55.9977295  0  3
C06  36696127.000   191086402.937       -1240.012          23.000  
G10  20365908.375   107023607.187       -2562.768          30.000  
G32  21361258.908   112254175.584        -242.855          26.000  
> 2021  9 12 11  6 56.9977285  0  1
G32  21361005.584   112252842.267        -241.735          24.000  
> 2021  9 12 11  6 57.9977277  0  3
G10  20366343.374   107025897.4751      -2563.634          30.000  
G31  21300518.558   111934999.9011       -459.405          30.000  
G32  21360812.817   112251823.614        -241.322          27.000  
> 2021  9 12 11  6 58.9977270  0  3
G10  20366623.680   107027358.418       -2563.907          29.000  
G31  21300393.544   111934356.639        -458.445          27.000  
G32  21360648.531   112250962.335        -241.844          27.000  
> 2021  9 12 11  6 59.9977260  0  2
G10  20366812.249   107028347.631       -2564.738          29.000  
G31  21300180.392   111933240.070        -460.015          29.000  
> 2021  9 12 11  7  0.9977252  0  3
G10  20367062.876   107029653.240       -2566.053          31.000  
G31  21300027.498   111932440.045        -460.964          26.000  
G32  21360207.236   112248609.7451       -241.962          27.000  
> 2021  9 12 11  7  1.9977244  0  3
G10  20367312.003   107030959.209       -2566.533          30.000  
G31  21299874.304   111931641.140        -462.112          24.000  
G32  21360014.170   112247590.921        -241.970          29.000  
> 2021  9 12 11  7  2.9977236  0  3
G10  20367561.131   107032265.646       -2566.599          30.000  
G31  21299722.009   111930843.634        -463.865          23.000  
G32  21359819.005   112246571.603        -240.553          26.000  
> 2021  9 12 11  7  3.9977226  0  2
G10  20367749.400   107033257.315       -2567.394          31.000  
G32  21359563.882   112245237.475        -240.885          30.000  
> 2021  9 12 11  7  4.9977216  0  2
G10  20367937.670   107034249.572       -2567.830          29.000  
G32  21359307.559   112243902.388        -240.906          30.000  
> 2021  9 12 11  7  5.9977208  0  2
G10  20368188.297   107035557.261       -2568.853          24.000  
G32  21359114.793   112242883.363        -241.347          27.000  
> 2021  9 12 11  7  6.9977201  0  2
G10  20368469.502   107037023.285       -2568.610          27.000  
G32  21358952.305   112242021.988        -241.475          31.000  
> 2021  9 12 11  7  7.9977193  0  2
G10  20368720.728   107038331.064       -2567.262          26.000  
G31  21298893.983   111926379.3061       -463.801          23.000  
> 2021  9 12 11  7  8.9977183  0  2
G10  20368912.895   107039323.162       -2567.771          24.000  
G32  21358510.711   112239672.0941       -242.406          31.000  
> 2021  9 12 11  7  9.9977175  0  3
C16  37329384.005   194383897.7001      -1197.374          26.000  
G10  20369161.723   107040629.703       -2566.466          24.000  
G31  21298538.129   111924471.9681       -465.124          23.000  
> 2021  9 12 11  7 10.9977167  0  2
C16  37329372.014   194383846.408       -1197.630          32.000  
G10  20369412.349   107041936.661       -2568.910          24.000  
> 2021  9 12 11  7 11.9977157  0  3
C16  37329300.363   194383483.245       -1198.818          31.000  
G10  20369602.418   107042929.784       -2569.091          24.000  
G31  21298175.380   111922570.6541       -467.983          21.000  
> 2021  9 12 11  7 12.9977149  0  3
C16  37329286.273   194383433.278       -1199.702          32.000  
G10  20369850.646   107044240.280       -2571.922          26.000  
G32  21357651.506   112235278.8251       -241.266          37.000  
> 2021  9 12 11  7 13.9977139  0  4
C16  37329215.822   194383070.700       -1197.361          30.000  
G10  20370038.316   107045237.545       -2574.241          25.000  
G31  21297820.726   111920674.8311       -469.377          19.000  
G32  21357393.984   112233944.371        -240.686          31.000  
> 2021  9 12 11  7 14.9977134  0  3
C16  37329294.967   194383487.843       -1198.085          26.000  
G10  20370377.981   107047024.768       -2575.859          28.000  
G31  21297760.767   111920356.122        -468.983          20.000  
> 2021  9 12 11  7 15.9977124  0  3
C16  37329223.916   194383124.073       -1197.118          26.000  
G10  20370567.150   107048024.498       -2574.755          27.000  
G32  21357036.631   112232063.6301       -241.057          30.000  
> 2021  9 12 11  7 16.9977116  0  2
G10  20370815.378   107049338.951       -2575.967          25.000  
G32  21356843.265   112231044.117        -241.454          27.000  
> 2021  9 12 11  7 17.9977106  0  3
C16  37329148.069   194382708.5071      -1196.571          27.000  
G10  20371007.545   107050340.323       -2578.455          25.000  
G32  21356591.140   112229710.153        -241.289          30.000  
> 2021  9 12 11  7 18.9977098  0  4
C16  37329138.775   194382655.501       -1194.989          27.000  
G10  20371258.171   107051658.096       -2578.267          25.000  
G31  21297029.273   111916557.0171       -469.885          18.000  
G32  21356397.474   112228690.591        -240.024          30.000  
> 2021  9 12 11  7 19.9977091  0  4
C16  37329159.760   194382757.913       -1196.258          28.000  
G10  20371538.477   107053133.992       -2578.530          26.000  
G31  21296905.759   111915923.686        -468.849          19.000  
G32  21356232.288   112227828.097        -241.450          30.000  
> 2021  9 12 11  7 20.9977080  0  4
C16  37329060.829   194382236.064       -1195.421          25.000  
G10  20371697.367   107053978.608       -2576.490          29.000  
G31  21296665.026   111914658.829        -468.030          20.000  
G32  21355951.682   112226336.815        -241.605          32.000  
> 2021  9 12 11  7 21.9977073  0  3
C16  37329081.215   194382338.621       -1195.327          29.000  
G10  20371977.673   107055452.568       -2577.066          30.000  
G32  21355789.495   112225475.712        -240.576          29.000  
> 2021  9 12 11  7 22.9977065  0  4
C16  37329071.621   194382284.976       -1194.930          31.000  
G10  20372227.700   107056769.656       -2578.175          28.000  
G31  21296386.219   111913230.8841       -469.215          21.000  
G32  21355594.929   112224456.462        -240.996          27.000  
> 2021  9 12 11  7 23.9977055  0  4
C16  37329002.969   194381918.656       -1194.940          28.000  
G10  20372419.268   107057772.838       -2579.167          28.000  
G31  21296176.364   111912124.254        -469.878          21.000  
G32  21355343.104   112223122.665        -242.136          29.000  
> 2021  9 12 11  7 24.9977047  0  3
C16  37328993.076   194381865.046       -1196.050          25.000  
G10  20372668.995   107059091.044       -2579.348          29.000  
G32  21355151.536   112222104.462        -242.673          29.000  
> 2021  9 12 11  7 25.9977037  0  3
C16  37328921.126   194381500.464       -1196.160          24.000  
G10  20372859.663   107060095.252       -2579.887          29.000  
G32  21354898.811   112220771.232        -241.674          27.000  
> 2021  9 12 11  7 26.9977032  0  3
C16  37329000.571   194381913.912       -1193.541          21.000  
G10  20373199.627   107061887.588       -2580.853          30.000  
G32  21354795.383   112220226.101        -243.579          25.000  
> 2021  9 12 11  7 27.9977021  0  2
G10  20373360.616   107062736.482       -2582.754          31.000  
G32  21354512.678   112218735.619        -241.884          25.000  
> 2021  9 12 11  7 28.9977011  0  2
G10  20373552.783   107063744.010       -2583.340          29.000  
G32  21354259.354   112217401.309        -241.031          27.000  
> 2021  9 12 11  7 29.9977004  0  2
G10  20373834.288   107065223.922       -2582.463          31.000  
G32  21354094.468   112216539.066        -240.095          28.000  
> 2021  9 12 11  7 30.9976996  0  3
G10  20374086.413   107066546.193       -2582.375          29.000  
G31  21295077.025   111906124.6151       -471.938          19.000  
G32  21353901.701   112215519.933        -241.588          21.000  
> 2021  9 12 11  7 31.9976988  0  2
G10  20374338.839   107067868.094       -2583.000          28.000  
G32  21353706.836   112214500.183        -240.338          24.000  
> 2021  9 12 11  7 32.9976978  0  1
G10  20374529.507   107068875.337       -2583.689          30.000  
> 2021  9 12 11  7 33.9976970  0  2
G10  20374781.632   107070199.454       -2585.594          29.000  
G32  21353264.942   112212147.1451       -244.310          21.000  
> 2021  9 12 11  7 34.9976963  0  2
G10  20375061.638   107071682.183       -2585.961          27.000  
G32  21353100.656   112211288.816        -245.120          23.000  
> 2021  9 12 11  7 35.9976952  0  2
G10  20375225.625   107072535.331       -2586.366          30.000  
G32  21352820.650   112209800.191        -244.595          22.000  
> 2021  9 12 11  7 36.9976945  0  2
G10  20375507.730   107074018.838       -2586.841          27.000  
G31  21294085.911   111901176.0851       -472.719          18.000  
> 2021  9 12 11  7 37.9976934  0  2
G10  20375670.517   107074871.742       -2586.584          28.000  
G32  21352379.355   112207448.4361       -240.190          19.000  
> 2021  9 12 11  7 38.9976929  0  1
G10  20376014.079   107076670.817       -2587.340          30.000  
> 2021  9 12 11  7 39.9976919  0  2
C25  22065364.366   114900141.8371      -2376.439          29.000  
G10  20376208.944   107077683.035       -2587.709          29.000  
> 2021  9 12 11  7 40.9976911  0  2
C25  22065581.416   114901269.052       -2375.742          31.000  
G10  20376464.367   107079011.715       -2589.971          27.000  
> 2021  9 12 11  7 41.9976901  0  2
C25  22065738.207   114902083.725       -2376.302          29.000  
G10  20376658.033   107080025.696       -2589.035          25.000  
> 2021  9 12 11  7 42.9976893  0  3
C25  22065954.957   114903211.638       -2377.315          28.000  
G10  20376911.658   107081354.032       -2588.084          30.000  
G32  21351388.841   112202214.9371       -243.302          18.000  
> 2021  9 12 11  7 43.9976886  0  3
C25  22066200.487   114904496.041       -2377.518          26.000  
G10  20377194.362   107082840.412       -2590.265          32.000  
G32  21351226.054   112201354.603        -242.584          18.000  
> 2021  9 12 11  7 44.9976876  0  3
C25  22066357.878   114905312.572       -2377.459          28.000  
G10  20377387.428   107083856.055       -2591.333          30.000  
G32  21350972.130   112200020.704        -240.799          18.000  
> 2021  9 12 11  7 45.9976868  0  4
C25  22066575.528   114906440.905       -2377.255          25.000  
G10  20377643.151   107085186.805       -2590.895          30.000  
G31  21292533.886   111893020.3491       -477.401          28.000  
G32  21350774.566   112199001.834        -241.074          19.000  
> 2021  9 12 11  7 46.9976860  0  3
C25  22066792.278   114907569.874       -2378.536          26.000  
G10  20377898.874   107086518.344       -2592.737          29.000  
G31  21292381.891   111892237.482        -477.324          26.000  
> 2021  9 12 11  7 47.9976850  0  2
C25  22066949.069   114908387.882       -2378.515          27.000  
G10  20378091.341   107087535.991       -2593.098          31.000  
> 2021  9 12 11  7 48.9976842  0  4
C25  22067166.119   114909517.030       -2377.312          25.000  
G10  20378345.865   107088869.234       -2594.077          27.000  
G31  21292022.140   111890357.8461       -478.729          21.000  
G32  21350119.820   112195631.8571       -244.666          25.000  
> 2021  9 12 11  7 49.9976832  0  3
C25  22067321.411   114910333.304       -2377.773          27.000  
G10  20378540.730   107089888.131       -2593.942          27.000  
G32  21349864.696   112194300.153        -242.759          23.000  
> 2021  9 12 11  7 50.9976827  0  3
C25  22067629.298   114911931.174       -2379.284          28.000  
G10  20378883.093   107091694.165       -2593.133          30.000  
G32  21349758.869   112193754.659        -243.102          20.000  
> 2021  9 12 11  7 51.9976817  0  3
C25  22067786.689   114912749.226       -2379.155          29.000  
G10  20379075.260   107092712.422       -2593.942          31.000  
G32  21349504.945   112192424.376        -246.525          21.000  
> 2021  9 12 11  7 52.9976809  0  3
C25  22068002.240   114913879.502       -2380.202          26.000  
G10  20379327.685   107094046.351       -2594.913          31.000  
G32  21349310.080   112191411.675        -248.922          18.000  
> 2021  9 12 11  7 53.9976799  0  2
C25  22068159.931   114914699.000       -2381.370          24.000  
G10  20379521.051   107095065.688       -2594.804          31.000  
> 2021  9 12 11  7 54.9976791  0  2
C25  22068378.180   114915831.983       -2382.321          21.000  
G10  20379773.177   107096399.807       -2594.539          30.000  
> 2021  9 12 11  7 55.9976783  0  2
G10  20380026.201   107097735.146       -2596.103          30.000  
G32  21348665.826   112188052.4061       -239.478          21.000  
> 2021  9 12 11  7 56.9976773  0  2
G10  20380219.867   107098755.917       -2596.330          29.000  
G32  21348411.302   112186718.001        -242.219          20.000  
> 2021  9 12 11  7 57.9976765  0  1
G10  20380473.492   107100092.039       -2596.559          30.000  
> 2021  9 12 11  7 58.9976758  0  3
G10  20380757.095   107101586.472       -2598.323          32.000  
G31  21290426.045   111881917.3981       -479.271          24.000  
G32  21348053.050   112184836.6411       -239.796          20.000  
> 2021  9 12 11  7 59.9976750  0  3
G10  20381012.519   107102924.754       -2598.956          30.000  
G31  21290282.444   111881136.880        -480.149          23.000  
G32  21347858.485   112183816.713        -240.763          21.000  
> 2021  9 12 11  8  0.9976740  0  2
G10  20381207.684   107103948.341       -2599.672          26.000  
G32  21347606.060   112182482.912        -242.267          20.000  
> 2021  9 12 11  8  1.9976730  0  3
G10  20381404.347   107104972.539       -2599.260          24.000  
G31  21289873.227   111878949.1921       -481.665          21.000  
G32  21347351.836   112181148.914        -241.695          20.000  
> 2021  9 12 11  8  2.9976722  0  3
G10  20381660.670   107106310.794       -2598.865          25.000  
G31  21289723.031   111878169.840        -481.215          25.000  
G32  21347157.570   112180130.367        -242.784          20.000  
> 2021  9 12 11  8  3.9976714  0  3
G10  20381917.592   107107649.107       -2597.950          23.000  
G31  21289574.934   111877390.402        -481.729          20.000  
G32  21346966.303   112179113.255        -244.505          20.000  
> 2021  9 12 11  8  4.9976707  0  2
G31  21289459.814   111876769.803        -483.363          20.000  
G32  21346800.218   112178254.828        -243.251          20.000  
> 2021  9 12 11  8  5.9976696  0  3
G10  20382370.578   107110010.7491      -2600.488          23.000  
G31  21289223.577   111875519.406        -481.093          21.000  
G32  21346521.711   112176765.755        -244.047          21.000  
> 2021  9 12 11  8  6.9976689  0  3
G10  20382656.580   107111509.286       -2602.481          27.000  
G31  21289106.059   111874899.514        -484.450          18.000  
G32  21346361.621   112175907.063        -242.441          21.000  
> 2021  9 12 11  8  7.9976681  0  1
G10  20382914.102   107112851.250       -2602.722          23.000  
> 2021  9 12 11  8  8.9976671  0  2
G10  20383111.366   107113878.424       -2603.166          25.000  
G32  21345911.033   112173554.8081       -241.797          21.000  
> 2021  9 12 11  8  9.9976663  0  2
G10  20383370.386   107115221.649       -2604.714          25.000  
G32  21345718.267   112172536.099        -242.023          21.000  
> 2021  9 12 11  8 10.9976653  0  2
G10  20383565.251   107116250.297       -2603.857          23.000  
G32  21345461.944   112171201.755        -240.980          21.000  
> 2021  9 12 11  8 11.9976648  0  3
G10  20383910.313   107118067.757       -2605.371          26.000  
G31  21288350.582   111870860.6891       -484.884          18.000  
G32  21345357.317   112170654.979        -242.813          21.000  
> 2021  9 12 11  8 12.9976637  0  1
G10  20384075.798   107118940.819       -2605.141          25.000  
> 2021  9 12 11  8 13.9976627  0  1
G10  20384271.263   107119970.978       -2606.167          23.000  
> 2021  9 12 11  8 14.9976620  0  2
G10  20384555.466   107121474.016       -2606.398          24.000  
G32  21344661.498   112166975.9631       -243.774          20.000  
> 2021  9 12 11  8 15.9976612  0  2
G10  20384812.388   107122820.244       -2607.252          24.000  
G31  21287637.076   111867120.1271       -483.593          16.000  
> 2021  9 12 11  8 16.9976604  0  3
G10  20385068.411   107124166.872       -2605.870          27.000  
G31  21287488.079   111866341.639        -483.144          16.000  
G32  21344271.768   112164942.2211       -242.954          20.000  
> 2021  9 12 11  8 17.9976594  0  2
G10  20385264.475   107125197.241       -2605.710          23.000  
G31  21287279.723   111865247.696        -480.945          16.000  
> 2021  9 12 11  8 18.9976586  0  2
G10  20385521.997   107126542.672       -2606.346          25.000  
G31  21287131.326   111864469.759        -485.080          17.000  
> 2021  9 12 11  8 19.9976579  0  1
G10  20385807.699   107128045.863       -2606.648          23.000  
> 2021  9 12 11  8 20.9976568  0  2
G10  20385974.084   107128920.087       -2607.867          25.000  
G31  21286776.371   111862606.2121       -482.512          17.000  
> 2021  9 12 11  8 21.9976561  0  3
G10  20386262.184   107130425.282       -2607.782          25.000  
G31  21286656.754   111861987.614        -485.253          16.000  
G32  21343215.300   112159394.0131       -247.070          20.000  
> 2021  9 12 11  8 22.9976550  0  1
G10  20386427.370   107131299.762       -2608.148          25.000  
> 2021  9 12 11  8 23.9976545  0  2
G10  20386773.630   107133121.311       -2611.038          22.000  
G32  21342829.167   112157366.4871       -246.805          20.000  
> 2021  9 12 11  8 24.9976535  0  2
G10  20386971.493   107134157.337       -2611.887          22.000  
G32  21342573.144   112156036.798        -244.734          19.000  
> 2021  9 12 11  8 25.9976527  0  2
G10  20387229.315   107135507.286       -2610.036          22.000  
G31  21286000.508   111858586.2471       -492.068          17.000  
> 2021  9 12 11  8 26.9976517  0  2
G31  21285792.153   111857502.708        -492.043          17.000  
G32  21342128.552   112153686.8581       -243.758          19.000  
> 2021  9 12 11  8 27.9976512  0  0
> 2021  9 12 11  8 28.9976502  0  1
G10  20387970.102   107139398.4891      -2610.666          20.000  
> 2021  9 12 11  8 29.9976492  0  0
> 2021  9 12 11  8 30.9976484  0  2
G31  21285170.383   111854259.1411       -489.457          18.000  
G32  21341318.513   112149471.1091       -246.747          18.000  
> 2021  9 12 11  8 31.9976476  0  1
G32  21341124.247   112148456.124        -243.878          19.000  
> 2021  9 12 11  8 32.9976468  0  1
G32  21340929.982   112147439.019        -243.184          20.000  
> 2021  9 12 11  8 33.9976458  0  2
G31  21284673.627   111851635.9621       -493.886          21.000  
G32  21340673.359   112146105.434        -241.345          21.000  
> 2021  9 12 11  8 34.9976451  0  2
G31  21284557.308   111851027.270        -493.708          22.000  
G32  21340507.574   112145243.642        -240.281          21.000  
> 2021  9 12 11  8 35.9976443  0  2
G10  20389708.299   107148405.9521      -2618.950          21.000  
G32  21340310.610   112144223.506        -239.466          21.000  
> 2021  9 12 11  8 36.9976433  0  3
G10  20389910.359   107149449.844       -2620.352          21.000  
G31  21284209.249   111849179.8871       -494.961          24.000  
G32  21340055.787   112142888.580        -240.352          22.000  
> 2021  9 12 11  8 37.9976425  0  3
G10  20390169.379   107150809.629       -2619.496          22.000  
G31  21284066.547   111848414.309        -495.265          23.000  
G32  21339863.620   112141870.080        -242.826          22.000  
> 2021  9 12 11  8 38.9976415  0  2
G31  21283857.592   111847330.975        -490.724          23.000  
G32  21339610.895   112140537.370        -243.053          21.000  
> 2021  9 12 11  8 39.9976410  0  3
G10  20390723.996   107153977.6601      -2615.153          22.000  
G31  21283795.535   111847034.885        -492.237          26.000  
G32  21339509.565   112139992.462        -242.705          21.000  
> 2021  9 12 11  8 40.9976399  0  2
G10  20390895.777   107154859.858       -2616.831          22.000  
G32  21339223.863   112138502.831        -243.865          21.000  
> 2021  9 12 11  8 41.9976392  0  1
G32  21339056.878   112137644.747        -244.122          20.000  
> 2021  9 12 11  8 42.9976381  0  0
> 2021  9 12 11  8 43.9976374  0  0
> 2021  9 12 11  8 44.9976366  0  1
G31  21282919.541   111842569.2301       -493.873          31.000  
> 2021  9 12 11  8 45.9976356  0  2
G10  20392089.550   107161179.4261      -2622.249          23.000  
G31  21282711.186   111841487.633        -494.220          30.000  
> 2021  9 12 11  8 46.9976348  0  1
G31  21282565.786   111840721.633        -494.630          32.000  
> 2021  9 12 11  8 47.9976340  0  2
G10  20392606.392   107163910.2101      -2627.009          25.000  
G31  21282421.286   111839955.719        -495.398          34.000  
> 2021  9 12 11  8 48.9976333  0  3
G10  20392893.893   107165434.779       -2627.378          23.000  
G31  21282308.864                        -497.355          32.000  
J01                                                                  37576210.031   147457118.5241       -153.836          23.000  
> 2021  9 12 11  8 49.9976323  0  4
G10  20393092.356   107166487.845       -2628.502          23.000  
G31  21282106.804                        -497.936          34.000  
G32  21337362.751   112128739.0241       -247.884          23.000  
J01                                                                  37575951.610   147456096.397        -154.959          21.000  
> 2021  9 12 11  8 50.9976312  0  4
G10  20393262.638   107167385.406       -2630.638          23.000  
G31  21281867.570   111836971.3691       -496.812          33.000  
G32  21337080.646   112127251.598        -245.322          22.000  
J01                                                                  37575660.512   147454958.103        -156.667          19.000  
> 2021  9 12 11  8 51.9976307  0  2
C33  22549754.330   117422488.0771      -2504.994          33.000  
G32  21336977.818   112126711.584        -247.924          22.000  
> 2021  9 12 11  8 52.9976297  0  4
C33  22549933.906   117423431.587       -2504.319          32.000  
G10  20393815.156   107170281.4971      -2628.949          27.000  
G31  21281608.549   111835601.9401       -497.307          30.000  
G32  21336723.594   112125383.674        -250.330          20.000  
> 2021  9 12 11  8 53.9976289  0  4
C33  22550174.639   117424687.033       -2504.887          31.000  
G10  20394075.076   107171650.112       -2631.511          23.000  
G31  21281462.250   111834839.446        -498.385          29.000  
G32  21336527.230   112124373.355        -250.314          18.000  
> 2021  9 12 11  8 54.9976279  0  4
C33  22550355.414   117425630.745       -2505.109          29.000  
G10  20394270.241   107172706.401       -2632.022          24.000  
G31  21281256.293   111833762.185        -497.890          30.000  
G32  21336274.505   112123046.479        -246.928          19.000  
> 2021  9 12 11  8 55.9976271  0  4
C33  22550596.447   117426887.076       -2505.684          30.000  
G10  20394528.662   107174079.284       -2634.442          20.000  
G31  21281111.493   111833000.537        -499.639          29.000  
G32  21336083.537   112122032.335        -246.425          20.000  
> 2021  9 12 11  8 56.9976264  0  3
C33  22550867.459   117428299.711       -2505.532          28.000  
G31  21280995.174   111832397.454        -499.733          29.000  
G32  21335918.651   112121175.699        -246.826          24.000  
> 2021  9 12 11  8 57.9976253  0  3
C33  22551018.255   117429088.570       -2506.805          28.000  
G31  21280759.537   111831164.482        -500.666          28.000  
G32  21335634.747   112119688.096        -244.746          23.000  
> 2021  9 12 11  8 58.9976246  0  2
C33  22551291.066   117430502.117       -2506.207          23.000  
G31  21280642.917   111830562.375        -500.527          27.000  
> 2021  9 12 11  8 59.9976238  0  2
G31  21280498.118   111829802.376        -500.901          31.000  
G32  21335279.793   112117814.5931       -244.813          23.000  
> 2021  9 12 11  9  0.9976230  0  4
C33  22551773.132   117433014.3661      -2503.505          18.000  
G10  20395813.572   107180784.4801      -2634.333          17.000  
G31  21280352.718   111829042.478        -500.437          31.000  
G32  21335081.930   112116799.489        -246.700          21.000  
> 2021  9 12 11  9  1.9976220  0  3
G10  20396012.934   107181843.679       -2634.665          18.000  
G31  21280150.358   111827967.360        -500.026          31.000  
G32  21334829.205   112115469.840        -245.997          22.000  
> 2021  9 12 11  9  2.9976212  0  1
G31  21280005.559   111827206.508        -500.451          29.000  
> 2021  9 12 11  9  3.9976202  0  2
G10  20396474.315   107184275.3961      -2633.300          23.000  
G31  21279802.599   111826131.930        -500.841          30.000  
> 2021  9 12 11  9  4.9976195  0  1
G10  20396763.914   107185806.248       -2634.281          24.000  
> 2021  9 12 11  9  5.9976187  0  2
G10  20397025.033   107187179.934       -2634.822          25.000  
G31  21279543.878   111824772.4401       -503.172          31.000  
> 2021  9 12 11  9  6.9976177  0  3
G10  20397228.293   107188239.706       -2634.213          25.000  
G31  21279337.621   111823699.897        -502.465          29.000  
G32  21333773.636   112109934.2091       -248.291          19.000  
> 2021  9 12 11  9  7.9976169  0  2
G10  20397490.311   107189615.340       -2637.473          26.000  
G31  21279192.821   111822941.823        -502.187          27.000  
> 2021  9 12 11  9  8.9976161  0  3
C33  22553564.992   117442278.0941      -2509.875          16.000  
G10  20397752.330   107190992.273       -2637.046          25.000  
G32  21333388.103   112107912.3811       -249.065          20.000  
> 2021  9 12 11  9  9.9976154  0  2
G10  20398045.527   107192527.192       -2638.761          28.000  
G32  21333224.116   112107059.984        -250.158          20.000  
> 2021  9 12 11  9 10.9976143  0  2
C33  22553990.697   117444488.7291      -2513.013          16.000  
G10  20398220.306   107193434.138       -2641.639          26.000  
> 2021  9 12 11  9 11.9976136  0  2
G10  20398512.903   107194971.967       -2639.945          26.000  
G32  21332777.126   112104719.2091       -245.957          21.000  
> 2021  9 12 11  9 12.9976128  0  3
C33  22554510.837   117447184.0501      -2525.896          14.000  
G10  20398774.322   107196353.350       -2642.190          24.000  
G32  21332584.959   112103703.715        -243.938          20.000  
> 2021  9 12 11  9 13.9976118  0  2
G10  20398976.083   107197420.576       -2642.764          28.000  
G32  21332333.733   112102371.593        -245.341          20.000  
> 2021  9 12 11  9 14.9976110  0  3
G10  20399238.401   107198803.497       -2643.983          29.000  
G31  21278106.373   111817181.4561       -507.369          16.000  
G32  21332144.264   112101356.852        -246.169          23.000  
> 2021  9 12 11  9 15.9976100  0  2
G10  20399441.361   107199872.380       -2644.538          30.000  
G32  21331891.539   112100029.575        -250.048          25.000  
> 2021  9 12 11  9 16.9976095  0  3
G10  20399793.317   107201729.339       -2645.551          30.000  
G31  21277852.749   111815833.4611       -509.657          18.000  
G32  21331787.211   112099492.330        -251.684          23.000  
> 2021  9 12 11  9 17.9976084  0  1
G10  20399967.796   107202641.735       -2645.661          30.000  
> 2021  9 12 11  9 18.9976077  0  3
G10  20400261.293   107204184.782       -2646.268          30.000  
G31  21277506.189   111814013.4511       -505.188          20.000  
G32  21331344.118   112097158.8201       -248.597          26.000  
> 2021  9 12 11  9 19.9976067  0  2
G10  20400464.252   107205255.856       -2646.874          28.000  
G31  21277299.932   111812942.454        -504.397          25.000  
> 2021  9 12 11  9 20.9976059  0  2
G31  21277153.033   111812186.651        -505.178          31.000  
G32  21330894.729   112094816.6851       -247.467          27.000  
> 2021  9 12 11  9 21.9976051  0  2
G31  21277008.234   111811431.907        -506.775          30.000  
G32  21330701.063   112093803.811        -247.160          26.000  
> 2021  9 12 11  9 22.9976041  0  3
G10  20401200.843   107209102.4541      -2647.795          35.000  
G31  21276804.375   111810363.910        -508.551          26.000  
G32  21330446.839   112092475.280        -246.779          29.000  
> 2021  9 12 11  9 23.9976033  0  3
G10  20401461.662                       -2648.701          33.000  
G31  21276660.175   111809612.981        -509.341          27.000  
G32  21330252.573   112091464.044        -249.349          23.000  
> 2021  9 12 11  9 24.9976026  0  3
G10  20401760.555   107211950.2941      -2649.028          30.000  
G31  21276546.254   111809020.074        -510.829          21.000  
G32  21330089.187   112090609.916        -248.123          33.000  
> 2021  9 12 11  9 25.9976018  0  2
G10  20402024.372   107213339.892       -2651.231          30.000  
G32  21329895.521   112089597.320        -248.043          31.000  
> 2021  9 12 11  9 26.9976008  0  3
G10  20402228.231   107214415.200       -2650.659          27.000  
G31  21276198.194   111807208.8251       -513.298          22.000  
G32  21329641.297   112088270.250        -248.261          32.000  
> 2021  9 12 11  9 27.9976000  0  2
C16  37325593.429   194364227.4901      -1177.556          26.000  
G10  20402492.648   107215805.511       -2650.776          30.000  
> 2021  9 12 11  9 28.9975992  0  2
C16  37325579.639   194364155.964       -1178.077          30.000  
G32  21329246.770   112085948.2291       -252.231          34.000  
> 2021  9 12 11  9 29.9975982  0  3
C16  37325504.091   194363773.050       -1178.911          25.000  
G10  20402959.725   107218272.3971      -2651.761          29.000  
G32  21328992.246   112084624.708        -251.677          28.000  
> 2021  9 12 11  9 30.9975974  0  2
C16  37325491.800   194363704.040       -1180.635          27.000  
G10  20403223.242   107219664.504       -2652.861          32.000  
> 2021  9 12 11  9 31.9975964  0  3
C16  37325416.852   194363323.660       -1181.055          28.000  
G10  20403428.301   107220742.491       -2653.594          27.000  
J02  38202584.401   200755802.8331      -2123.502          31.000  
> 2021  9 12 11  9 32.9975959  0  4
C16  37325496.297   194363724.215       -1181.940          26.000  
G10  20403782.056   107222608.106       -2653.246          27.000  
G32  21328449.322   112081754.9571       -251.019          33.000  
J02  38202837.126   200757138.291       -2123.316          28.000  
> 2021  9 12 11  9 33.9975949  0  5
C06  36693016.353   191070326.9941      -1221.269          26.000  
C16  37325423.747   194363344.115       -1180.565          24.000  
C25  22088658.840   115021419.6711      -2412.951          31.000  
G32  21328203.492                        -253.340          34.000  
J02  38202940.255   200757685.657       -2122.622          31.000  
> 2021  9 12 11  9 34.9975941  0  6
C06  36693008.259   191070300.215       -1222.425          23.000  
C16  37325412.055   194363276.054       -1178.829          22.000  
C25  22088881.885   115022583.812       -2413.243          28.000  
G10  20404248.533   107225078.9901      -2654.432          27.000  
G32  21328015.522   112079457.4361       -252.043          32.000  
J02  38203097.946   200758548.179       -2123.485          27.000  
> 2021  9 12 11  9 35.9975931  0  5
C06  36692942.305   191069960.890       -1220.630          22.000  
C16  37325340.405   194362893.851       -1178.958          21.000  
C25  22089045.872   115023435.822       -2413.625          28.000  
G10  20404454.790   107226158.736       -2655.779          29.000  
G32  21327759.799   112078133.677        -253.391          32.000  
> 2021  9 12 11  9 36.9975923  0  6
C06  36692938.407   191069931.855       -1218.037          26.000  
C16  37325326.314   194362824.119       -1179.408          20.000  
C25  22089269.217   115024599.901       -2412.970          28.000  
G10  20404720.706   107227554.204       -2656.004          29.000    20404732.697    80072553.6731      -1983.424          29.000  
G32  21327572.429   112077125.164        -253.081          33.000  
J02  38203358.765   200759958.8941      -2123.972          25.000  
> 2021  9 12 11  9 37.9975916  0  7
C06  36692966.888   191070057.339       -1218.743          26.000  
C16  37325347.600   194362910.932       -1180.368          23.000  
C25  22089523.441   115025919.616       -2413.087          27.000  
G10  20405018.400   107229107.862       -2657.285          24.000    20405027.993    80073713.955       -1984.489          30.000  
G31  21274529.250   111798386.3741       -518.085          20.000  
G32  21327408.442   112076274.383        -252.871          34.000  
J02  38203551.532   200760980.387       -2124.305          29.000  
> 2021  9 12 11  9 38.9975905  0  6
C06  36692871.554   191069558.448       -1218.207          28.000  
C16  37325245.670   194362372.862       -1178.574          25.000  
C25  22089658.048   115026615.357       -2413.365          25.000  
G10  20405195.577   107230031.776       -2657.474          25.000    20405203.971    80074404.240       -1984.488          30.000  
G32  21327128.136   112074793.573        -251.326          34.000  
J02  38203626.780   200761371.910       -2124.640          29.000  
> 2021  9 12 11  9 39.9975898  0  7
C06  36692896.736   191069684.769       -1219.819          29.000  
C07  63293324.443                       -1218.207          29.000  
C16  37325261.559   194362459.261       -1179.381          26.000  
C25  22089911.373   115027937.515       -2415.845          25.000  
G10  20405491.472   107231587.584       -2659.362          23.000    20405499.567    80075564.739       -1984.116          30.000  
G31  21274191.384   111796584.8571       -515.635          24.000  
G32  21326963.850   112073943.008        -253.639          35.000  
> 2021  9 12 11  9 40.9975890  0  7
C06  36692891.640   191069656.248       -1220.672          28.000  
C07  37760054.458                          21.511          28.000  
C16  37325250.467   194362389.640       -1180.077          27.000  
C25  22090136.217   115029104.276       -2415.383          29.000  
G10  20405754.990   107232986.011       -2658.741          21.000    20405765.782    80076608.980       -1984.966          29.000  
G32  21326774.381   112072935.037        -251.304          34.000  
J02  38203984.432   200763256.4131      -2123.236          26.000  
> 2021  9 12 11  9 41.9975882  0  6
C06  36692885.944   191069627.118       -1219.161          26.000  
C07  37759810.727                          21.680          29.000  
C16  37325238.475   194362321.797       -1181.389          27.000  
C25  22090361.061   115030270.629       -2415.144          30.000  
G10  20406022.105   107234384.717       -2659.878          26.000    20406031.998    80077653.284       -1985.803          30.000  
G32  21326584.613   112071927.388        -250.348          32.000  
> 2021  9 12 11  9 42.9975872  0  6
C06  36692819.690   191069286.210       -1221.746          25.000  
C07  37759505.838   196623678.9961         23.267          28.000  
C16  37325168.623   194361941.040       -1181.046          27.000  
C25  22090524.748   115031124.489       -2415.016          29.000  
G10                                                                  20406238.255    80078463.982       -1987.691          30.000  
G32  21326331.888   112070604.906        -254.272          32.000  
> 2021  9 12 11  9 43.9975862  0  7
C06  36692753.435   191068946.521       -1220.827          25.000  
C07  37759200.949   196622094.819          22.311          28.000  
C25  22090688.435   115031978.450       -2415.020          28.000  
G10  20406440.615   107236552.8321      -2660.305          30.000    20406444.812    80079274.498       -1985.369          29.000  
G31  21273518.050   111792977.8901       -515.252          22.000  
G32  21326081.861   112069282.547        -253.465          34.000  
J02  38204359.172   200765216.8001      -2124.708          27.000  
> 2021  9 12 11  9 44.9975854  0  7
C06  36692745.941   191068917.404       -1219.601          27.000  
C07  37758956.019   196620822.772          23.222          28.000  
C16  37325085.581   194361492.2201      -1179.979          27.000  
C23  23107754.434   120328140.6241        184.486          20.000  
C25  22090911.480   115033144.879       -2415.954          30.000  
G10  20406709.529   107237953.270       -2661.017          30.000    20406710.428    80080319.586       -1986.738          28.000  
J02  38204522.559   200766081.445       -2125.651          25.000  
> 2021  9 12 11  9 45.9975846  0  9
C06  36692739.645   191068888.633       -1220.809          26.000  
C07  37758709.889   196619550.658          23.081          28.000  
C16  37325071.191   194361423.361       -1179.411          26.000  
C23  23107479.825   120326708.043         182.228          19.000  
C25  22091135.425   115034312.889       -2417.728          30.000  
G10  20406977.244   107239354.521       -2661.749          31.000    20406976.344    80081365.750       -1988.228          27.000  
G31  21273242.241   111791489.5551       -515.893          24.000  
G32  21325691.831   112067268.6281       -251.961          33.000  
J02  38204686.546   200766947.139       -2125.663          26.000  
> 2021  9 12 11  9 46.9975839  0  8
C06  36692763.029   191069015.033       -1218.534          29.000  
C07  37758494.938   196618434.951          22.414          27.000  
C16  37325087.080   194361509.199       -1178.163          28.000  
C23  23107235.794   120325432.223         184.210          19.000  
C25  22091390.549   115035636.705       -2416.387          28.000  
G10  20407275.237   107240914.562       -2663.314          29.000    20407272.839    80082529.323       -1987.863          26.000  
G31  21273134.615   111790903.556        -518.628          25.000  
G32  21325528.444   112066419.373        -253.433          33.000  
> 2021  9 12 11  9 47.9975828  0  9
C06  36692667.995   191068516.999       -1219.637          29.000  
C07  37758160.370   196616695.343          22.055          27.000  
C16  37324983.352   194360970.531       -1178.890          29.000  
C23  23106873.944   120323528.861         187.425          19.000  
C25  22091524.556   115036336.255       -2416.410          28.000  
G10  20407453.014   107241846.055       -2665.302          28.000    20407450.316    80083223.791       -1989.243          27.000  
G31  21272908.572   111789689.867        -520.550          25.000  
G32  21325244.840   112064940.237        -254.658          33.000  
J02  38204961.156   200768360.4431      -2124.897          26.000  
> 2021  9 12 11  9 48.9975821  0  7
C06  36692690.779   191068643.963       -1220.244          28.000  
C07  37757945.119   196615580.317          21.757          27.000  
C16  37324999.541   194361057.391       -1180.668          28.000  
C25  22091777.880   115037661.328       -2418.051          29.000  
G10  20407751.608   107243408.836       -2665.398          26.000    20407747.710    80084390.031       -1990.015          26.000  
G32  21325084.451   112064092.173        -256.768          32.000  
J02  38205156.920   200769382.631       -2124.781          27.000  
> 2021  9 12 11  9 49.9975813  0 10
C06  36692685.682   191068615.024       -1220.055          27.000  
C07  37757701.087   196614308.739          22.715          26.000  
C16  37324984.551   194360989.559       -1180.748          27.000  
C23  23106356.202   120320813.5271        184.742          20.000  
C25  22092002.425   115038830.811       -2418.899          31.000  
G10  20408016.924   107244814.128       -2666.967          24.000    20408016.024    80085439.144       -1990.048          27.000  
G25  21019126.761   110456256.4531      -2639.796          23.000  
G31  21272666.040   111788369.2571       -523.102          23.000  
G32  21324893.184   112063085.578        -253.772          28.000  
J02  38205322.106   200770247.656       -2125.870          26.000  
> 2021  9 12 11  9 50.9975803  0  8
C06  36692620.927   191068273.852       -1219.942          27.000  
C16  37324909.603   194360607.828       -1181.072          26.000  
C23  23106024.932   120319067.564         184.575          21.000  
C25  22092166.711   115039688.842       -2419.579          28.000  
G10  20408222.282   107245905.445       -2666.483          27.000    20408222.581    80086254.138       -1992.759          25.000  
G25  21019330.320   110457321.072       -2639.128          20.000  
G32  21324638.660   112061764.569        -255.322          33.000  
J02  38205426.434   200770797.451       -2127.494          28.000  
> 2021  9 12 11  9 51.9975795  0  3
G10  20408490.296   107247312.127       -2667.440          27.000    20408489.097    80087304.622       -1989.750          19.000  
G25  21019596.236   110458697.015       -2636.848          18.000  
G31  21272335.668   111786877.4421       -521.606          16.000  
> 2021  9 12 11  9 52.9975785  0  2
G10  20408698.052   107248405.016       -2668.714          29.000    20408695.654    80088118.960       -1990.099          18.000  
G32  21324213.854   112059439.0081       -254.557          33.000  
> 2021  9 12 11  9 53.9975780  0  4
C07  37756696.783   196609070.9121         21.016          18.000  
G10                                                                  20409053.606    80089523.266       -1993.557          18.000  
G31  21272085.642   111785559.6211       -525.953          15.000  
G32  21324117.920   112058906.791        -255.879          31.000  
> 2021  9 12 11  9 54.9975770  0  3
G10  20409260.763   107251380.5871      -2670.147          27.000    20409261.362    80090340.699       -1994.611          17.000  
G31  21271882.382   111784510.111        -526.246          16.000  
G32  21323869.093   112057587.798        -254.094          28.000  
> 2021  9 12 11  9 55.9975762  0  2
C23  23104619.505   120311749.4831        181.853          24.000  
G10  20409530.576   107252790.397       -2670.558          27.000    20409532.375    80091396.104       -1996.427          17.000  
> 2021  9 12 11  9 56.9975752  0  4
C06  36692500.411   191067633.8211      -1220.822          17.000  
C07  37755843.274   196604643.4151         16.694          20.000  
C25  22093425.240   115046250.6991      -2419.416          23.000  
G10  20409739.232   107253885.092       -2669.296          26.000    20409739.831    80092215.420       -1995.595          23.000  
> 2021  9 12 11  9 57.9975744  0  4
C16  37324711.440   194359648.6731      -1178.681          21.000  
C25  22093649.785   115047421.546       -2419.860          28.000  
G10  20410006.946   107255294.390       -2670.449          26.000    20410009.944    80093270.297       -1995.477          23.000  
G32  21323220.941   112054257.1851       -256.017          28.000  
> 2021  9 12 11  9 58.9975736  0  5
C06  36692489.018   191067573.5771      -1219.069          18.000  
C16  37324699.148   194359580.995       -1183.298          21.000  
C25  22093873.130   115048592.762       -2420.748          26.000  
G10  20410275.860   107256705.284       -2671.490          28.000    20410279.757    80094323.861       -1994.769          24.000  
G32  21323028.475   112053252.469        -255.855          33.000  
> 2021  9 12 11  9 59.9975726  0  6
C06  36692423.963   191067231.730       -1219.276          19.000  
C07  37755051.822   196600530.0241         21.074          20.000  
C16  37324626.599   194359203.104       -1182.960          22.000  
C25  22094036.217   115049452.240       -2421.883          24.000  
G10  20410479.719   107257801.460       -2671.565          24.000    20410489.312    80095141.648       -1994.562          23.000  
G32  21322776.349   112051932.602        -255.168          33.000  
> 2021  9 12 11 10  0.9975718  0  6
C07  37754805.992   196599258.957          22.945          21.000  
C16  37324617.905   194359136.344       -1180.583          22.000  
C23  23103111.848   120303967.8551        181.259          22.000  
C25  22094261.961   115050625.374       -2421.914          27.000  
G10  20410749.532   107259213.176       -2672.116          28.000    20410758.226    80096194.605       -1994.172          24.000  
G32  21322580.884   112050927.014        -254.639          34.000  
> 2021  9 12 11 10  1.9975711  0  6
C06  36692442.850   191067326.6641      -1217.713          21.000  
C07  37754591.340   196598143.407          23.442          21.000  
C16  37324634.393   194359223.235       -1179.342          25.000  
C25  22094518.283   115051954.964       -2422.593          28.000  
G10  20411052.323   107260782.548       -2672.347          29.000    20411057.119    80097364.947       -1997.498          24.000  
G32  21322421.695                        -257.839          33.000  
> 2021  9 12 11 10  2.9975703  0  6
C06  36692436.855   191067295.920       -1218.500          21.000  
C16  37324619.404   194359152.267       -1178.844          19.000  
C23  23102589.010   120301266.5431        178.985          26.000  
C25  22094746.126   115053128.145       -2421.913          26.000  
G10  20411325.134   107262195.150       -2673.367          27.000    20411326.033    80098420.540       -1995.514          28.000  
G32  21322231.926   112049078.2581       -256.850          33.000  
> 2021  9 12 11 10  3.9975693  0  7
C06  36692371.200   191066952.723       -1218.603          22.000  
C07  37754037.923   196595290.5611         22.824          23.000  
C16  37324546.854   194358770.096       -1178.269          23.000  
C23  23102254.442   120299526.934         178.115          23.000  
C25  22094912.211   115053989.304       -2422.602          26.000  
G10  20411534.389   107263293.933       -2674.304          25.000    20411534.689    80099240.396       -1996.536          27.000  
G32  21321983.398   112047759.133        -255.925          34.000  
> 2021  9 12 11 10  4.9975683  0  5
C07  37753730.336   196593705.330          24.361          14.000  
C16  37324473.705   194358387.381       -1178.833          24.000  
C25  22095077.396   115054850.769       -2422.677          24.000  
G10  20411746.342   107264394.089       -2678.282          23.000    20411743.344    80100061.170       -1998.695          28.000  
G32  21321730.373   112046440.122        -254.459          33.000  
> 2021  9 12 11 10  5.9975677  0  5
C06  36692359.208   191066890.4871      -1217.801          21.000  
C16  37324519.273   194358628.057       -1177.370          25.000  
C25  22095363.398   115056336.615       -2422.924          25.000  
G10                                                                  20412073.416    80101352.934       -1997.138          27.000  
G32  21321595.167   112045751.577        -255.983          28.000  
> 2021  9 12 11 10  6.9975667  0  5
C06  36692291.455   191066548.810       -1221.559          24.000  
C16  37324445.224   194358247.155       -1179.053          21.000  
C23  23101354.765   120294940.4851        177.168          20.000  
C25  22095528.284   115057198.315       -2423.571          20.000  
G10  20412290.765   107267229.1631      -2679.866          26.000  
> 2021  9 12 11 10  7.9975660  0  6
C06  36692315.738   191066677.096       -1220.993          23.000  
C16  37324463.212   194358333.392       -1177.023          20.000  
C23  23101107.436   120293668.741         179.682          27.000  
C25  22095784.906   115058529.209       -2424.582          23.000  
G25  21023638.038   110479776.7141      -2651.731          26.000  
G31  21269881.268   111774045.9781       -527.568          23.000  
> 2021  9 12 11 10  8.9975649  0  7
C06  36692220.404   191066180.794       -1220.864          24.000  
C16  37324359.783   194357793.668       -1177.863          20.000  
C25  22095923.411   115059237.071       -2425.997          25.000  
G10  20412771.632   107269757.2681      -2681.387          27.000  
G31  21269647.429   111772840.651        -528.366          26.000  
G32  21320897.250   112042108.4961       -257.336          34.000  
J02  38208080.796   200784781.6371      -2126.498          21.000  
> 2021  9 12 11 10  9.9975644  0  6
C06  36692306.145   191066620.160       -1218.917          27.000  
C07  37752559.647   196587516.2361         18.133          23.000  
C16  37324435.631   194358190.731       -1177.152          25.000  
C25  22096239.392   115060882.183       -2425.972          25.000  
G10  20413129.584   107271649.189       -2678.737          26.000  
G31  21269594.966   111772581.456        -529.042          25.000  
> 2021  9 12 11 10 10.9975634  0  7
C07  37752257.456   196585937.049          19.652          21.000  
C16  37324364.280   194357806.201       -1176.472          26.000  
C23  23100223.348   120289075.5781        177.171          23.000  
C25  22096405.777   115061747.617       -2426.909          26.000  
G10  20413337.940   107272752.836       -2678.820          29.000  
G32  21320544.394   112040260.6671       -258.341          25.000  
J02  38208441.446   200786672.6631      -2128.483          21.000  
> 2021  9 12 11 10 11.9975624  0  7
C06  36692169.140   191065931.8951      -1216.610          24.000  
C16  37324294.728   194357422.648       -1178.666          24.000  
C23  23099889.080   120287336.897         176.008          21.000  
C25  22096570.962   115062611.923       -2425.819          26.000  
C33  22568005.395   117517431.9451      -2538.857          21.000  
G10  20413546.296   107273856.743       -2681.198          26.000  
G25  21024580.586   110484721.7971      -2654.576          18.000  
> 2021  9 12 11 10 12.9975616  0  8
C07  37751707.337   196583087.2511         19.849          17.000  
C16  37324282.137   194357353.105       -1179.623          25.000  
C23  23099617.767   120285912.094         175.505          24.000  
C25  22096798.805   115063789.297       -2426.611          27.000  
G10  20413815.510   107275277.589       -2681.169          29.000  
G25  21024841.405   110486115.845       -2654.358          23.000  
G32  21320101.601   112037939.7581       -257.058          24.000  
J02  38208711.559   200788093.8961      -2127.428          22.000  
> 2021  9 12 11 10 13.9975608  0  7
C07  37751462.107   196581818.333          21.159          28.000  
C16  37324271.345   194357283.258       -1178.643          27.000  
C25  22097025.448   115064967.488       -2427.897          23.000  
C33  22568500.952   117520013.8571      -2540.799          21.000  
G10  20414084.124   107276698.079       -2680.929          25.000  
G25  21025103.724   110487509.868       -2654.618          23.000  
G32  21319913.331   112036937.061        -258.152          19.000  
> 2021  9 12 11 10 14.9975601  0  5
C07  37751248.355   196580705.545          19.881          24.000  
C23  23099104.223   120283216.1311        177.809          22.000  
C25  22097282.070   115066303.477       -2427.270          20.000  
G10  20414383.017   107278276.150       -2680.724          28.000  
G32  21319753.542   112036092.889        -259.723          21.000  
> 2021  9 12 11 10 15.9975590  0  7
C07  37750914.686   196578967.234          21.545          23.000  
C13  37667343.641   196143742.0051      -3074.474          24.000  
C23  23098743.273   120281321.079         177.929          26.000  
C25  22097422.373   115067014.013       -2428.866          22.000  
G10  20414564.391   107279224.957       -2682.912          25.000  
G25  21025570.800   110489985.6211      -2657.047          24.000  
G31  21268548.690   111766977.5371       -531.681          20.000  
> 2021  9 12 11 10 16.9975583  0 10
C06  36692114.578   191065635.6601      -1222.486          19.000  
C07  37750700.034   196577854.367          19.197          23.000  
C13  37667724.677   196145724.597       -3077.779          22.000  
C23  23098499.542   120280051.099         177.946          24.000  
C25  22097680.194   115068350.585       -2430.116          25.000  
C33  22569211.160   117523739.0931      -2543.663          20.000  
G10  20414863.584   107280805.124       -2683.623          27.000  
G25  21025864.597   110491540.369       -2658.821          23.000  
G31  21268432.071   111766405.214        -528.885          13.000  
G32  21319318.243   112033775.6381       -259.021          31.000  
> 2021  9 12 11 10 17.9975575  0  7
C06  36692108.882   191065608.026       -1220.207          23.000  
C07  37750457.802   196576587.152          18.099          26.000  
C13  37668077.533   196147553.627       -3078.106          14.000  
C25  22097909.236   115069532.075       -2432.242          23.000  
G10  20415134.896   107282228.610       -2684.199          32.000  
G32  21319128.175   112032773.811        -258.229          29.000  
J02  38209516.502   200792272.4291      -2127.171          27.000  
> 2021  9 12 11 10 18.9975565  0  8
C07  37750157.410   196575008.862          16.766          19.000  
C23  23097894.261   120276885.1681        177.157          24.000  
C25  22098076.820   115070402.747       -2431.648          25.000  
C33  22569650.656   117526012.5101      -2541.306          21.000  
G10  20415345.351   107283337.925       -2684.424          26.000  
G25  21026331.973   110494021.6231      -2658.947          15.000  
G32  21318880.246   112031456.801        -258.702          29.000  
J02  38209619.931   200792824.710       -2128.400          25.000  
> 2021  9 12 11 10 19.9975557  0 11
C06  36692038.430   191065235.9891      -1218.890          22.000  
C07  37749916.077   196573743.571          16.504          24.000  
C13  37668725.984   196150907.5771      -3080.757          19.000  
C16  37324103.461   194356387.5261      -1177.841          17.000  
C23  23097622.948   120275461.008         173.441          24.000  
C25  22098304.962   115071584.888       -2430.468          25.000  
C33  22569898.884   117527305.233       -2540.883          21.000  
G10  20415615.164   107284764.262       -2686.881          24.000  
G25  21026597.290   110495421.156       -2661.568          19.000  
G31  21267954.801   111763895.3871       -529.976          18.000  
G32  21318690.478   112030455.062        -259.323          28.000  
> 2021  9 12 11 10 20.9975547  0 11
C06  36691972.776   191064893.220       -1218.817          22.000  
C07  37749614.186   196572166.358          15.581          24.000  
C13  37669017.981   196152425.947       -3079.044          20.000  
C16  37324027.014   194356004.354       -1178.443          26.000  
C23  23097292.277   120273727.757         171.347          28.000  
C25  22098472.546   115072454.305       -2429.726          23.000  
G10  20415826.517   107285874.662       -2685.040          25.000  
G25  21026803.247   110496506.585       -2660.824          20.000  
G32  21318440.751   112029138.647        -259.120          27.000  
J02  38209888.245   200794243.0131      -2127.174          27.000  
R02  19941897.212   106413784.3961        773.385          27.000  
> 2021  9 12 11 10 21.9975542  0  9
C06  36692058.516   191065332.806       -1220.453          21.000  
C07  37749459.493   196571369.429          15.862          23.000  
C16  37324101.962   194356401.287       -1177.999          22.000  
C33  22570425.619   117530049.9881      -2544.875          19.000  
G10  20416190.166   107287772.686       -2687.239          27.000  
G31  21267705.674   111762593.6101       -533.054          18.000  
G32  21318338.821   112028610.505        -259.928          31.000  
J02  38210143.968   200795582.957       -2127.734          25.000  
R02  19941601.916   106412210.459         774.309          27.000  
> 2021  9 12 11 10 22.9975532  0  8
C06  36691991.663   191064991.031       -1219.686          28.000  
C07  37749155.204   196569792.931          14.372          18.000  
C16  37324026.414   194356018.021       -1177.864          27.000  
G10  20416401.519   107288884.346       -2687.895          26.000  
G31  21267503.314   111761552.030        -533.557          17.000  
G32  21318087.895   112027294.233        -259.049          27.000  
J02  38210251.293   200796134.220       -2126.480          26.000  
R02  19941154.326   106409836.543         773.745          28.000  
> 2021  9 12 11 10 23.9975521  0 11
C06  36691893.930   191064492.603       -1217.306          25.000  
C07  37748824.533   196568058.401          18.746          17.000  
C13  37670017.190   196157582.5111      -3072.490          24.000  
C16  37323923.585   194355478.139       -1177.173          28.000  
C33  22570778.475   117531867.6191      -2548.122          23.000  
G10  20416581.695   107289839.415       -2688.455          27.000  
G25  21027548.231   110500399.9721      -2663.582          24.000  
G31  21267275.172   111760353.836        -535.424          17.000  
G32  21317812.386   112025819.839        -259.015          24.000  
J02  38210328.040   200796527.825       -2126.077          28.000  
R02  19940679.155   106407303.932         771.332          30.000  
> 2021  9 12 11 10 24.9975514  0  8
C07  37748610.781   196566947.659          17.584          23.000  
C13  37670397.327   196159563.410       -3077.820          21.000  
C16  37323940.374   194355562.684       -1177.414          24.000  
G10  20416883.286   107291425.185       -2688.144          25.000  
G31  21267163.049   111759786.057        -535.369          18.000  
G32  21317648.699   112024976.780        -260.601          27.000  
J02  38210523.205   200797551.596       -2127.699          25.000  
R02  19940324.201   106405412.467         770.697          27.000  
> 2021  9 12 11 10 25.9975506  0  7
C07  37748367.049   196565679.033          19.148          24.000  
C13  37670751.981   196161392.317       -3078.048          18.000  
C16  37323927.782   194355491.352       -1177.382          29.000  
C33  22571300.414   117534616.6601      -2543.817          20.000  
G25  21028110.042   110503364.9441      -2663.462          19.000  
J02  38210686.292   200798419.102       -2128.163          30.000  
R02  19939937.469   106403361.058         772.816          23.000  
> 2021  9 12 11 10 26.9975498  0  7
C06  36691901.725   191064551.6061      -1215.693          23.000  
C16  37323913.692   194355419.058       -1176.036          28.000  
C33  22571547.743   117535910.409       -2542.622          20.000  
G10  20417425.610   107294281.7821      -2690.316          28.000  
G32  21317269.761   112022976.7651       -259.150          27.000  
J02  38210851.478   200799287.016       -2128.397          29.000  
R02  19939551.935   106401309.567         770.620          21.000  
> 2021  9 12 11 10 27.9975488  0  7
C16  37323839.344   194355035.149       -1178.137          28.000  
C25  22099964.613   115080257.6111      -2432.137          27.000  
G10  20417636.065   107295396.281       -2690.743          24.000  
G25  21028583.115   110505851.6451      -2661.362          18.000  
G32  21317017.936   112021660.027        -258.943          30.000  
J02  38210957.005   200799839.793       -2128.204          30.000  
R02  19939106.744   106398939.085         771.145          27.000  
> 2021  9 12 11 10 28.9975480  0  7
C16  37323824.954   194354963.899       -1177.549          29.000  
C23  23095009.058   120261903.3251        170.113          20.000  
C25  22100190.956   115081441.025       -2432.935          28.000  
G10  20417909.475   107296826.357       -2691.120          24.000  
G32  21316826.068   112020658.498        -259.536          29.000  
J02  38211123.090   200800707.229       -2127.480          29.000  
R02  19938720.911   106396888.057         770.444          25.000  
> 2021  9 12 11 10 29.9975473  0  8
C13  37672122.632   196168549.7181      -3076.231          18.000  
C16  37323841.142   194355047.738       -1176.079          27.000  
C23  23094762.629   120260641.183         168.959          24.000  
C25  22100449.077   115082781.509       -2433.690          33.000  
G10  20418211.966   107298414.930       -2691.579          27.000  
G32  21316664.780   112019815.479        -259.784          30.000  
J02  38211319.154   200801731.520       -2126.574          28.000  
R02  19938364.757   106394997.994         769.716          27.000  
> 2021  9 12 11 10 30.9975462  0  6
C16  37323736.815   194354506.853       -1176.762          26.000  
C23  23094395.982   120258754.954         168.503          23.000  
C25  22100586.382   115083498.119       -2434.125          31.000  
G10  20418394.240   107299373.543       -2691.890          26.000  
G32  21316384.474   112018342.775        -261.209          28.000  
J02  38211392.304   200802125.245       -2126.540          29.000  
> 2021  9 12 11 10 31.9975455  0  7
C13  37672768.985   196171892.4691      -3076.587          25.000  
C16  37323751.505   194354589.844       -1175.433          27.000  
C25  22100843.305   115084839.953       -2434.585          23.000  
G10  20418696.730   107300963.078       -2692.606          26.000  
G31  21266124.269   111754243.2391       -538.208          17.000  
G32  21316223.785   112017500.353        -259.746          23.000  
R02  19937540.328   106390578.5221        769.945          24.000  
> 2021  9 12 11 10 32.9975444  0  8
C13  37673032.203   196173252.033       -3077.673          25.000  
C16  37323645.678   194354048.349       -1176.196          24.000  
C23  23093794.299   120255606.8561        168.422          25.000  
C25  22100978.511   115085557.208       -2434.711          22.000  
G10  20418879.604   107301922.960       -2693.273          28.000  
G25  21029805.069   110512261.8981      -2671.043          24.000  
G32  21315943.180   112016027.476        -260.096          28.000  
R02  19937066.056   106388048.403         768.886          24.000  
> 2021  9 12 11 10 33.9975439  0  9
C06  36691774.013   191063862.5511      -1218.172          27.000  
C07  37746322.165   196555071.8111         16.157          24.000  
C13  37673474.396   196175549.390       -3078.639          25.000  
C16  37323723.024   194354443.880       -1175.865          26.000  
C23  23093616.522   120254657.928         168.228          24.000  
C25  22101296.891   115087211.457       -2435.086          23.000  
G10  20419243.552   107303829.106       -2693.468          23.000  
G32  21315841.250   112015500.008        -260.714          30.000  
R02  19936768.662   106386480.637         766.842          26.000  
> 2021  9 12 11 10 34.9975429  0 10
C06  36691706.560   191063517.929       -1216.527          26.000  
C07  37746017.576   196553496.189          12.245          23.000  
C13  37673767.294   196177066.627       -3078.925          23.000  
C16  37323647.477   194354059.508       -1176.831          27.000  
C23  23093288.549   120252929.406         166.118          25.000  
G10  20419453.407   107304946.758       -2694.501          21.000  
G25  21030376.773   110515239.4831      -2670.424          21.000  
G31  21265665.286   111751764.3011       -542.341          18.000  
G32  21315590.024   112014185.653        -261.650          29.000  
R02  19936325.569   106384114.511         765.834          25.000  
> 2021  9 12 11 10 35.9975421  0 10
C06  36691700.564   191063487.045       -1219.733          26.000  
C07  37745775.044   196552235.265          11.908          20.000  
C16  37323633.686   194353987.637       -1176.802          27.000  
C23  23093021.434   120251515.073         165.246          24.000  
C25  22101692.317   115089271.5001      -2434.918          24.000  
G10  20419726.218   107306381.797       -2695.368          26.000  
G25  21030644.488   110516649.640       -2670.791          22.000  
G31  21265531.879   111751046.079        -541.372          18.000  
G32  21315398.757   112013186.974        -260.987          30.000  
R02  19935941.535   106382068.809         765.874          24.000  
> 2021  9 12 11 10 36.9975411  0  8
C06  36691636.708   191063146.017       -1220.282          24.000  
C13  37674413.047   196180413.7111      -3078.759          20.000  
C23  23092689.564   120249788.522         166.130          23.000  
C25  22101859.301   115090146.226       -2436.470          30.000  
G10  20419939.670   107307502.705       -2697.383          25.000  
G25  21030852.844   110517745.254       -2671.270          18.000  
G32  21315148.430   112011872.844        -261.294          28.000  
R02  19935498.741   106379700.655         769.035          24.000  
> 2021  9 12 11 10 37.9975404  0 10
C06  36691662.191   191063273.287       -1220.162          25.000  
C13  37674795.282   196182398.422       -3077.872          18.000  
C16  37323576.725   194353687.8961      -1178.256          25.000  
C23  23092447.631   120248528.581         167.123          25.000  
C25  22102116.823   115091489.607       -2436.366          32.000  
G10  20420243.659   107309097.013       -2697.253          28.000  
G31  21265222.193   111749450.9121       -542.172          19.000  
G32  21314987.741   112011031.680        -262.387          34.000  
J02  38212485.647   200807873.1291      -2129.616          29.000  
R02  19935147.684   106377813.174         767.158          27.000  
> 2021  9 12 11 10 38.9975396  0  8
C06  36691659.493   191063244.614       -1219.960          24.000  
C13  37675145.140   196184227.291       -3078.593          20.000  
C16  37323564.734   194353616.452       -1176.393          26.000  
C25  22102344.365   115092677.433       -2436.959          32.000  
G10  20420518.269   107310533.686       -2696.841          28.000  
G32  21314797.373   112010033.394        -262.258          29.000  
J02  38212649.333   200808742.055       -2129.565          30.000  
R02  19934757.055   106375765.518         767.903          24.000  
> 2021  9 12 11 10 39.9975386  0  9
C06  36691595.337   191062904.170       -1220.558          26.000  
C13  37675432.341   196185744.780       -3079.464          20.000  
C16  37323491.584   194353232.401       -1178.307          24.000  
C23  23091839.352   120245386.3501        168.118          25.000  
C25  22102513.448   115093554.570       -2438.578          31.000  
C33  22574543.569   117551530.6921      -2552.164          22.000  
G10  20420731.122   107311655.881       -2698.273          29.000  
G32  21314547.946   112008720.046        -261.794          29.000  
R02  19934318.758   106373399.570         764.977          24.000  
> 2021  9 12 11 10 40.9975378  0  9
C06  36691588.142   191062874.938       -1219.626          27.000  
C07  37744468.248   196545442.0151         19.870          18.000  
C13  37675781.899   196187575.967       -3082.425          21.000  
C23  23091567.740   120243969.051         167.956          22.000  
C25  22102740.391   115094743.090       -2437.468          28.000  
C33  22574793.895   117552832.980       -2551.207          19.000  
G10  20421005.432   107313093.827       -2699.722          22.000  
G25  21031892.824   110523244.5811      -2674.648          19.000  
R02  19933938.322   106371355.011         764.618          24.000  
> 2021  9 12 11 10 41.9975370  0  7
C07  37744224.217   196544172.962          16.602          18.000  
C13  37676133.256   196189409.768       -3085.449          20.000  
C16  37323455.909   194353092.6981      -1179.494          23.000  
C23  23091296.728   120242553.506         164.941          24.000  
C25  22102968.833   115095930.114       -2436.833          23.000  
G32  21314169.907   112006723.8261       -263.439          28.000  
R02  19933556.086   106369310.033         765.790          30.000  
> 2021  9 12 11 10 42.9975360  0  9
C06  36691515.293   191062504.1571      -1219.565          21.000  
C07  37743921.727   196542595.390          16.752          19.000  
C16  37323379.162   194352711.856       -1181.062          22.000  
C23  23090967.856   120240827.853         163.616          25.000  
C25  22103135.518   115096806.473       -2438.763          25.000  
G10  20421501.289   107315660.1291      -2703.008          24.000  
G25  21032377.588   110525761.0581      -2676.324          19.000  
G32  21313921.679   112005411.594        -262.965          25.000  
R02  19933112.693   106366944.355         765.095          29.000  
> 2021  9 12 11 10 43.9975352  0  9
C06  36691508.997   191062473.163       -1218.532          20.000  
C07  37743681.893   196541329.854          16.104          25.000  
C13  37676778.709   196192774.2601      -3087.831          20.000  
C23  23090699.242   120239416.502         162.099          22.000  
C25  22103362.161   115097995.987       -2437.768          25.000  
C33  22575487.315   117556413.5991      -2546.478          18.000  
G10  20421774.700   107317102.695       -2702.552          26.000  
G32  21313731.910   112004414.242        -263.209          27.000  
R02  19932728.359   106364900.352         763.307          29.000  
> 2021  9 12 11 10 44.9975342  0  7
C13  37677069.807   196194299.555       -3085.686          19.000  
C16  37323289.824   194352259.6511      -1177.628          18.000  
C23  23090366.472   120237693.227         162.961          26.000  
C25  22103528.845   115098873.411       -2438.416          24.000  
G10  20421990.550   107318229.372       -2701.865          28.000  
G32  21313480.085   112003101.293        -262.098          26.000  
R02  19932284.367   106362536.582         764.282          29.000  
> 2021  9 12 11 10 45.9975334  0  8
C16  37323274.535   194352187.075       -1174.781          19.000  
C23  23090093.961   120236281.778         162.004          26.000  
C25  22103757.287   115100062.262       -2438.506          22.000  
G10  20422263.361   107319671.341       -2702.124          28.000  
G25  21033127.969   110529696.5861      -2677.853          19.000  
G31  21263945.377   111742716.1301       -536.373          13.000  
G32  21313289.717   112002102.214        -260.640          24.000  
R02  19931898.534   106360492.586         763.969          27.000  
> 2021  9 12 11 10 46.9975327  0  9
C07  37742927.015   196537375.6131         17.154          17.000  
C23  23089851.428   120235027.202         161.039          27.000  
C25  22104013.010   115101408.645       -2439.215          17.000  
C33  22576202.620   117560170.4361      -2554.959          24.000  
G10  20422565.552   107321271.382       -2703.637          28.000  
G25  21033427.161   110531272.031       -2678.702          20.000  
G31  21263836.552   111742152.521        -539.441          13.000  
G32  21313131.426   112001258.987        -257.824          18.000  
R02  19931542.680   106358609.780         762.841          26.000  
> 2021  9 12 11 10 47.9975319  0 10
C06  36691454.135   191062194.4191      -1216.805          17.000  
C13  37678157.155   196199949.9341      -3076.166          20.000  
C23  23089581.016   120233617.483         160.833          28.000  
C25  22104242.651   115102599.470       -2439.765          25.000  
C33  22576451.148   117561476.834       -2554.691          25.000  
G10  20422836.564   107322715.439       -2704.550          29.000  
G25  21033695.176   110532690.251       -2679.034          19.000  
G31  21263700.446   111741435.143        -544.842          15.000  
G32  21312943.756   112000257.909        -260.624          27.000  
R02  19931160.445   106356567.233         765.042          25.000  
> 2021  9 12 11 10 48.9975309  0 10
C06  36691388.181   191061850.038       -1216.826          19.000  
C07  37742381.993   196534528.5851         17.720          23.000  
C13  37678441.058   196201465.485       -3078.379          27.000  
C23  23089249.145   120231895.497         160.572          27.000  
C25  22104410.535   115103479.003       -2440.555          24.000  
G10  20423049.417   107323844.553       -2704.729          36.000  
G25  21033902.632   110533794.126       -2680.410          28.000  
G31  21263504.382   111740406.104        -547.793          28.000  
G32  21312692.530   111998944.020        -262.665          36.000  
R02  19930716.452   106354203.014         762.935          26.000  
> 2021  9 12 11 10 49.9975299  0  9
C07  37742081.301   196532950.663          15.720          29.000  
C16  37323132.433   194351420.7421      -1177.142          26.000  
C25  22104579.618   115104359.305       -2443.880          24.000  
G10  20423263.469   107324974.360       -2705.986          36.000  
G25  21034113.386   110534899.289       -2681.756          26.000  
G31  21263308.318   111739378.060        -547.660          30.000  
G32  21312442.503   111997631.526        -263.332          36.000  
J02  38214197.761   200816885.0451      -2130.392          29.000  
R02  19930270.061   106351840.450         761.997          28.000  
> 2021  9 12 11 10 50.9975293  0 12
C06  36691380.986   191061786.9031      -1216.507          25.000  
C07  37741899.027   196531998.352          14.100          27.000  
C13  37679139.275   196205126.2451      -3080.543          26.000  
C16  37323181.599   194351660.667       -1176.842          27.000  
C23  23088696.928   120229077.3731        159.812          30.000  
C25  22104868.018   115105865.812       -2442.401          30.000  
C33  22577136.773   117565082.9311      -2555.160          27.000  
G25  21034441.359   110536635.583       -2681.515          29.000  
G31  21263229.772   111738979.922        -546.692          25.000  
G32  21312308.796   111996949.338        -262.221          35.000  
J02  38214425.304   200818069.535       -2129.096          30.000  
R02  19929946.585   106350118.494         761.364          27.000  
> 2021  9 12 11 10 51.9975283  0  9
C07  37741595.037   196530423.751          13.580          23.000  
C23  23088365.057   120227356.104         160.024          34.000  
C25  22105039.200   115106746.894       -2441.671          32.000  
C33  22577326.842   117566077.742       -2556.936          25.000  
G10  20423813.288                       -2706.541          37.000  
G25  21034649.715   110537741.867       -2681.641          31.000  
G31  21263034.008   111737951.459        -547.079          27.000  
G32  21312060.567   111995636.465        -262.945          36.000  
J02  38214530.531   200818623.547       -2129.646          33.000  
> 2021  9 12 11 10 52.9975276  0 10
C06  36691345.610   191061567.5801      -1217.249          24.000  
C16  37323123.439   194351362.0851      -1179.505          26.000  
C23  23088122.825   120226103.524         159.221          32.000  
C25  22105299.719   115108095.882       -2442.063          32.000  
G10  20424120.875   107329467.6761      -2708.225          37.000  
G25  21034947.409   110539320.642       -2681.816          28.000  
G31  21262927.881   111737396.003        -547.858          27.000  
G32  21311904.076                        -264.753          36.000  
J02  38214724.197   200819650.292       -2129.653          35.000  
R02  19929153.934   106345875.1351        761.274          24.000  
> 2021  9 12 11 10 53.9975265  0  9
C06  36691248.477   191061067.550       -1218.358          26.000  
C16  37323021.210   194350823.110       -1178.440          28.000  
C25  22105443.920   115108821.000       -2442.043          32.000  
G10  20424310.344   107330442.445       -2708.023          37.000  
G25  21035125.186   110540269.502       -2682.507          28.000  
G31  21262702.437   111736210.564        -546.593          25.000  
G32  21311622.571   111993341.6171       -264.422          35.000  
J02  38214800.344                       -2129.282          34.000  
R02  19928682.060   106343355.166         760.710          25.000  
> 2021  9 12 11 10 54.9975260  0  9
C06  36691332.419   191061504.589       -1218.035          25.000  
C07  37740887.227   196526789.5051         17.399          26.000  
C16  37323100.355   194351220.500       -1179.128          24.000  
C23  23087581.700   120223287.3831        159.105          25.000  
C25  22105768.895                       -2443.069          35.000  
C33  22578110.799   117570164.9021      -2558.985          31.000  
G32  21311523.339   111992817.881        -263.810          37.000  
J02  38215054.268   200821472.1941      -2130.313          32.000  
R02  19928386.765   106341795.012         760.008          26.000  
> 2021  9 12 11 10 55.9975250  0  9
C06  36691265.565   191061161.213       -1217.173          26.000  
C07  37740583.538   196525211.487          16.267          23.000  
C25  22105936.778   115111421.0831      -2443.020          35.000  
C33  22578303.566   117571162.790       -2559.235          28.000  
G10  20424888.044   107333497.5301      -2709.514          35.000  
G32  21311271.214   111991506.137        -262.195          36.000  
J01  37548834.483   197320456.1061       -214.451          23.000  
J02  38215160.095   200822027.013       -2129.867          29.000  
R02  19927944.871   106339434.832         759.199          30.000  
> 2021  9 12 11 10 56.9975240  0  9
C06  36691197.213   191060816.147       -1214.962          25.000  
C07  37740278.349   196523634.351          16.124          27.000  
C25  22106105.861   115112303.002       -2443.983          36.000  
C33  22578496.032   117572160.315       -2558.527          31.000  
G10  20425102.995   107334631.533       -2709.990          35.000  
G31  21262256.946   111733915.5721       -550.415          26.000  
G32  21311019.088   111990194.494        -263.841          34.000  
J01  37548574.263   197319095.340        -214.935          26.000  
R02  19927501.178   106337074.895         759.644          28.000  
> 2021  9 12 11 10 57.9975232  0 11
C06  36691191.217   191060782.231       -1216.097          25.000  
C07  37740035.217   196522368.331          16.250          28.000  
C16  37322931.872   194350379.3671      -1174.989          18.000  
C25  22106334.303   115113497.510       -2444.089          35.000  
C33  22578749.357   117573469.691       -2558.221          30.000  
G10  20425382.702   107336081.328       -2710.496          35.000  
G25  21036185.552   110545809.0691      -2688.786          25.000  
G32  21310830.219   111989197.791        -265.278          34.000  
J01  37548374.301   197318049.392        -213.724          27.000  
J02  38215430.508   200823450.7261      -2129.125          30.000  
R02  19927118.643   106335035.700         759.069          27.000  
> 2021  9 12 11 10 58.9975224  0 12
C06  36691183.422   191060748.841       -1215.591          25.000  
C07  37739793.884   196521103.290          15.937          24.000  
C23  23086365.142   120216761.3921        156.907          24.000  
C25  22106563.944   115114692.204       -2442.137          35.000  
C33  22579002.682   117574779.142       -2557.953          28.000  
G10  20425662.408                       -2710.923          37.000  
G25  21036454.466   110547236.978       -2687.593          28.000  
G31  21261985.634   111732492.3671       -548.390          24.000  
G32  21310641.350   111988201.217        -263.919          34.000  
J01  37548174.340   197317003.330        -214.545          25.000  
J02  38215593.895   200824319.635       -2129.482          34.000  
R02  19926737.007   106332996.964         758.709          27.000  
> 2021  9 12 11 10 59.9975217  0  8
C06  36691206.506   191060870.598       -1214.088          23.000  
C07  37739582.531   196519995.508          14.729          27.000  
C16  37322938.767   194350387.3141      -1175.738          20.000  
C25  22106820.267   115116043.461       -2446.676          34.000  
C33  22579283.887   117576244.798       -2559.084          33.000  
G32  21310485.158   111987362.738        -264.718          34.000  
J01  37548005.257   197316115.993        -216.482          25.000  
R02  19926385.051   106331118.398         758.701          30.000  
> 2021  9 12 11 11  0.9975206  0 11
C06  36691106.675   191060368.386       -1215.558          25.000  
C07  37739249.761   196518263.256          15.144          27.000  
C25  22106958.771   115116770.777       -2443.479          30.000  
C33  22579446.974   117577086.639       -2559.557          28.000  
G10  20426148.971   107340167.8411      -2712.244          36.000  
G25  21036944.326   110549775.8021      -2687.335          24.000  
G31  21261657.661   111730754.7291       -548.679          23.000  
G32  21310204.552   111985894.017        -262.498          34.000    21310209.049    83625836.7891       -198.297          26.000  
J01  37547716.557   197314598.834        -215.508          26.000  
J02  38215872.102                       -2128.639          32.000  
R02  19925909.880   106328599.367         758.313          26.000  
> 2021  9 12 11 11  1.9975196  0 12
C06  36691037.723   191060022.165       -1215.221          27.000  
C07  37738950.268   196516687.296          14.225          26.000  
C16  37322754.994   194349460.1091      -1176.570          24.000  
C25  22107131.451   115117654.202       -2445.870          36.000  
C33  22579640.340   117578085.170       -2559.611          31.000  
G10  20426366.321   107341305.099       -2712.855          35.000  
G25  21037157.479   110550888.116       -2688.010          24.000  
G31  21261462.196   111729728.267        -549.847          26.000  
G32  21309956.624   111984582.606        -264.010          35.000    21309959.922    83624857.748        -197.012          26.000  
J01  37547458.735   197313238.099        -213.928          26.000  
J02  38215983.925   200826316.9701      -2127.557          32.000  
R02  19925473.082   106326242.865         755.750          26.000  
> 2021  9 12 11 11  2.9975191  0 10
C06  36691121.065   191060456.764       -1215.299          27.000  
C07  37738798.873   196515891.807          15.637          27.000  
C16  37322829.942   194349854.929       -1175.949          20.000  
C25  22107451.030                       -2445.264          33.000  
C33  22579981.804   117579864.821       -2560.439          30.000  
G10  20426729.070   107343230.363       -2712.792          31.000  
G32  21309856.793   111984059.455        -265.505          34.000    21309859.191    83624466.012        -197.722          27.000  
J01  37547351.410   197312664.377        -213.445          26.000  
J02  38216239.348   200827658.645       -2129.631          28.000  
R02  19925187.380   106324687.734         753.985          28.000  
> 2021  9 12 11 11  3.9975181  0 10
C06  36691055.411   191060110.520       -1215.869          28.000  
C07  37738492.785   196514316.403          14.212          25.000  
C23  23084930.035   120209270.6491        156.018          28.000  
C25  22107619.214                       -2444.270          33.000  
C33  22580173.071   117580864.826       -2562.458          29.000  
G10  20426946.719   107344368.385       -2715.596          37.000  
G31  21261219.664   111728467.6971       -551.862          21.000  
G32  21309599.271   111982748.343        -264.106          32.000    21309610.064    83623486.695        -196.450          27.000  
J01  37547090.290   197311303.811        -215.905          25.000  
J02  38216339.179   200828212.438       -2129.581          31.000  
> 2021  9 12 11 11  4.9975173  0  9
C06  36691048.216   191060077.514       -1216.599          27.000  
C07  37738251.752   196513052.829          14.882          25.000  
C25  22107847.955   115121399.7001      -2445.637          33.000  
C33  22580423.398   117582178.440       -2562.608          29.000  
G10  20427229.723                       -2714.667          36.000  
G31  21261084.757   111727760.357        -552.463          23.000  
G32                                                                  21309420.595    83622742.269        -197.981          27.000  
J01  37546892.127   197310258.583        -214.277          24.000  
R02  19924363.550   106320296.7731        755.345          24.000  
> 2021  9 12 11 11  5.9975163  0 11
C06  36690983.161   191059732.734       -1216.912          27.000  
C07  37737950.760   196511476.445          15.272          27.000  
C25  22108018.237   115122284.733       -2445.889          31.000  
C33  22580612.267   117583179.876       -2562.794          28.000  
G10  20427444.075   107346956.1041      -2715.464          37.000  
G25  21038216.346   110556444.9181      -2688.740          21.000  
G31  21260889.892   111726737.111        -551.159          24.000  
G32  21309168.769   111980442.0091       -265.587          34.000    21309172.667    83621764.785        -199.395          26.000  
J01  37546633.107   197308897.546        -214.553          26.000  
J02  38216606.594   200829637.1431      -2129.512          34.000  
R02  19923915.660   106317940.773         755.670          24.000  
> 2021  9 12 11 11  6.9975158  0  9
C06  36691065.004   191060168.311       -1215.508          29.000  
C07  37737795.468   196510680.818          15.751          24.000  
C16  37322738.806   194349395.2571      -1173.237          20.000  
C25  22108340.215   115123950.379       -2445.679          27.000  
G10  20427809.222   107348883.971       -2717.018          35.000  
G25  21038577.896   110558347.047       -2690.829          27.000  
G32  21309070.438   111979919.325        -263.534          33.000    21309074.035    83621375.518        -197.938          26.000  
J02  38216860.218   200830978.744       -2129.173          32.000  
R02  19923628.159   106316385.315         755.431          24.000  
> 2021  9 12 11 11  7.9975148  0  9
C06  36690994.553   191059822.174       -1215.123          28.000  
C07  37737494.776   196509104.037          15.824          25.000  
C16  37322665.356   194349007.409       -1173.523          29.000  
C25  22108511.696   115124835.791       -2447.283          27.000  
G10  20428026.571   107350024.755       -2715.496          36.000  
G23  22411189.656   117771595.9901      -4550.372          27.000  
G25  21038787.451   110559463.050       -2692.229          31.000  
G32  21308820.710   111978608.534        -264.007          36.000    21308824.907    83620397.018        -197.834          27.000  
R02  19923190.762   106314030.234         755.552          31.000  
> 2021  9 12 11 11  8.9975137  0 11
C06  36690895.921   191059319.814       -1214.792          27.000  
C07  37737162.006   196507371.182          15.346          26.000  
C16  37322560.429   194348463.866       -1173.528          30.000  
C25  22108654.097   115125565.629       -2446.456          27.000  
C33  22581299.991   117586806.7231      -2561.991          26.000  
G10  20428216.040   107351008.557       -2716.885          38.000  
G23  22411729.882   117774413.255       -4549.900          29.000  
G25  21038967.926   110560422.607       -2692.875          32.000  
G32  21308541.604   111977140.321        -264.764          36.000    21308544.602    83619300.289        -196.995          26.000  
J01  37545985.555   197305442.8211       -212.905          27.000  
R02  19922718.889   106311514.645         755.633          31.000  
> 2021  9 12 11 11  9.9975130  0 10
C06  36690917.806   191059442.874       -1215.624          27.000  
C16  37322577.217   194348544.076       -1172.829          30.000  
C25  22108917.015   115126919.122       -2446.750          28.000  
C33  22581581.796   117588276.953       -2563.188          28.000  
G10  20428523.328   107352623.084       -2718.136          38.000  
G25  21039265.320   110562012.919       -2693.218          30.000  
G32  21308379.116   111976301.968        -264.070          34.000    21308385.112    83618673.472        -196.444          27.000  
J01  37545821.868   197304552.635        -212.825          26.000  
J02  38217243.653   200832958.3451      -2129.635          24.000  
R02  19922371.429   106309639.580         754.993          32.000  
> 2021  9 12 11 11 10.9975122  0  9
C06  36690913.309   191059411.128       -1217.921          27.000  
C25  22109146.356   115128117.250       -2447.295          33.000  
C33  22581834.221   117589591.865       -2563.772          28.000  
G10  20428798.537   107354080.575       -2718.521          33.000  
G23  22413012.694   117781150.7241      -4550.556          26.000  
G32                                                                  21308195.943    83617930.270        -198.838          24.000  
J01  37545621.607   197303507.041        -215.071          26.000  
J02  38217407.040   200833827.292       -2129.509          30.000  
R02  19921989.494   106307605.041         754.507          30.000  
> 2021  9 12 11 11 11.9975114  0  9
C06  36690910.311   191059379.289       -1216.713          25.000  
C25  22109375.398   115129316.265       -2448.611          30.000  
C33  22582087.546   117590907.141       -2564.533          29.000  
G10  20429076.145   107355538.957       -2718.547          36.000  
G25  21039806.145   110564879.1801      -2693.452          22.000  
G32  21308002.577   111974311.5361       -264.298          32.000    21308006.774    83617188.005        -198.837          26.000  
J01  37545423.744   197302461.687        -215.078          21.000  
J02  38217569.227   200834696.511       -2129.772          31.000  
R02  19921613.254   106305571.055         754.255          29.000  
> 2021  9 12 11 11 12.9975104  0  9
C06  36690844.057   191059033.867       -1214.490          29.000  
C13  37686467.102   196243401.5321      -3078.505          26.000  
C23  23082371.607   120195865.4361        152.468          25.000  
C25  22109543.581   115130203.665       -2448.103          31.000  
C33  22582281.212   117591911.305       -2565.521          28.000  
G10  20429294.394   107356682.680       -2720.784          35.000  
G25  21040017.199   110565997.542       -2694.440          24.000  
G32  21307745.355   111973001.078        -263.436          31.000    21307757.047    83616209.457        -197.760          27.000  
J02  38217673.255   200835250.979       -2129.795          30.000  
> 2021  9 12 11 11 13.9975096  0 12
C06  36690838.061   191058998.615       -1213.614          29.000  
C13  37686819.058   196245231.804       -3082.926          13.000  
C16  37322453.703   194347940.1291      -1174.138          21.000  
C23  23082101.494   120194464.192         152.466          24.000  
C25  22109773.223   115131403.164       -2448.980          28.000  
C33  22582534.537   117593227.602       -2564.784          29.000  
G10  20429571.702   107358142.135       -2721.213          35.000  
G23  22414819.543   117790712.8961      -4559.871          22.000  
G32  21307556.785   111972005.755        -265.265          30.000    21307567.578    83615466.743        -196.910          26.000  
J01  37544966.261   197300054.6731       -214.465          21.000  
J02  38217836.642   200836119.890       -2128.710          30.000  
R02  19920790.024   106301187.2171        751.879          21.000  
> 2021  9 12 11 11 14.9975089  0 10
C06  36690862.345   191059119.184       -1213.989          31.000  
C16  37322469.292   194348021.677       -1174.048          21.000  
C23  23081861.660   120193219.387         151.642          28.000  
C25  22110031.943   115132759.411       -2449.016          33.000  
C33  22582819.339   117594699.566       -2565.065          31.000  
G31  21259631.363   111720056.3761       -553.754          21.000  
G32                                                                  21307407.489    83614840.167        -197.681          24.000  
J01  37544797.478   197299165.285        -213.190          25.000  
J02  38218030.908   200837146.023       -2129.171          27.000  
R02  19920438.967   106299314.952         752.750          28.000  
> 2021  9 12 11 11 15.9975078  0 11
C06  36690764.013   191058615.993       -1214.450          28.000  
C07  37735370.746   196498063.9211         13.648          27.000  
C13  37687470.807   196248592.4231      -3090.215          15.000  
C23  23081504.307   120191350.320         152.468          32.000  
C25  22110171.647   115133491.305       -2449.183          35.000  
C33  22582982.427   117595548.244       -2566.352          28.000  
G10  20430066.959   107360747.1571      -2721.516          36.000  
G23  22416000.726   117796989.3791      -4552.918          14.000  
G32  21307129.281   111969700.1971       -266.282          35.000    21307128.082    83613742.791        -196.849          25.000  
J01  37544509.377   197297644.737        -212.086          22.000  
J02  38218107.355   200837541.360       -2128.658          27.000  
> 2021  9 12 11 11 16.9975071  0 11
C06  36690787.696   191058737.530       -1214.223          25.000  
C07  37735159.693   196496957.550          13.350          25.000  
C16  37322384.151   194347561.0621      -1174.447          16.000  
C23  23081265.372   120190105.696         151.241          29.000  
C25  22110430.667   115134847.503       -2449.151          32.000  
C33  22583267.529   117597021.070       -2565.604          30.000  
G10  20430370.949   107362366.021       -2724.554          35.000  
G32  21306972.490   111968862.831        -265.665          36.000    21306968.293    83613115.562        -195.345          25.000  
J01  37544339.694   197296753.837        -212.090          24.000  
J02  38218302.520   200838567.389       -2128.930          28.000  
R02  19919612.139   106294928.3801        753.055          28.000  
> 2021  9 12 11 11 17.9975060  0 13
C06  36690691.463   191058234.259       -1214.484          28.000  
C07  37734829.021   196495225.987          14.668          25.000  
C13  37688120.757   196251962.8221      -3090.077          17.000  
C16  37322281.322   194347017.135       -1173.271          30.000  
C23  23080907.420   120188237.380         151.076          31.000  
C25  22110570.371   115135579.744       -2449.842          30.000  
C33  22583432.415   117597870.127       -2566.496          28.000  
G10  20430562.516   107363355.212       -2722.797          34.000  
G23  22417202.294   117803258.6041      -4552.760          22.000  
G25  21041304.508   110572549.2911      -2698.224          17.000  
G32                                                                  21306689.786    83612017.686        -196.884          25.000  
J01  37544049.795   197295234.912        -214.391          24.000  
J02  38218377.768   200838962.749       -2129.843          26.000  
> 2021  9 12 11 11 18.9975055  0 12
C06  36690774.206   191058667.889       -1214.356          30.000  
C07  37734678.825   196494430.938          14.445          27.000  
C16  37322356.270   194347408.830       -1172.101          28.000  
C25  22110889.949   115137249.221       -2449.992          32.000  
C33  22583774.778   117599656.792       -2567.639          30.000  
G10  20430938.156   107365290.258       -2724.407          34.000  
G25  21041667.856   110574460.326       -2699.475          26.000  
G31  21259058.160   111716922.1251       -555.622          23.000  
G32  21306576.764   111966873.2211       -265.408          32.000    21306591.454    83611626.976        -198.098          24.000  
J01  37543939.472   197294661.869        -215.280          26.000  
J02  38218631.992   200840305.042       -2130.792          24.000  
R02  19918851.566   106290865.3081        751.826          28.000  
> 2021  9 12 11 11 19.9975045  0  9
C06  36690707.052   191058320.932       -1214.171          29.000  
C13  37688855.548   196255797.2191      -3084.654          17.000  
C25  22111062.630   115138138.044       -2449.596          29.000  
G10  20431156.405   107366438.198       -2723.124          36.000  
G25  21041882.208   110575584.472       -2699.883          27.000  
G32  21306332.733   111965563.649        -265.212          33.000    21306342.926    83610649.102        -199.631          25.000  
J01  37543679.252   197293302.082        -215.819          27.000  
J02  38218736.919   200840859.814       -2130.337          27.000  
R02  19918413.869   106288514.290         751.211          30.000  
> 2021  9 12 11 11 20.9975035  0 11
C06  36690639.899   191057973.637       -1213.459          29.000  
C07  37734079.840   196491279.9321         14.180          26.000  
C25  22111233.811   115139027.298       -2450.872          31.000  
C33  22584157.013   117601669.9981      -2568.841          27.000  
G10  20431373.754   107367586.862       -2724.793          35.000  
G31  21258671.428   111714882.4001       -556.852          24.000  
G32  21306086.004   111964254.141        -267.015          35.000    21306093.498    83609670.853        -197.003          25.000  
J01  37543421.430   197291942.144        -214.798          24.000  
J02  38218843.645   200841415.338       -2131.654          28.000  
R02  19917968.977   106286163.319         750.769          31.000  
R12  19678759.778   105120401.7461      -3522.480          26.000  
> 2021  9 12 11 11 21.9975027  0  8
C06  36690632.104   191057937.151       -1211.748          29.000  
C07  37733837.008   196490017.026          14.817          28.000  
C13  37689498.903   196259148.9481      -3079.218          19.000  
C25  22111465.551   115140229.429       -2451.925          31.000  
G10  20431649.264   107369051.153       -2723.372          37.000  
G32  21305897.134   111963259.715        -266.139          35.000    21305903.730    83608926.539        -197.640          24.000  
J02  38219010.630   200842287.415       -2132.824          24.000  
R02  19917588.241   106284132.934         750.184          29.000  
> 2021  9 12 11 11 22.9975020  0 14
C06  36690654.588   191058056.868       -1212.860          28.000  
C07  37733624.755   196488909.653          14.366          29.000  
C13  37689880.838   196261135.507       -3078.368          20.000  
C16  37322209.972   194346633.4471      -1171.937          20.000  
C23  23079570.646   120181245.7211        148.344          26.000  
C25  22111728.769   115141588.175       -2451.967          28.000  
C33  22584690.344   117604464.3051      -2568.333          27.000  
G10  20431960.148   107370673.668       -2726.447          37.000  
G25  21042668.564   110579754.0751      -2704.485          20.000  
G32  21305736.146   111962422.937        -267.692          34.000    21305745.140    83608302.850        -201.598          24.000  
J01  37543052.985   197290009.6391       -215.991          22.000  
J02  38219208.193   200843316.482       -2131.602          27.000  
R02  19917233.886   106282263.078         749.643          32.000  
R12  19679630.675   105125054.6001      -3525.062          25.000  
> 2021  9 12 11 11 23.9975012  0 13
C06  36690648.593   191058021.683       -1214.387          30.000  
C07  37733382.223   196487646.172          16.105          27.000  
C16  37322194.083   194346557.271       -1173.610          26.000  
C23  23079301.132   120179848.574         147.511          31.000  
C25  22111959.609   115142790.515       -2448.887          24.000  
C33  22584946.667   117605783.759       -2568.623          29.000  
G10  20432240.154   107372139.482       -2728.038          34.000  
G25  21042944.073   110581199.040       -2705.470          20.000  
G32  21305551.474   111961429.064        -266.102          35.000    21305556.570    83607562.266        -200.650          26.000  
J01  37542852.424   197288965.652        -216.449          28.000  
J02  38219375.477   200844187.192       -2130.337          27.000  
R02  19916851.950   106280233.729         749.290          30.000  
R12  19680049.785   105127293.184       -3524.864          26.000  
> 2021  9 12 11 11 24.9975002  0  8
C06  36690581.739   191057674.940       -1213.993          28.000  
C13  37690522.994   196264486.1581      -3080.779          21.000  
C33  22585140.333   117606792.401       -2569.740          26.000  
G10  20432458.703   107373290.919       -2727.150          29.000  
G32  21305302.346   111960119.980        -266.749          38.000    21305307.443    83606586.558        -201.282          27.000  
J01  37542594.303   197287605.328        -214.608          26.000  
J02  38219482.803   200844742.434       -2130.685          27.000    38219484.901   149981467.1031      -1592.545          21.000  
R12  19680409.836   105129216.129       -3525.884          28.000  
> 2021  9 12 11 11 25.9974994  0 10
C06  36690574.844   191057639.861       -1213.156          28.000  
C07  37732836.901   196484807.2921         13.682          19.000  
C16  37322099.648   194346090.9341      -1170.154          22.000  
C33  22585395.756   117608113.227       -2570.119          30.000  
G10  20432736.011   107374757.291       -2726.672          32.000  
G32  21305114.076   111959126.254        -266.256          38.000    21305117.674    83605845.062        -199.062          29.000  
J01  37542394.641   197286559.520        -214.499          27.000  
J02  38219647.389   200845612.753       -2130.113          28.000    38219649.187   149982117.350       -1590.468          23.000  
R02  19916038.314   106275856.2941        748.386          32.000  
R12  19680830.145   105131461.606       -3526.089          28.000  
> 2021  9 12 11 11 26.9974986  0 11
C06  36690567.649   191057602.660       -1211.421          29.000  
C16  37322085.858   194346011.903       -1169.682          24.000  
C23  23078423.340   120175348.4361        147.169          28.000  
C33  22585650.879   117609434.835       -2571.160          30.000  
G10  20433014.219   107376224.324       -2728.186          35.000  
G25  21043684.261   110585216.3131      -2704.701          26.000  
G32  21304923.708   111958132.404        -267.687          38.000    21304928.205    83605103.054        -199.092          27.000  
J01  37542193.780   197285514.839        -215.606          28.000  
J02  38219812.574   200846482.722       -2130.412          27.000    38219814.673   149982764.983       -1589.698          24.000  
R02  19915657.877   106273828.141         748.297          31.000  
R12  19681252.852   105133719.676       -3527.743          29.000  
> 2021  9 12 11 11 27.9974976  0 10
C06  36690501.694   191057253.626       -1213.157          29.000  
C07  37732293.077   196481971.0311         13.276          21.000  
C33  22585845.145   117610444.837       -2571.646          27.000  
G10  20433232.468   107377377.090       -2728.309          31.000  
G25  21043896.214   110586345.272       -2705.308          24.000  
G32  21304670.683   111956824.344        -266.176          33.000    21304678.778    83604125.896        -199.160          27.000  
J01  37541933.260   197284154.611        -214.519          27.000  
J02  38219917.801   200847038.016       -2131.826          29.000    38219920.799   149983178.382       -1589.649          22.000  
R02  19915211.486   106271480.580         747.175          29.000  
R12  19681612.903   105135643.069       -3529.299          28.000  
> 2021  9 12 11 11 28.9974968  0  7
C06  36690494.499   191057217.980       -1213.618          27.000  
C25  22113002.287   115148172.1631      -2452.575          20.000  
G25  21044166.027   110587790.685       -2706.586          22.000  
G32  21304485.112   111955831.534        -267.478          32.000    21304489.009    83603383.980        -201.673          28.000  
J01  37541731.500   197283109.105        -214.390          25.000  
J02  38220080.589   200847910.184       -2132.203          24.000    38220087.484   149983826.101       -1587.982          24.000  
R02  19914828.051   106269453.568         746.823          29.000  
> 2021  9 12 11 11 29.9974958  0 10
C06  36690430.044   191056870.640       -1214.215          30.000  
C07  37731748.054   196479134.9481         13.803          22.000  
C25  22113171.070   115149063.052       -2451.918          26.000  
C33  22586301.129   117612778.7371      -2572.499          25.000  
G10  20433729.523   107380000.5571      -2730.527          34.000  
G32  21304240.781   111954522.862        -266.925          37.000    21304240.181    83602409.388        -202.106          28.000  
J01  37541471.580   197281747.510        -214.489          23.000  
J02  38220186.116   200848465.764       -2130.178          24.000    38220193.910   149984239.824       -1593.332          24.000  
R02  19914387.357   106267106.948         746.193          29.000  
R12  19682403.156   105139864.6911      -3528.181          24.000  
> 2021  9 12 11 11 30.9974953  0  9
C06  36690511.887   191057303.381       -1214.178          29.000  
C07  37731589.464   196478339.877          15.532          24.000  
C23  23077337.192   120169608.8381        145.732          25.000  
C25  22113490.949   115150734.837       -2453.278          30.000  
C33  22586644.092   117614570.441       -2572.576          25.000  
G32  21304139.151   111954002.195        -266.545          33.000    21304140.950    83602021.036        -198.159          22.000  
J01  37541356.160   197281174.919        -215.457          22.000  
J02  38220440.040   200849808.058       -2130.482          29.000  
R12  19682915.501   105142601.157       -3528.243          25.000  
> 2021  9 12 11 11 31.9974943  0 12
C06  36690444.434   191056955.500       -1212.325          26.000  
C07  37731284.875   196476763.256          15.664          26.000  
C23  23077014.315   120167902.744         143.766          26.000  
C25  22113661.830   115151627.590       -2455.378          26.000  
C33  22586838.957   117615581.600       -2572.993          25.000  
G10  20434321.614   107383098.5701      -2732.410          35.000  
G25  21044952.083   110591971.6071      -2707.371          25.000  
G32  21303887.625   111952693.637        -266.463          35.000    21303891.523    83601041.840        -198.138          25.000  
J01  37541098.039   197279814.192        -215.064          21.000  
J02  38220544.668   200850362.487       -2130.419          29.000  
R02  19913655.863   106263214.1851        747.032          23.000  
R12  19683277.351   105144534.012       -3529.013          21.000  
> 2021  9 12 11 11 32.9974935  0 10
C06  36690436.639   191056919.407       -1213.003          23.000  
C07  37731042.943   196475498.873          15.385          25.000  
C23  23076749.898   120166509.602         144.066          28.000  
C25  22113890.572   115152834.404       -2455.163          24.000  
C33  22587093.181   117616906.208       -2574.983          22.000  
G10  20434602.819                       -2730.163          35.000  
G25  21045225.793   110593419.034       -2708.047          26.000  
G32  21303694.859   111951700.566        -266.867          35.000    21303703.553    83600299.445        -199.576          28.000  
J02  38220708.654   200851232.106       -2129.371          27.000  
R12  19683695.861   105146770.177       -3530.581          24.000  
> 2021  9 12 11 11 33.9974925  0  9
C23  23076422.225   120164803.976         144.269          30.000  
C25  22114061.154   115153729.198       -2456.607          17.000  
C33  22587286.547   117617919.006       -2574.780          22.000  
G10  20434824.365   107385718.7051      -2732.386          34.000  
G25  21045441.644   110594551.819       -2708.836          26.000  
G32  21303449.629   111950392.269        -266.886          36.000    21303454.725    83599321.501        -196.715          28.000  
J02  38220809.384   200851785.784       -2129.176          22.000  
R02  19912838.928   106258840.6821        746.318          26.000  
R12  19684057.411   105148701.365       -3530.558          24.000  
> 2021  9 12 11 11 34.9974917  0  8
C06  36690369.186   191056536.3751      -1212.315          23.000  
C07  37730505.115   196472661.4301         11.318          20.000  
C23  23076155.710   120163410.694         144.288          32.000  
C33  22587541.370   117619243.744       -2572.383          22.000  
G10  20435103.772   107387191.113       -2733.594          34.000  
G25  21045716.853   110596000.480       -2709.311          26.000  
G32  21303263.458   111949399.278        -267.441          38.000    21303265.856    83598579.047        -199.902          28.000  
R02  19912458.492   106256815.345         744.980          28.000  
> 2021  9 12 11 11 35.9974909  0  8
C06  36690363.490   191056499.362       -1211.530          22.000  
C07  37730262.883   196471400.435          13.118          20.000  
C23  23075886.196   120162018.076         142.802          31.000  
G10  20435383.179   107388664.435       -2733.808          36.000  
G32  21303071.890   111948406.540        -267.337          36.000    21303076.987    83597837.404        -199.217          28.000  
J02  38221140.655   200853524.5501      -2130.331          20.000  
R02  19912079.554   106254790.840         743.685          29.000  
R12  19684868.049   105153031.4131      -3532.378          19.000  
> 2021  9 12 11 11 36.9974899  0  6
C07  37729961.591   196469826.300          13.026          20.000  
C23  23075557.624   120160313.829         143.241          30.000  
G10  20435605.924   107389823.046       -2735.015          36.000  
G25  21046211.211   110598584.5921      -2710.424          28.000  
G32  21302825.461   111947098.732        -267.338          36.000    21302828.159    83596860.791        -200.089          28.000  
R02  19911642.157   106252447.401         744.560          28.000  
> 2021  9 12 11 11 37.9974892  0  9
C07  37729747.240   196468720.190          12.451          20.000  
C23  23075318.090   120159078.306         142.686          29.000  
C33  22588277.061   117623069.5381      -2581.162          16.000  
G10  20435916.509   107391455.815       -2734.936          35.000  
G25  21046517.599   110600192.660       -2711.574          29.000  
G32  21302667.170   111946264.536        -268.686          36.000    21302668.969    83596237.777        -199.768          28.000  
J01  37539811.629   197273075.2791       -215.931          21.000  
R02  19911294.398   106250583.521         743.460          29.000  
R12  19685686.783   105157404.5301      -3534.549          20.000  
> 2021  9 12 11 11 38.9974884  0  7
C07  37729502.909   196467458.402          13.901          25.000  
G10  20436198.314   107392931.255       -2736.915          32.000  
G25  21046794.907   110601644.566       -2712.614          27.000  
G32  21302477.102   111945272.511        -266.523          36.000    21302480.400    83595496.975        -200.691          28.000  
J01  37539612.267   197272031.089        -216.565          22.000  
R02  19910915.460   106248560.613         743.253          29.000  
R12  19686105.293   105159640.891       -3534.747          20.000  
> 2021  9 12 11 11 39.9974874  0  9
C06  36690244.173   191055876.4041      -1210.780          19.000  
C07  37729198.919   196465883.775          12.483          26.000  
C16  37321670.045   194343750.7921      -1171.630          27.000  
C33  22588729.748   117625422.1251      -2581.441          16.000  
G10  20436419.261   107394092.114       -2737.198          32.000  
G25  21047011.057   110602781.934       -2712.957          26.000  
G32  21302227.974   111943965.278        -268.553          35.000    21302232.172    83594521.209        -200.186          29.000  
R02  19910479.562   106246217.581         742.290          29.000  
R12  19686465.344   105161563.943       -3534.393          20.000  
> 2021  9 12 11 11 40.9974866  0  9
C07  37728954.588   196464622.491          12.081          24.000  
C16  37321654.156   194343674.115       -1172.846          27.000  
C23  23074439.398   120154595.9741        141.157          27.000  
G10  20436698.968   107395568.872       -2736.863          34.000  
G23  22431344.703   117877485.1121      -4560.578          25.000  
G32  21302034.608   111942973.593        -268.392          34.000    21302042.703    83593779.763        -200.496          29.000  
J01  37539159.880   197269628.7631       -216.012          24.000  
R02  19910101.524   106244195.196         742.109          29.000  
R12  19686888.351   105163823.371       -3535.115          20.000  
> 2021  9 12 11 11 41.9974856  0  9
C07  37728651.498   196463051.224           7.970          24.000  
C16  37321580.108   194343284.924       -1172.428          25.000  
C23  23074112.324   120152893.651         141.580          28.000  
G23  22431909.512   117880470.402       -4561.164          26.000  
G25  21047504.816   110605373.8681      -2714.663          28.000  
G32  21301793.875   111941666.984        -267.671          34.000    21301794.175    83592804.679        -202.304          29.000  
J01  37538902.359   197268269.980        -217.173          24.000  
R02  19909665.925   106241853.962         741.294          29.000  
R12  19687255.597   105165785.189       -3536.515          20.000  
> 2021  9 12 11 11 42.9974848  0  7
C16  37321563.619   194343208.020       -1171.764          27.000  
C23  23073845.809   120151503.327         140.442          28.000  
G10  20437205.317   107398209.6491      -2740.182          34.000  
G32  21301605.306   111940675.765        -269.579          36.000    21301605.905    83592065.392        -202.096          28.000  
J01  37538705.095   197267226.455        -215.614          26.000  
R02  19909288.486   106239833.022         741.369          29.000  
R12  19687672.008   105168009.761       -3536.738          21.000  
> 2021  9 12 11 11 43.9974840  0  6
C16  37321548.330   194343130.331       -1171.336          27.000  
G10  20437485.623   107399688.520       -2739.483          35.000  
G23  22433160.546   117887071.9141      -4561.057          26.000  
G32  21301413.438   111939684.609        -269.351          33.000    21301416.436    83591326.089        -201.152          29.000  
J01  37538505.433   197266181.566        -215.478          23.000  
R12  19688086.921   105170226.337       -3537.032          21.000  
> 2021  9 12 11 11 44.9974833  0 11
C06  36690176.120   191055526.7941      -1212.761          18.000  
C07  37727949.384   196459431.3411         10.800          23.000  
C16  37321563.919   194343208.786       -1171.689          24.000  
C23  23073340.359   120148881.3821        139.686          29.000  
C33  22589966.092   117631898.5421      -2576.579          20.000  
G10  20437797.707   107401325.713       -2740.102          34.000  
G25  21048365.820   110609896.5981      -2716.378          27.000  
G32                                                                  21301257.546    83590703.600        -201.582          29.000  
J01  37538334.252   197265294.780        -216.441          24.000  
R02  19908550.098   106235952.6621        740.720          26.000  
R12  19688542.006   105172656.600       -3537.681          23.000  
> 2021  9 12 11 11 45.9974822  0  9
C07  37727617.214   196457703.489          10.567          24.000  
C16  37321460.491   194342663.627       -1171.910          24.000  
C23  23072979.709   120147023.989         139.888          28.000  
G10  20437987.775   107402333.656       -2741.734          34.000  
G25  21048551.691   110610880.313       -2717.198          27.000  
G32  21300972.144   111937388.0661       -269.255          31.000    21300979.339    83589611.293        -201.974          29.000  
J01  37538045.852   197263778.596        -217.548          25.000  
R02  19908077.025   106233451.932         740.405          25.000  
R12  19688876.574   105174443.874       -3538.369          22.000  
> 2021  9 12 11 11 46.9974815  0  9
C03  34682130.261                       -1363.477          31.000  
C07  37727402.862   196456599.290          12.673          24.000  
C16  37321474.881   194342742.388       -1172.766          23.000  
G10  20438302.857   107403972.610       -2743.528          33.000  
G25  21048856.880   110612495.266       -2718.426          26.000  
G32  21300809.057   111936555.482        -270.664          32.000    21300821.048    83588989.372        -200.893          28.000  
J01  37537876.169   197262893.074        -217.786          24.000  
R02  19907725.069   106231591.606         740.316          24.000  
R12  19689322.666   105176827.578       -3539.556          23.000  
> 2021  9 12 11 11 47.9974807  0  7
C07  37727160.330   196455337.576          12.831          23.000  
C16  37321458.392   194342666.812       -1173.442          21.000  
G10  20438585.861   107405455.065       -2743.520          32.000  
G32  21300623.485   111935565.858        -271.509          31.000    21300632.179    83588248.856        -202.264          28.000  
J01  37537680.405   197261850.683        -217.771          25.000  
R02  19907345.831   106229570.219         742.768          22.000  
R12  19689752.868   105179125.232       -3540.220          23.000  
> 2021  9 12 11 11 48.9974797  0  8
C07  37726855.741   196453764.342          10.764          24.000  
G10  20438801.712   107406623.438       -2744.143          34.000  
G23  22436191.748   117903111.3931      -4564.309          17.000  
G25  21049352.736   110615098.4601      -2720.425          27.000  
G32  21300380.653   111934261.532        -270.819          32.000    21300384.251    83587275.184        -203.925          28.000  
J01  37537422.283   197260492.561        -217.075          25.000  
R02  19906909.933   106227229.529         738.898          24.000  
R12  19690120.413   105181088.659       -3541.570          24.000  
> 2021  9 12 11 11 49.9974789  0  8
C03  34682136.556   180598985.8881      -1364.585          31.000  
C07  37726613.809   196452505.731           8.789          25.000  
C16  37321362.458   194342197.7901      -1172.303          20.000  
G10  20439086.215   107408107.846       -2745.041          32.000  
G25  21049633.042   110616558.866       -2720.752          24.000  
G32  21300186.388   111933272.766        -272.624          30.000    21300196.281    83586536.517        -202.697          28.000  
J01  37537222.022   197259448.815        -217.117          25.000  
R02  19906527.098   106225211.667         737.567          23.000  
> 2021  9 12 11 11 50.9974779  0  8
C03  34682100.282   180598789.808       -1365.217          32.000  
C23  23071555.694   120139627.8241        133.696          25.000  
E01                                                                                                                                  23645258.928    92789073.7581       -171.354          28.000  
G10  20439307.462   107409278.021       -2747.215          35.000  
G25  21049848.893   110617705.103       -2722.320          24.000  
G32  21299941.757   111931969.436        -272.212          30.000    21299948.053    83585562.969        -204.691          29.000  
J01  37536965.400   197258091.771        -217.418          25.000  
R02  19906091.799   106222874.426         736.916          20.000  
> 2021  9 12 11 11 51.9974774  0  9
C03  36480967.752   189965971.834       -1365.938          33.000  
C23  23071380.616   120138713.717         133.470          27.000  
E01                                                                                                                                  23645153.101    92788485.533        -171.557          27.000  
G10  20439679.504   107411236.975       -2747.561          33.000  
G25  21050218.837   110619640.141       -2724.230          26.000  
G32  21299849.121   111931454.165        -271.642          30.000    21299849.721    83585178.595        -201.902          27.000  
J01  37536859.273   197257522.175        -219.241          25.000  
R02  19905808.795   106221338.621         734.611          24.000  
R12  19691434.404   105188107.9091      -3544.856          26.000  
> 2021  9 12 11 11 52.9974764  0 10
C03  36480931.177   189965777.047       -1366.924          33.000  
C16  37321278.816   194341811.9571      -1174.507          23.000  
C23  23071052.643   120137019.531         133.161          28.000  
E01                                                                                                                                  23644897.078    92787654.083        -171.794          27.000  
G10  20439899.852   107412409.221       -2745.481          32.000  
G25  21050438.884   110620789.665       -2725.915          24.000  
G32  21299594.298   111930151.643        -275.112          29.000    21299601.193    83584205.338        -203.710          26.000  
J01  37536601.452   197256165.010        -218.259          23.000  
R02  19905376.495   106219004.484         733.700          21.000  
R12  19691801.949   105190071.026       -3544.055          26.000  
> 2021  9 12 11 11 53.9974753  0  9
C03  36480864.323   189965426.870       -1367.523          33.000  
C16  37321173.289   194341268.649       -1173.259          22.000  
E01                                                                                                                                  23644610.477    92786359.988        -168.915          27.000  
G10  20440091.119   107413424.834       -2750.263          31.000  
G25  21050627.454   110621783.427       -2727.439          25.000  
G32  21299314.292   111928692.132        -275.337          29.000    21299323.285    83583115.794        -204.677          28.000  
J01  37536313.051   197254650.714        -218.963          24.000  
R02  19904910.018   106216511.194         733.156          22.000  
R12  19692136.518   105191858.043       -3546.903          26.000  
> 2021  9 12 11 11 54.9974746  0  9
C03  36480917.986   189965701.653       -1367.572          31.000  
E01                                                                                                                                  23644444.692    92785879.473        -170.774          24.000  
G10  20440405.302   107415071.732       -2752.806          32.000  
G23  22439860.908   117922457.8561      -4563.458          17.000  
G25  21050935.940   110623409.606       -2729.419          24.000  
G32  21299161.397   111927862.787        -275.001          30.000    21299165.295    83582497.593        -205.822          27.000  
J01  37536144.268   197253767.222        -219.913          25.000  
R02  19904559.260   106214658.377         732.108          23.000  
R12  19692589.804   105194279.065       -3547.608          27.000  
> 2021  9 12 11 11 55.9974738  0  7
C03  36480940.470   189965820.651       -1368.354          31.000  
C07  37725069.578   196444485.9271          9.749          22.000  
E01                                                                                                                                  23644249.227    92784938.313        -171.696          25.000  
G31  21253518.895   111687839.4541       -577.204          22.000  
G32  21298971.029   111926876.641        -273.747          29.000    21298977.625    83581762.361        -206.702          27.000  
J01  37535946.105   197252727.042        -219.718          25.000  
R12  19693014.010   105196545.437       -3547.296          27.000  
> 2021  9 12 11 11 56.9974730  0  9
C03  36480963.554   189965940.120       -1368.520          33.000  
C07  37724828.245   196443228.573           8.423          22.000  
E01                                                                                                                                  23644053.462    92784344.153        -173.043          23.000  
G10  20440969.511   107418053.2301      -2751.312          32.000  
G25  21051495.653   110626347.4821      -2729.064          23.000  
G32  21298781.261   111925890.617        -275.077          29.000    21298790.254    83581027.373        -206.507          28.000  
J01  37535747.343   197251686.210        -220.217          26.000  
R02  19903804.683   106210635.6421        731.443          24.000  
R12  19693440.315   105198822.459       -3549.501          26.000  
> 2021  9 12 11 11 57.9974720  0 10
C03  36480926.080   189965747.706       -1368.938          33.000  
C13  37701641.697   196322226.0461      -3089.365          26.000  
C23  23069607.643   120129491.6841        129.306          23.000  
E01                                                                                                                                  23643797.440    92783167.703        -176.369          22.000  
G10  20441192.257   107419230.092       -2749.162          31.000  
G25  21051720.797   110627500.296       -2726.753          24.000  
G31  21253183.427   111686156.9901       -576.353          21.000  
G32  21298533.032   111924590.204        -274.993          30.000    21298542.626    83580057.226        -206.015          27.000  
J01  37535489.821   197250330.326        -218.736          26.000  
R02  19903372.382   106208304.522         731.316          24.000  
> 2021  9 12 11 11 58.9974710  0  9
C03  36480889.206   189965555.647       -1369.329          30.000  
C13  37701933.694   196323756.489       -3092.250          22.000  
C23  23069281.469   120127800.648         130.594          21.000  
E01                                                                                                                                  23643542.016    92782336.253        -177.377          23.000  
G10  20441413.804   107420407.843       -2754.245          29.000  
G32  21298285.704   111923290.359        -276.115          30.000    21298295.897    83579087.351        -205.750          26.000  
J01  37535229.901   197248974.847        -220.412          24.000  
R02  19902942.180   106205973.606         731.475          23.000  
R12  19694176.006   105202753.0121      -3551.491          26.000  
> 2021  9 12 11 11 59.9974705  0 13
C03  36481001.928   189966144.588       -1369.980          33.000  
C13  37702374.989   196326068.913       -3092.383          24.000  
C16  37321104.337   194340812.3211      -1175.914          24.000  
C23  23069106.090   120126891.657         127.054          19.000  
E01                                                                                                                                  23643437.689    92781748.028        -176.422          25.000  
G10  20441785.846   107422375.306       -2755.745          30.000  
G23  22442980.548   117938835.7181      -4574.723          17.000  
G25  21052313.786   110630593.4481      -2729.796          21.000  
G31  21252940.595   111684943.7191       -574.092          19.000  
G32  21298187.372   111922778.758        -276.347          33.000    21298198.164    83578705.274        -207.047          28.000  
J01  37535123.775   197248407.972        -221.810          23.000  
R02  19902656.478   106204444.081         727.416          26.000  
R12  19694692.848   105205513.319       -3552.923          25.000  
> 2021  9 12 11 12  0.9974694  0 11
C03  36480935.074   189965797.417       -1370.318          34.000  
C07  37723746.594   196437584.2971          3.320          21.000  
C13  37702637.307   196327443.636       -3091.520          24.000  
C16  37321004.506   194340270.528       -1175.255          24.000  
C23  23068751.136   120125048.318         125.208          24.000  
E01                                                                                                                                  23643152.586    92780808.933        -176.658          25.000  
G23  22443524.971   117941682.008       -4579.707          17.000  
G32                                                                  21297920.856    83577617.939        -207.507          28.000  
J01  37534835.674   197246896.250        -220.020          25.000  
R02  19902193.598   106201957.314         727.662          28.000  
R12  19695031.014   105207319.808       -3553.507          27.000  
> 2021  9 12 11 12  1.9974687  0  8
C03  36480988.137   189966075.244       -1371.114          33.000  
C07  37723538.238   196436487.746           5.105          23.000  
G10  20442294.294   107425052.6931      -2757.641          27.000  
G23  22444189.311   117945158.634       -4578.680          17.000  
G25  21052811.742   110633223.1911      -2734.642          20.000  
G32                                                                  21297764.065    83577002.046        -207.720          28.000  
J01  37534666.291   197246014.317        -222.164          25.000  
R12  19695489.696   105209769.824       -3554.686          27.000  
> 2021  9 12 11 12  2.9974676  0  8
C03  36480920.984   189965729.356       -1371.672          34.000  
C16  37320917.566   194339812.4611      -1179.584          20.000  
G10  20442491.558   107426077.730       -2758.880          28.000  
G23  22444733.135   117948003.412       -4576.536          17.000  
G32  21297488.855                        -278.751          34.000    21297487.956    83575916.425        -210.006          29.000  
J01  37534379.390   197244503.044        -222.264          27.000  
R02  19901384.758   106197623.2801        725.120          26.000  
R12  19695823.665   105211554.152       -3555.754          26.000  
> 2021  9 12 11 12  3.9974669  0  9
C03  36480974.947   189966008.563       -1372.458          31.000  
C07  37722993.515   196433669.9041          2.753          20.000  
C23  23067913.216   120120769.0381        125.051          18.000  
G10  20442807.239   107427734.521       -2760.756          26.000  
G23  22445399.873   117951477.136       -4577.647          19.000  
G32  21297334.462   111918235.9381       -279.964          35.000    21297330.865    83575302.043        -207.937          26.000  
J01  37534211.206   197243623.528        -224.263          26.000  
R02  19901038.198   106195778.299         725.406          27.000  
R12  19696274.253   105213961.572       -3557.217          23.000  
> 2021  9 12 11 12  4.9974661  0  9
C03  36480999.530   189966132.502       -1373.220          31.000  
C06  36689680.563   191052974.3611      -1221.075          20.000  
C07  37722754.880   196432419.140           0.642          25.000  
G10  20443092.941   107429235.223       -2761.823          31.000  
G23  22446040.529   117954793.487       -4577.024          18.000  
G32  21297148.291   111917254.404        -278.286          32.000    21297143.494    83574569.827        -209.006          22.000  
J01  37534010.945   197242588.384        -225.924          25.000  
R02  19900660.160   106193774.289         723.104          28.000  
R12  19696698.459   105216227.569       -3559.249          24.000  
> 2021  9 12 11 12  5.9974651  0 10
C03  36480964.454   189965944.887       -1373.875          33.000  
C06  36689614.608   191052634.319       -1221.416          23.000  
C13  37704300.856   196336196.8771      -3096.949          18.000  
G10  20443317.486   107430422.332       -2763.533          32.000  
G23  22446618.230   117957795.529       -4577.542          18.000  
G25  21053799.858   110638492.8341      -2734.437          18.000  
G32  21296900.962   111915958.688        -281.499          31.000    21296896.465    83573601.786        -208.770          22.000  
J01  37533755.222   197241238.599        -226.048          26.000  
R02  19900223.362   106191451.074         723.446          26.000  
R12  19697063.307   105218176.566       -3560.563          26.000  
> 2021  9 12 11 12  6.9974643  0  7
C03  36480988.437   189966070.055       -1374.488          31.000  
C06  36689607.713   191052606.547       -1221.340          26.000  
G10  20443606.486   107431926.338       -2765.214          31.000  
G32  21296714.491   111914980.712        -283.634          34.000    21296708.196    83572869.168        -208.367          21.000  
J01  37533556.460   197240203.622        -226.199          25.000  
R02  19899854.318   106189448.399         721.849          26.000  
R12  19697488.712   105220448.872       -3562.658          25.000  
> 2021  9 12 11 12  7.9974636  0  7
C06  36689632.896   191052735.150       -1221.903          27.000  
C13  37705036.247   196340047.8751      -3094.141          16.000  
G10  20443920.968   107433589.722       -2766.390          28.000  
G23  22447917.230   117964592.2311      -4582.188          17.000  
G32  21296562.796                        -284.507          32.000    21296552.603    83572255.029        -210.949          23.000  
J01  37533392.773   197239327.670        -227.847          26.000  
R12  19697932.705   105222820.337       -3564.756          22.000  
> 2021  9 12 11 12  8.9974625  0  7
C03  36480977.345   189966010.4331      -1376.371          33.000  
C06  36689539.660   191052239.362       -1221.965          29.000  
G10  20444116.133   107434623.223       -2767.054          27.000  
G32  21296283.390   111912744.2431       -286.448          32.000    21296277.394    83571172.228        -211.745          24.000  
J01  37533105.572   197237822.819        -228.050          25.000  
R02  19899037.983   106185126.9151        718.399          24.000  
R12  19698266.674   105224604.833       -3565.963          19.000  
> 2021  9 12 11 12  9.9974618  0 10
C06  36689565.742   191052368.497       -1221.724          29.000  
C16  37320755.079   194339018.4641      -1182.304          31.000  
C25  22121900.727   115194538.0061      -2482.193          31.000  
G10  20444431.215   107436288.168       -2768.537          29.000  
G23  22449130.790   117970921.1971      -4583.367          17.000  
G25  21054917.484   110644260.5681      -2747.228          19.000  
G32  21296123.001   111911927.256        -285.162          33.000    21296121.502    83570558.268        -208.738          21.000  
J01  37532938.587   197236948.367        -229.637          25.000  
R02  19898695.620   106183289.729         716.777          26.000  
R12  19698722.658   105227039.788       -3566.485          20.000  
> 2021  9 12 11 12 10.9974607  0 10
C06  36689471.008   191051873.640       -1223.325          27.000  
C07  37721139.598   196423996.6791         -1.468          22.000  
C16  37320650.152   194338484.233       -1184.782          27.000  
C23  23065943.280   120110247.8271        115.219          25.000  
C25  22122047.925   115195303.150       -2482.969          30.000  
G10  20444627.879   107437324.273       -2770.006          29.000  
G23  22449677.312   117973772.216       -4586.380          18.000  
G32  21295840.596   111910480.549        -286.685          31.000    21295846.292    83569475.314        -214.189          22.000  
J01  37532652.885   197235446.146        -231.754          26.000  
R02  19898234.239   106180813.683         716.076          27.000  
> 2021  9 12 11 12 11.9974602  0  9
C07  37720994.199   196423218.200          -2.458          24.000  
C23  23065775.996   120109351.345         113.883          25.000  
C25  22122375.298   115197005.976       -2483.709          32.000  
G10  20445005.018   107439307.804       -2772.060          29.000  
G25  21055489.188   110647236.8721      -2749.750          18.000  
G32  21295746.462   111909980.377        -289.461          35.000    21295752.457    83569101.142        -215.387          20.000  
J01  37532547.058   197234890.671        -232.388          25.000  
R02  19897952.734   106179298.337         715.235          28.000  
R12  19699565.974   105231545.3511      -3568.960          20.000  
> 2021  9 12 11 12 12.9974592  0  9
C06  36689497.090   191051977.9461      -1223.794          18.000  
C07  37720697.704   196421660.531          -4.719          25.000  
C25  22122552.775   115197928.994       -2484.840          33.000  
G10  20445235.258   107440505.225       -2773.561          31.000  
G25  21055712.833   110648411.663       -2751.004          19.000  
G32  21295504.829   111908693.499        -287.737          36.000  
J01  37532292.235   197233548.214        -233.344          24.000  
R02  19897519.234   106176984.792         712.716          31.000  
R12  19699932.021   105233500.437       -3570.655          20.000  
> 2021  9 12 11 12 13.9974582  0 11
C03  36481013.020   189966188.8091      -1379.868          32.000  
C06  36689430.236   191051641.636       -1225.669          20.000  
C07  37720399.411   196420104.460          -5.644          25.000  
C23  23065129.943   120106002.1801        112.328          26.000  
C25  22122729.653   115198853.082       -2485.870          34.000  
G25  21055935.579   110649588.199       -2752.907          23.000  
G32  21295260.798   111907407.648        -289.978          34.000  
J01  37532039.810   197232206.551        -233.459          26.000  
J02  38226804.034   200883212.4391      -2150.370          31.000  
R02  19897083.336   106174672.316         711.570          28.000  
R12  19700289.673   105235411.189       -3572.403          21.000  
> 2021  9 12 11 12 14.9974574  0  9
C07  37720161.675   196418861.101          -6.057          27.000  
C23  23064866.125   120104641.916         110.915          27.000  
C25  22122968.588                       -2487.247          33.000  
G10  20445759.295   107443220.3861      -2776.602          36.000  
G25  21056221.281   110651081.208       -2754.272          25.000  
G32  21295078.224   111906437.762        -290.170          33.000  
J01  37531842.846   197231180.003        -235.721          26.000  
J02  38226971.318   200884102.674       -2151.038          29.000  
R02  19896706.197   106172681.659         711.023          28.000  
> 2021  9 12 11 12 15.9974566  0 11
C03  36481061.886   189966452.7131      -1381.932          31.000  
C06  36689419.443   191051598.4531      -1229.744          21.000  
C07  37719923.340   196417620.520          -9.950          25.000  
C23  23064604.706   120103282.611         109.141          28.000  
C25  22123211.719   115201341.6241      -2491.216          33.000  
G10  20446050.993                       -2778.424          36.000  
G25  21056508.183   110652575.597       -2755.808          25.000  
J01  37531648.580   197230155.361        -236.519          25.000  
J02  38227138.902   200884994.080       -2152.787          30.000  
R02  19896331.756   106170691.553         709.413          28.000  
R12  19701149.178   105240002.4651      -3575.324          21.000  
> 2021  9 12 11 12 16.9974559  0 11
C03  36481117.048   189966742.143       -1383.062          31.000  
C06  36689449.123   191051735.255       -1230.408          21.000  
C07  37719716.184   196416537.691         -10.514          25.000  
C23  23064375.965   120102081.395         107.938          27.000  
C25  22123479.434   115202738.614       -2488.410          28.000  
G10  20446372.371   107446399.7891      -2780.242          33.000  
G25  21056824.764   110654229.447       -2757.442          25.000  
G32  21294736.161   111904659.2511       -292.547          33.000  
J01  37531484.294   197229289.228        -236.998          25.000  
J02  38227338.864   200886044.005       -2153.470          29.000  
R02  19895984.596   106168861.954         711.481          28.000  
> 2021  9 12 11 12 17.9974548  0  9
C06  36689357.386   191051248.315       -1230.741          30.000  
C07  37719390.010   196414831.467         -10.856          23.000  
C25  22123627.831   115203511.968       -2490.148          28.000  
G10  20446571.133   107447448.129       -2781.097          35.000  
G25  21057021.427   110655254.734       -2759.312          26.000  
J01  37531197.992   197227793.210        -236.982          27.000  
J02  38227418.009   200886464.247       -2152.858          31.000  
R02  19895523.516   106166392.456         708.426          24.000  
R12  19701963.115   105244350.1241      -3578.368          22.000  
> 2021  9 12 11 12 18.9974538  0 11
C06  36689293.830   191050918.086       -1232.171          28.000  
C07  37719094.414   196413280.786         -10.826          23.000  
C23  23063708.627   120098587.8881        107.258          26.000  
C25  22123804.409   115204441.420       -2491.122          30.000  
G10  20446799.575   107448655.268       -2785.302          35.000  
G23  22454562.430   117999618.1111      -4594.634          20.000  
G25  21057245.672   110656439.406       -2760.521          25.000  
G32  21294222.317   111901939.3021       -292.626          33.000  
J01  37530940.471   197226456.020        -238.941          25.000  
R02  19895091.515   106164086.446         705.047          25.000  
R12  19702343.252   105246381.078       -3580.261          23.000  
> 2021  9 12 11 12 19.9974533  0 13
C06  36689380.770   191051369.204       -1231.983          26.000  
C07  37718946.916   196412511.900         -13.200          25.000  
C13  37709123.017   196361242.4601      -3130.665          14.000  
C16  37320484.067   194337616.3641      -1190.516          21.000  
C23  23063535.647   120097702.216         104.495          26.000  
C25  22124130.283   115206153.093       -2493.614          28.000  
G10  20447174.915   107450651.740       -2786.972          34.000  
G23  22455291.825   118003425.394       -4595.802          20.000  
G25  21057617.715   110658412.466       -2761.241          25.000  
J01  37530836.143   197225907.283        -239.544          25.000  
J02  38227790.651   200888408.8581      -2155.590          26.000  
R02  19894816.605   106162581.804         703.940          24.000  
R12  19702859.794   105249140.231       -3580.678          18.000  
> 2021  9 12 11 12 20.9974523  0 12
C03  36481101.759   189966664.0421      -1387.770          29.000  
C06  36689317.214   191051040.543       -1232.640          27.000  
C07  37718651.321   196410963.287         -12.701          25.000  
C13  37709425.508   196362812.434       -3130.780          13.000  
C16  37320411.217   194337246.200       -1192.071          27.000  
C25  22124306.861   115207085.396       -2493.153          27.000  
G10  20447409.353   107451862.054       -2786.839          34.000  
G32  21293878.754   111900169.0931       -297.159          29.000  
J01  37530579.520   197224571.861        -240.765          25.000  
J02  38227902.174   200888989.178       -2155.785          28.000  
R01  20930242.195   111884140.6551      -3212.571          22.000  
R02  19894387.002   106160278.719         702.611          23.000  
> 2021  9 12 11 12 21.9974513  0 13
C06  36689253.358   191050712.327       -1232.708          29.000  
C07  37718354.826   196409414.758         -13.393          25.000  
C16  37320338.967   194336878.029       -1193.861          26.000  
C25  22124485.537   115208017.578       -2494.146          25.000  
C33  22598825.858   117678034.7531      -2618.088          26.000  
G10  20447638.694   107453073.819       -2789.149          34.000  
G25  21058063.806   110660784.9121      -2763.696          23.000  
G32  21293634.723   111898890.930        -297.445          30.000  
J01  37530326.496   197223237.891        -241.305          26.000  
J02  38228013.697   200889569.602       -2157.460          27.000  
R01  20930543.786   111885752.122       -3214.201          25.000  
R02  19893948.106   106157977.392         700.563          23.000  
R12  19703615.871   105253178.6481      -3584.039          21.000  
> 2021  9 12 11 12 22.9974505  0 15
C03  36481094.264   189966631.2841      -1388.881          30.000  
C06  36689250.361   191050696.406       -1232.465          29.000  
C07  37718118.590   196408179.834         -15.659          26.000  
C16  37320327.275   194336823.592       -1193.800          26.000  
C25  22124722.673   115209264.345       -2496.596          27.000  
C33  22599090.275   117679404.470       -2619.140          26.000  
G10  20447931.592   107454602.099       -2789.394          34.000  
G23  22457076.489   118012809.0921      -4600.040          21.000  
G25  21058348.009   110662288.484       -2764.290          24.000  
G32  21293451.550   111897927.869        -297.599          26.000  
J01  37530133.729   197222220.154        -243.970          27.000  
J02  38228185.478   200890466.684       -2158.240          28.000  
R01  20930904.137   111887678.854       -3216.704          28.000  
R02  19893578.462   106155997.819         699.648          20.000  
R12  19704056.565   105255533.036       -3585.454          23.000  
> 2021  9 12 11 12 23.9974497  0 14
C03  36481120.945   189966771.671       -1389.936          32.000  
C06  36689247.962   191050680.947       -1234.225          26.000  
C07  37717883.553   196406946.322         -15.793          27.000  
C16  37320314.384   194336769.147       -1193.804          25.000  
C23  23062361.959   120091667.7741        101.845          19.000  
C25  22124962.807   115210513.472       -2498.639          31.000  
C33  22599355.891   117680775.964       -2622.700          25.000  
G10  20448223.290   107456131.915       -2790.186          36.000  
G25  21058632.512   110663793.178       -2766.946          24.000  
G32  21293267.478   111896966.015        -299.270          33.000  
J01  37529941.862   197221203.395        -243.028          24.000  
R01  20931267.485   111889621.415       -3218.206          23.000  
R02  19893205.520   106154018.802         698.519          25.000  
R12  19704481.072   105257800.624       -3586.384          22.000  
> 2021  9 12 11 12 24.9974487  0 12
C03  36481089.167   189966600.679       -1390.675          31.000  
C06  36689187.704   191050354.229       -1235.139          22.000  
C07  37717589.156   196405401.137         -16.061          28.000  
C23  23062043.879   120090006.550          98.785          20.000  
C25  22125143.882   115211451.503       -2499.487          31.000  
C33  22599560.950   117681837.698       -2623.349          25.000  
G10  20448454.130   107457348.021       -2792.499          37.000  
G25  21058860.654   110664985.331       -2768.144          25.000  
G32  21293023.447   111895690.198        -300.333          34.000  
J02  38228465.184   200891949.2651      -2160.820          25.000  
R02  19892774.419   106151720.775         697.365          27.000  
R12  19704860.009   105259824.495       -3589.514          22.000  
> 2021  9 12 11 12 25.9974479  0 10
C03  36481117.348   189966742.717       -1391.534          31.000  
C06  36689187.704   191050339.901       -1234.059          19.000  
C07  37717352.320   196404169.304         -17.175          27.000  
C25  22125384.015   115212702.541       -2499.589          30.000  
G10  20448745.828   107458880.787       -2793.569          37.000  
G25  21059148.155   110666494.555       -2771.159          21.000  
J01  37529497.270   197218856.4301       -247.400          22.000  
J02  38228635.167   200892850.434       -2163.510          24.000  
R02  19892404.475   106149743.442         696.373          29.000  
R12  19705298.306   105262165.626       -3591.055          25.000  
> 2021  9 12 11 12 26.9974469  0 14
C03  36481084.671   189966573.636       -1392.814          32.000  
C06  36689123.848   191050013.529       -1235.506          24.000  
C07  37717056.125   196402626.517         -19.230          28.000  
C16  37320160.890   194335986.6711      -1196.338          17.000  
C23  23061471.276   120087005.3091         94.202          23.000  
C25  22125563.291   115213641.259       -2499.637          27.000  
C33  22600029.825   117684277.1601      -2627.709          27.000  
G10  20448978.467   107460100.039       -2796.358          36.000  
G25  21059377.796   110667689.787       -2770.938          25.000  
G32  21292613.331   111893457.7401       -304.142          30.000  
J01  37529244.245   197217527.963        -245.238          23.000  
J02  38228745.490   200893438.397       -2163.424          27.000  
R02  19891976.971   106147448.013         694.674          28.000  
R12  19705676.644   105264186.939       -3592.656          24.000  
> 2021  9 12 11 12 27.9974461  0 13
C03  36481112.851   189966718.216       -1393.966          31.000  
C06  36689120.850   191050000.578       -1236.483          29.000  
C07  37716820.788   196401397.345         -20.775          26.000  
C16  37320153.395   194335934.159       -1197.055          27.000  
C23  23061210.456   120085663.719          91.933          24.000  
C25  22125803.425   115214893.415       -2502.814          23.000  
C33  22600296.340   117685656.171       -2628.674          27.000  
G10  20449271.364   107461635.928       -2796.970          35.000  
G25  21059665.297   110669202.016       -2774.212          25.000  
G32  21292428.059   111892501.353        -304.288          25.000  
J02  38228916.372   200894341.519       -2163.882          29.000  
R01  20932591.069   111896695.8251      -3222.280          24.000  
R12  19706111.043   105266507.871       -3593.697          23.000  
> 2021  9 12 11 12 28.9974454  0 13
C03  36481171.011   189967019.808       -1394.848          32.000  
C06  36689148.131   191050145.518       -1238.604          29.000  
C07  37716614.831   196400326.386         -22.594          27.000  
C16  37320170.484   194336038.314       -1196.575          28.000  
C23  23060977.218   120084480.111          89.166          18.000  
C25  22126074.437   115216303.436       -2503.410          28.000  
G10  20449595.140   107463330.907       -2798.864          36.000  
G32  21292275.464   111891702.259        -304.093          31.000  
J01  37528887.792   197215656.3111       -247.209          24.000  
J02  38229117.832   200895403.168       -2164.934          28.000  
R01  20932982.897   111898790.653       -3225.093          22.000  
R02  19891269.461   106143661.3231        692.251          26.000  
R12  19706583.816   105269033.168       -3594.892          21.000  
> 2021  9 12 11 12 29.9974444  0 14
C03  36481138.933   189966853.977       -1395.595          33.000  
C06  36689083.976   191049823.307       -1239.475          26.000  
C07  37716320.435   196398787.954         -22.075          28.000  
C16  37320100.932   194335673.161       -1196.129          22.000  
C23  23060657.639   120082829.185          90.361          20.000  
C25  22126254.613   115217246.112       -2504.573          32.000  
C33  22600801.790   117688260.3561      -2629.506          28.000  
G10  20449827.179   107464554.497       -2800.196          36.000  
G32  21292031.134   111890431.723        -305.215          31.000  
J01  37528637.165   197214329.687        -248.687          23.000  
J02  38229229.055   200895993.060       -2164.413          28.000  
R01  20933282.990   111900394.653       -3224.602          21.000  
R02  19890841.057   106141369.775         690.960          30.000  
R12  19706954.659   105271013.720       -3596.239          23.000  
> 2021  9 12 11 12 30.9974433  0 14
C03  36481076.876   189966532.492       -1396.068          32.000  
C06  36688990.141   191049345.976       -1239.451          28.000  
C07  37715993.661   196397093.142         -23.687          28.000  
C23  23060309.280   120081021.720          90.051          24.000  
C25  22126407.207   115218034.431       -2506.751          32.000  
C33  22600978.668   117689172.956       -2629.404          27.000  
G10  20450028.340   107465622.114       -2801.461          37.000  
G23  22461912.142   118038306.1421      -4610.009          21.000  
G25  21060406.684   110673121.2081      -2781.869          22.000  
G32  21291758.322   111889004.340        -306.805          32.000    21291763.419    83553441.5701       -228.570          25.000  
J01  37528355.960   197212845.374        -249.571          24.000  
J02  38229310.899   200896423.926       -2164.044          28.000    38229319.593   150020071.4641      -1615.986          24.000  
R01  20933547.107   111901806.744       -3226.764          21.000  
R02  19890381.475   106138919.051         689.907          31.000  
> 2021  9 12 11 12 31.9974428  0 12
C03  36481195.294   189967148.425       -1397.071          32.000  
C06  36689080.078   191049803.668       -1239.141          22.000  
C07  37715847.962   196396336.150         -23.585          29.000  
C16  37320067.955   194335568.9461      -1199.034          16.000  
C23  23060142.595   120080151.666          88.822          25.000  
C25  22126739.377   115219760.762       -2507.311          31.000  
C33  22601333.922   117691022.416       -2630.886          26.000  
G10  20450413.273   107467636.232       -2803.524          37.000  
G32                                                                  21291672.282    83553082.885        -231.325          23.000  
J02  38229574.117   200897800.457       -2165.918          26.000    38229581.312   150021099.260       -1615.768          24.000  
R01  20933994.097   111904196.060       -3228.328          20.000  
R02  19890105.966   106137429.702         687.622          30.000  
> 2021  9 12 11 12 32.9974418  0 10
C03  36481164.415   189966984.447       -1397.660          31.000  
C06  36689018.621   191049482.352       -1240.978          21.000  
C07  37715553.566   196394798.267         -23.769          29.000  
C25  22126924.049   115220707.351       -2508.331          26.000  
C33  22601539.880   117692093.531       -2633.421          27.000  
G10  20450646.212   107468863.994       -2803.630          35.000  
G32  21291425.553   111887256.1951       -307.665          31.000    21291430.949    83552138.302        -233.123          23.000  
J02  38229690.736   200898391.607       -2167.105          22.000    38229693.734   150021541.264       -1620.025          23.000  
R01  20934299.286   111905827.220       -3226.539          19.000  
R02  19889679.062   106135142.010         689.001          29.000  
> 2021  9 12 11 12 33.9974410  0 12
C03  36481192.596   189967132.629       -1397.341          30.000  
C06  36689018.021   191049474.810       -1242.304          26.000  
C07  37715316.730   196393573.194         -25.108          28.000  
C23  23059575.388   120077164.4861         87.919          26.000  
C25  22127166.881   115221967.505       -2510.082          30.000  
C33  22601806.395   117693478.405       -2634.697          28.000  
G10  20450940.608   107470408.114       -2804.677          34.000  
G25  21061307.860   110677844.2961      -2782.426          23.000  
G32  21291249.874                        -309.845          35.000    21291250.174    83551429.197        -230.759          24.000  
J01  37527806.740   197209975.2241       -251.793          22.000  
J02  38229866.114   200899298.703       -2167.616          24.000    38229866.414   150022219.593       -1617.893          23.000  
R02  19889312.116   106133173.204         688.512          26.000  
> 2021  9 12 11 12 34.9974400  0 13
C03  36481161.717   189966968.792       -1397.690          31.000  
C06  36688959.262   191049156.102       -1243.297          27.000  
C07  37715022.333   196392038.199         -26.266          27.000  
C23  23059261.505   120075517.128          85.255          26.000  
C25  22127349.155   115222917.097       -2511.098          27.000  
C33  22602012.652   117694552.018       -2635.200          26.000  
G10  20451172.648   107471638.877       -2806.642          32.000  
G23  22464427.401   118051550.0201      -4612.241          16.000  
G25  21061535.402   110679051.601       -2783.396          23.000  
G32  21291009.441   111885007.1101       -309.567          33.000    21291008.242    83550481.924        -228.996          24.000  
J01  37527553.415   197208651.435        -250.969          23.000  
J02  38229981.535   200899891.636       -2168.936          26.000    38229979.436   150022661.650       -1619.576          25.000  
R02  19888884.612   106130885.780         686.384          26.000  
> 2021  9 12 11 12 35.9974392  0 12
C03  36481193.195   189967117.751       -1398.215          29.000  
C06  36688959.862   191049151.106       -1244.602          30.000  
C07  37714790.294   196390815.960         -26.483          27.000  
C25  22127594.385   115224179.664       -2511.910          31.000  
C33  22602280.667   117695939.352       -2637.122          26.000  
G10  20451466.145   107473186.245       -2808.903          33.000  
G23  22465066.258   118054903.103       -4614.172          16.000  
G25  21061828.000   110680575.828       -2785.316          26.000  
G32  21290832.863   111884057.697        -313.017          32.000    21290827.767    83549771.110        -233.388          26.000  
J02  38230155.414   200900800.958       -2170.442          21.000    38230153.016   150023341.287       -1620.096          24.000  
R01  20935312.585   111911244.2971      -3233.545          16.000  
R02  19888514.668   106128920.300         684.647          26.000  
> 2021  9 12 11 12 36.9974382  0  8
C06  36688898.704   191048833.928       -1243.293          30.000  
C07  37714499.196   196389281.801         -26.792          24.000  
C25  22127778.758   115225131.324       -2513.166          35.000  
G10  20451698.484   107474419.647       -2808.039          27.000  
G25  21062058.240   110681786.433       -2786.456          26.000  
G32  21290586.134   111882793.879        -311.186          34.000  
J01  37527110.622   197206320.2081       -253.365          22.000  
J02  38230266.937   200901396.178       -2171.087          22.000  
> 2021  9 12 11 12 37.9974374  0 11
C06  36688898.404   191048829.091       -1244.571          30.000  
C07  37714264.758   196388060.295         -28.711          21.000  
C25  22128020.990   115226395.379       -2512.910          34.000  
G10  20451991.681   107475967.788       -2809.575          26.000  
G23  22466278.019   118061295.5031      -4612.940          15.000  
G25  21062352.337   110683313.534       -2788.202          26.000  
G31  21247403.429   111655661.3391       -625.535          25.000  
G32  21290402.061   111881845.929        -311.423          33.000  
J01  37526920.553   197205313.012        -253.300          24.000  
J02  38230440.217   200902308.428       -2171.898          21.000  
R02  19887731.610   106124673.7341        682.391          28.000  
> 2021  9 12 11 12 38.9974364  0 12
C06  36688837.246   191048512.470       -1244.857          30.000  
C07  37713970.062   196386526.749         -28.555          20.000  
C23  23058102.508   120069569.5661         79.503          26.000  
C25  22128208.960                       -2514.459          33.000  
C33  22602973.787   117699483.9531      -2640.721          27.000  
G10  20452225.219   107477202.562       -2810.969          23.000  
G25  21062589.473   110684526.571       -2789.087          26.000  
G31  21247218.457   111654711.801        -626.194          27.000  
G32  21290165.225   111880583.486        -313.248          34.000  
J01  37526668.128   197203991.271        -254.148          24.000  
J02  38230554.738   200902904.730       -2173.167          25.000  
R02  19887310.701   106122393.276         679.662          27.000  
> 2021  9 12 11 12 39.9974356  0 12
C06  36688835.148   191048508.874       -1245.373          29.000  
C07  37713734.725   196385307.773         -30.526          22.000  
C16  37319764.864   194333936.5341      -1205.889          23.000  
C25  22128452.391   115228657.1341      -2517.092          33.000  
C33  22603243.300   117700875.659       -2640.365          25.000  
G10  20452518.416   107478753.580       -2812.570          26.000  
G25  21062881.171   110686055.643       -2790.076          27.000  
G31  21247098.240   111654077.866        -626.226          26.000  
G32  21289986.549   111879637.285        -313.915          33.000  
J01  37526479.559   197202984.775        -253.394          24.000  
J02  38230726.819   200903817.227       -2172.887          26.000  
R02  19886947.053   106120432.411         680.189          26.000  
> 2021  9 12 11 12 40.9974349  0  7
C06  36688863.628   191048662.028       -1246.646          28.000  
C25  22128720.406   115230080.769       -2519.176          32.000  
C33  22603542.493   117702423.564       -2640.746          21.000  
G32  21289834.254   111878849.537        -315.072          31.000  
J01  37526317.371   197202136.861        -257.299          25.000  
J02  38230929.478   200904887.690       -2173.277          30.000  
R02  19886612.485   106118632.031         679.929          25.000  
> 2021  9 12 11 12 41.9974339  0 12
C06  36688803.070   191048347.567       -1246.039          26.000  
C07  37713232.572   196382715.6171        -30.458          17.000  
C16  37319722.893   194333694.8651      -1204.102          27.000  
C25  22128906.277   115231035.538       -2516.866          31.000  
C33  22603749.650   117703503.812       -2642.373          25.000  
G10  20453085.623   107481703.5581      -2814.521          31.000  
G23  22468752.806   118074252.5161      -4618.685          16.000  
G31  21246831.425   111652655.0501       -626.367          25.000  
G32  21289594.420   111877587.956        -317.302          35.000  
J01  37526067.944   197200819.906        -258.793          18.000  
J02  38231041.601   200905485.648       -2172.785          29.000  
R02  19886190.976   106116352.413         678.816          23.000  
> 2021  9 12 11 12 42.9974328  0 11
C06  36688711.034   191047876.048       -1245.942          27.000  
C07  37712905.199   196381028.863         -31.320          20.000  
C16  37319627.559   194333181.410       -1203.890          32.000  
C25  22129061.869   115231837.021       -2522.336          30.000  
C33  22603930.425   117704428.594       -2642.215          24.000  
G10  20453293.979   107482785.667       -2815.873          32.000  
G23  22469310.720   118077138.361       -4619.893          17.000  
G25  21063619.260   110690020.3681      -2792.988          26.000  
G32  21289324.307   111876170.617        -316.148          33.000  
J01  37525786.439   197199345.906        -259.485          25.000  
J02  38231124.044   200905925.703       -2172.977          35.000  
> 2021  9 12 11 12 43.9974323  0  6
C07  37712760.399   196380278.958         -30.721          24.000  
C23  23056802.907   120062771.8041         78.136          20.000  
C25  22129396.438   115233574.838       -2518.201          26.000  
G10  20453678.313   107484815.406       -2817.975          21.000  
G23  22470051.507   118080972.825       -4623.577          18.000  
G32  21289236.768   111875699.970        -317.739          37.000  
> 2021  9 12 11 12 44.9974313  0  6
C07  37712466.902   196378750.037         -33.955          22.000  
C25  22129577.812   115234532.202       -2519.205          28.000  
G10  20453918.447   107486059.116       -2819.780          27.000  
G32  21288997.833   111874441.643        -316.414          35.000  
J02  38231500.583   200907911.8261      -2175.674          24.000  
R02  19885042.472   106110154.6441        675.338          19.000  
> 2021  9 12 11 12 45.9974303  0  6
C07  37712173.705   196377220.805         -31.412          21.000  
C25  22129760.086   115235490.390       -2519.673          28.000  
G10  20454154.983   107487303.569       -2820.217          28.000  
G25  21064448.786   110694471.3131      -2795.815          14.000  
G32  21288759.798   111873183.597        -318.560          34.000  
J02  38231616.603   200908511.602       -2176.437          26.000  
> 2021  9 12 11 12 46.9974295  0 11
C07  37711938.968   196376002.821         -32.088          20.000  
C23  23055911.625   120058179.2031         71.903          19.000  
C25  22130002.618   115236761.431       -2520.717          30.000  
C33  22604959.312   117709858.5201      -2647.748          27.000  
G10  20454451.778   107488863.641       -2820.817          29.000  
G23  22471848.163   118090433.6041      -4624.579          16.000  
G25  21064743.182   110696005.657       -2791.265          15.000  
G31  21246121.816   111649122.7371       -628.500          17.000  
G32  21288579.323   111872241.137        -318.824          34.000  
J02  38231790.782   200909428.586       -2178.173          25.000  
R02  19884251.919   106105935.7321        670.188          16.000  
> 2021  9 12 11 12 47.9974287  0 11
C07  37711707.528   196374786.864         -33.498          22.000  
C16  37319584.389   194332807.4401      -1205.789          19.000  
C23  23055655.602   120056857.688          72.901          20.000  
C25  22130244.850   115238033.338       -2521.130          30.000  
C33  22605225.228   117711257.480       -2648.843          25.000  
G10  20454748.872   107490424.057       -2821.239          27.000  
G23  22472488.520   118093797.143       -4623.451          16.000  
G25  21065041.475   110697538.067       -2795.435          15.000  
G32  21288396.150   111871299.081        -319.320          33.000  
J01  37524804.019   197194184.4871       -259.864          17.000  
J02  38231965.561   200910345.242       -2176.753          25.000  
> 2021  9 12 11 12 48.9974277  0  8
C07  37711416.430   196373259.100         -33.602          23.000  
C16  37319521.733   194332453.143       -1207.864          23.000  
C25  22130429.223   115238993.276       -2521.136          29.000  
C33  22605428.488   117712344.053       -2647.343          23.000  
G10  20454987.807   107491670.292       -2822.208          28.000  
G31  21245830.118   111647543.2001       -626.774          15.000  
G32  21288153.918   111870042.286        -319.107          33.000  
J02  38232081.281   200910946.923       -2177.387          27.000  
> 2021  9 12 11 12 49.9974269  0  9
C07  37711183.491   196372043.125         -31.917          22.000  
C16  37319516.336   194332411.781       -1207.146          23.000  
C25  22130673.254   115240265.800       -2521.797          30.000  
C33  22605694.403   117713742.872       -2647.893          26.000  
G10  20455287.299   107493232.318       -2822.444          28.000  
G23  22473711.973   118100208.2281      -4621.922          18.000  
G32  21287977.340   111869100.726        -317.998          32.000  
J02  38232257.259   200911863.748       -2176.501          26.000  
R02  19883100.716   106100034.8311        673.950          17.000  
> 2021  9 12 11 12 50.9974259  0  8
C07  37710891.193   196370514.136         -31.756          23.000  
C16  37319451.881   194332057.358       -1206.582          24.000  
C23  23054762.220   120052264.2481         72.248          21.000  
C25  22130857.926   115241227.022       -2522.848          30.000  
C33  22605901.860   117714830.276       -2649.158          26.000  
G10  20455526.833   107494479.832       -2823.946          27.000  
G32  21287733.309   111867844.309        -318.694          33.000  
J02  38232372.080   200912464.674       -2176.213          27.000  
> 2021  9 12 11 12 51.9974252  0  7
C16  37319476.764   194332170.783       -1207.244          22.000  
C25  22131132.836   115242657.916       -2523.760          29.000  
C33  22606200.453   117716386.012       -2648.474          24.000  
G10  20455857.205   107496201.368       -2824.232          28.000  
G32  21287589.708   111867060.892        -320.043          33.000  
J02  38232578.337   200913537.731       -2175.821          26.000  
R02  19882339.543   106095964.7001        673.595          19.000  
> 2021  9 12 11 12 52.9974244  0  8
C07  37710455.895   196368236.3271        -30.428          22.000  
C16  37319469.269   194332129.217       -1207.540          23.000  
C25  22131377.466   115243932.508       -2524.077          28.000  
C33  22606468.767   117717786.197       -2649.033          25.000  
G10  20456156.697   107497765.728       -2825.464          27.000  
G32  21287412.831   111866120.156        -320.168          33.000  
J02  38232751.317   200914453.038       -2175.429          27.000  
R02  19881972.597   106094010.477         674.624          20.000  
> 2021  9 12 11 12 53.9974234  0  8
C07  37710163.597   196366707.094         -33.726          23.000  
C16  37319402.415   194331775.770       -1208.028          24.000  
C25  22131563.637   115244895.759       -2524.779          29.000  
C33  22606676.524   117718874.482       -2650.378          25.000  
G10  20456393.833   107499015.901       -2826.278          29.000  
G23  22476207.745   118113188.1741      -4622.459          21.000  
G32  21287176.295   111864864.628        -321.397          33.000  
J02  38232865.838   200915053.780       -2176.894          27.000  
> 2021  9 12 11 12 54.9974223  0  8
C07  37709840.421   196365024.333         -35.082          23.000  
C16  37319305.283   194331265.795       -1205.716          24.000  
C23  23053623.608   120046359.1131         70.391          21.000  
C25  22131720.129   115245703.607       -2525.560          32.000  
C33  22606856.999   117719809.018       -2653.862          26.000  
G10  20456602.789   107500108.693       -2825.575          27.000  
G32  21286902.584   111863451.711        -319.512          34.000  
J02  38232953.677   200915497.424       -2177.113          22.000  
> 2021  9 12 11 12 55.9974216  0  7
C07  37709639.260   196363966.088         -34.785          23.000  
C25  22131995.938   115247136.201       -2525.453          29.000  
C33  22607155.592   117721370.502       -2654.683          25.000  
G10  20456932.860   107501831.454       -2826.138          26.000  
G25  21067210.174   110708750.8191      -2800.183          20.000  
G31  21244834.207   111642374.9101       -635.084          23.000  
R02  19880756.339   106087501.2731        674.417          21.000  
> 2021  9 12 11 12 56.9974208  0  7
C07  37709406.321   196362752.738         -35.019          22.000  
C16  37319317.874   194331334.9031      -1206.694          19.000  
C25  22132241.768   115248412.654       -2525.882          26.000  
C33  22607424.506   117722776.504       -2655.577          24.000  
G23  22478076.052   118122968.8121      -4627.362          20.000  
G32  21286585.104   111861729.7671       -319.590          34.000  
J02  38233334.413   200917487.6171      -2176.609          24.000  
> 2021  9 12 11 12 57.9974198  0  7
C07  37709113.124   196361225.245         -34.466          20.000  
C25  22132430.038   115249378.963       -2528.421          22.000  
C33  22607634.960   117723871.074       -2655.757          21.000  
G10  20457469.489   107504651.8081      -2829.518          26.000  
G25  21067739.907   110711521.9171      -2808.202          17.000  
G32  21286348.268   111860475.327        -320.965          36.000  
J02  38233446.236   200918089.013       -2176.638          26.000  
> 2021  9 12 11 12 58.9974190  0  8
C07  37708881.385   196360010.649         -34.819          22.000  
C25  22132676.167   115250657.737       -2525.933          22.000  
G10  20457769.281   107506221.006       -2830.180          25.000  
G23  22479288.113   118129392.9411      -4630.923          19.000  
G25  21068034.903   110713074.610       -2817.234          13.000  
G32  21286166.594   111859536.321        -322.149          34.000  
J02  38233620.715   200919005.535       -2176.995          27.000  
R02  19879574.257   106081324.9321        671.743          20.000  
> 2021  9 12 11 12 59.9974182  0 10
C07  37708648.746   196358797.139         -36.118          24.000  
C25  22132921.697   115251936.009       -2527.287          24.000  
C33  22608176.085   117726684.9651      -2656.650          23.000  
G10  20458070.572   107507791.197       -2830.855          27.000  
G23  22479923.972   118132765.977       -4636.469          17.000  
G25  21068332.297   110714632.731       -2819.905          13.000  
G31  21244287.386   111639559.8781       -634.470          16.000  
G32  21285986.718   111858597.815        -322.302          33.000  
J02  38233794.595   200919922.445       -2176.552          26.000  
R02  19879212.707   106079376.135         667.920          20.000  
> 2021  9 12 11 13  0.9974172  0  8
C07  37708358.247   196357271.643         -36.343          24.000  
C25  22133106.669   115252902.111       -2527.743          25.000  
C33  22608385.940   117727780.121       -2655.899          22.000  
G10  20458311.606   107509046.185       -2829.765          26.000  
G23  22480505.570   118135828.126       -4638.120          16.000  
G31  21244107.510   111638620.745        -638.741          15.000  
G32  21285745.385   111857344.349        -321.717          33.000  
J02  38233909.715   200920524.597       -2177.789          24.000  
> 2021  9 12 11 13  1.9974162  0  7
C07  37708068.048   196355746.827         -36.054          24.000  
C25  22133293.440   115253869.210       -2528.969          25.000  
G23  22481086.867   118138891.289       -4636.375          12.000  
G25  21068809.567   110717118.6581      -2818.811          12.000  
G32  21285504.652   111856091.154        -322.072          33.000  
J02  38234026.334   200921127.809       -2178.896          26.000  
R02  19878364.295   106074845.6461        663.022          19.000  
> 2021  9 12 11 13  2.9974154  0  6
C07  37707837.807   196354533.808         -34.590          24.000  
C25  22133541.668   115255149.281       -2528.642          26.000  
C33  22608868.906   117730282.1401      -2659.675          18.000  
G25  21069118.053   110718961.937       -2819.748          12.000  
G32  21285324.476   111855153.334        -321.420          31.000  
J02  38234202.013   200922046.031       -2178.679          27.000  
> 2021  9 12 11 13  3.9974147  0  6
C16  37319107.420   194330266.1921      -1206.941          25.000  
C25  22133817.477   115256586.241       -2530.454          25.000  
C33  22609171.396   117731849.584       -2659.918          18.000  
G25  21069453.221   110720676.968       -2816.792          13.000  
G32  21285170.983   111854373.382        -322.438          31.000  
J02  38234406.471   200923121.840       -2179.141          26.000  
> 2021  9 12 11 13  4.9974136  0  4
C16  37319008.488   194329755.306       -1205.441          25.000  
C25  22133973.969   115257399.085       -2530.196          25.000  
G25  21069660.078   110721760.294       -2816.657          12.000  
G32  21284903.268   111852963.534        -321.101          30.000  
> 2021  9 12 11 13  5.9974126  0  6
C16  37318938.337   194329399.940       -1206.964          24.000  
C25  22134158.941   115258367.433       -2530.039          24.000  
G10  20459614.204   107515965.2201      -2836.328          27.000  
G25  21069897.513   110723000.678       -2815.281          13.000  
G32  21284669.130   111851711.729        -326.306          30.000  
J02  38234606.433   200924172.6541      -2181.048          25.000  
> 2021  9 12 11 13  6.9974118  0  3
C16  37318929.643   194329358.623       -1208.508          24.000  
G32  21284491.953   111850775.077        -322.904          31.000  
J02  38234781.811   200925093.040       -2178.681          24.000  
> 2021  9 12 11 13  7.9974111  0  7
C16  37318949.429   194329474.231       -1208.596          25.000  
C25  22134680.280   115261088.2471      -2531.456          20.000  
C33  22610134.929   117736880.6341      -2659.585          16.000  
G10  20460240.170   107519275.9701      -2837.561          27.000  
G32  21284334.862   111849996.271        -325.544          30.000  
J02  38234985.370   200926168.501       -2177.728          24.000  
R02  19876043.302   106062375.5391        660.394          19.000  
> 2021  9 12 11 13  8.9974100  0  6
C16  37318852.596   194328965.828       -1209.229          23.000  
C25  22134835.872   115261903.777       -2534.315          20.000  
C33  22610315.704   117737823.444       -2660.288          15.000  
G10  20460447.327   107520380.676       -2837.990          27.000  
G32  21284068.946   111848587.481        -324.368          30.000  
J02  38235068.413   200926613.539       -2178.713          26.000  
> 2021  9 12 11 13  9.9974093  0  3
C07  37706057.340   196345273.7871        -36.348          24.000  
C16  37318875.080   194329081.757       -1208.216          21.000  
C25  22135113.180   115263344.773       -2533.798          19.000  
> 2021  9 12 11 13 10.9974085  0  5
C07  37705822.902   196344060.998         -36.332          24.000  
C16  37318868.785   194329040.025       -1208.133          24.000  
G10  20461075.092   107523694.7981      -2839.907          21.000  
G32  21283752.365   111846873.5711       -325.137          35.000  
R02  19874887.302   106056232.1781        663.806          16.000  
> 2021  9 12 11 13 11.9974075  0  5
C07  37705530.305   196342536.670         -37.500          24.000  
C16  37318801.032   194328686.318       -1208.282          25.000  
G10  20461316.725   107524959.558       -2840.628          23.000  
G32  21283513.730   111845623.036        -324.999          34.000  
R02  19874462.496   106053966.267         661.820          15.000  
> 2021  9 12 11 13 12.9974067  0  4
C07  37705297.066   196341325.888         -39.453          25.000  
C16  37318792.937   194328645.793       -1208.233          25.000  
G10  20461618.316   107526540.174       -2841.341          23.000  
G32  21283336.553   111844687.915        -327.456          34.000  
> 2021  9 12 11 13 13.9974057  0  6
C07  37705005.368   196339804.739         -40.069          22.000  
C16  37318724.285   194328292.098       -1206.729          23.000  
C25  22135977.182   115267860.9781      -2536.656          18.000  
G10  20461859.050   107527806.343       -2841.968          23.000  
G25  21072098.290   110734649.9531      -2817.212          21.000  
G32  21283100.016   111843438.040        -325.387          34.000  
> 2021  9 12 11 13 14.9974049  0  4
C07  37704773.029   196338595.951         -40.141          23.000  
C16  37318717.989   194328250.741       -1207.498          22.000  
G10  20462160.941   107529388.083       -2842.153          23.000  
G32  21282922.240   111842503.446        -327.020          34.000  
> 2021  9 12 11 13 15.9974042  0  6
C07  37704569.470   196337542.361         -38.634          23.000  
C16  37318739.574   194328364.796       -1206.849          24.000  
C23  23047986.311   120016755.3671         59.938          25.000  
G10  20462493.710   107531128.159       -2843.374          22.000  
G32  21282772.943   111841726.655        -326.136          35.000  
R02  19872997.110   106046045.4171        659.012          13.000  
> 2021  9 12 11 13 16.9974031  0  5
C16  37318641.242   194327854.409       -1206.655          25.000  
C23  23047648.445   120014978.325          59.779          27.000  
C25  22136662.807   115271407.9381      -2534.168          18.000  
G10  20462704.764   107532239.463       -2844.505          23.000  
R02  19872551.919   106043627.711         656.577          15.000  
> 2021  9 12 11 13 17.9974021  0  7
C07  37703950.698   196334341.0141        -38.161          22.000  
C16  37318572.590   194327501.752       -1209.378          24.000  
C23  23047340.558   120013358.494          58.366          26.000  
C25  22136847.779   115272382.023       -2536.426          19.000  
G10  20462947.896   107533508.755       -2845.294          24.000  
G32  21282268.092   111839070.9131       -327.992          32.000  
R02  19872136.106   106041373.375         654.074          16.000  
> 2021  9 12 11 13 18.9974013  0  7
C16  37318561.797   194327463.165       -1211.464          25.000  
C23  23047091.730   120012050.185          61.281          25.000  
C25  22137093.609   115273669.641       -2536.855          30.000  
G10  20463251.286   107535094.076       -2846.376          24.000  
G25  21073461.446   110741815.2011      -2823.442          18.000  
G32  21282089.716   111838137.436        -326.738          30.000  
R02  19871776.955   106039438.364         655.711          18.000  
> 2021  9 12 11 13 19.9974006  0  4
C07  37703512.102   196332078.2641        -41.407          20.000  
C25  22137369.418   115275113.710       -2537.271          26.000  
G10  20463584.955   107536837.296       -2845.495          25.000  
G32  21281940.719   111837361.684        -326.853          30.000  
> 2021  9 12 11 13 20.9973996  0  5
C07  37703219.804   196330557.620         -40.875          21.000  
C16  37318506.935   194327230.4631      -1208.985          25.000  
C23  23046559.299   120009279.6061         57.041          22.000  
C25  22137553.790   115276089.957       -2538.881          24.000  
G32  21281702.684   111836113.482        -327.930          31.000  
> 2021  9 12 11 13 21.9973985  0  7
C07  37702895.728   196328880.399         -40.220          22.000  
C16  37318405.905   194326721.961       -1208.836          27.000  
C25  22137707.584   115276910.210       -2536.814          26.000  
G10  20464040.040   107539222.6021      -2847.550          20.000  
G25  21074220.821   110745881.3761      -2828.171          25.000  
G32  21281435.269   111834708.105        -327.572          31.000  
R02  19870578.085   106032987.5941        656.575          20.000  
> 2021  9 12 11 13 22.9973980  0  6
C06  36687866.219   191043260.1111      -1249.058          23.000  
C07  37702753.927   196328140.469         -40.591          23.000  
C16  37318484.751   194327149.070       -1207.661          27.000  
C25  22138043.651   115278666.726       -2537.323          27.000  
G10  20464431.569   107541283.148       -2848.642          19.000  
G32  21281348.629   111834247.977        -328.074          31.000  
> 2021  9 12 11 13 23.9973970  0  8
C06  36687800.564   191042948.185       -1248.670          26.000  
C07  37702461.629   196326619.282         -39.753          21.000  
C16  37318416.098   194326795.177       -1207.145          28.000  
C23  23045738.467   120005050.2081         56.399          22.000  
C25  22138230.722   115279642.494       -2537.406          26.000  
G10  20464672.602   107542557.482       -2849.915          18.000  
G25  21074835.395   110749173.1801      -2827.134          23.000  
G32  21281112.992   111833000.360        -327.546          31.000  
> 2021  9 12 11 13 24.9973960  0  7
C06  36687739.107   191042635.799       -1248.798          26.000  
C16  37318348.045   194326441.128       -1207.152          29.000  
C23  23045426.383   120003434.171          51.980          23.000  
C25  22138417.492   115280619.440       -2537.961          26.000  
G25  21075069.533   110750425.153       -2828.525          25.000  
G32  21280874.657   111831752.597        -327.341          31.000  
R02  19869457.761   106027026.9541        652.469          19.000  
> 2021  9 12 11 13 25.9973952  0  7
C06  36687738.807   191042637.336       -1251.304          25.000  
C07  37701937.892   196323887.2911        -39.372          21.000  
C16  37318341.150   194326399.849       -1207.188          29.000  
C25  22138664.821   115281908.130       -2537.729          25.000  
G25  21075366.028   110751992.884       -2826.810          26.000  
G32  21280697.180   111830819.451        -327.689          32.000  
J02  38237673.909   200940366.2031      -2184.226          26.000  
> 2021  9 12 11 13 26.9973944  0 10
C06  36687739.407   191042638.632       -1249.874          25.000  
C07  37701704.653   196322679.255         -41.634          20.000  
C16  37318332.756   194326358.230       -1207.590          28.000  
C23  23044925.130   120000832.9381         51.228          19.000  
C25  22138913.049   115283197.508       -2539.837          25.000  
G10  20465520.415   107547008.1651      -2849.274          23.000  
G25  21075659.225   110753559.654       -2827.716          25.000  
G32  21280520.302   111829887.888        -329.191          32.000  
J02  38237848.388   200941289.059       -2182.216          26.000  
R02  19868730.164   106023163.2311        652.001          24.000  
> 2021  9 12 11 13 27.9973934  0  9
C06  36687681.547   191042326.953       -1249.445          25.000  
C07  37701413.255   196321158.249         -39.239          22.000  
C16  37318264.703   194326004.716       -1207.582          27.000  
C25  22139100.719   115284176.553       -2540.499          27.000  
G10  20465762.348   107548281.659       -2849.852          23.000  
G25  21075893.063   110754812.365       -2827.965          25.000  
G32  21280283.466                        -327.945          33.000  
J02  38237964.708   200941895.920       -2182.040          24.000  
R02  19868309.256   106020910.340         652.897          22.000  
> 2021  9 12 11 13 28.9973924  0  5
C16  37318196.650   194325650.698       -1207.795          27.000  
G10  20466005.179   107549557.765       -2853.018          22.000  
G32  21280053.226   111827396.8711       -329.548          33.000  
J02  38238080.128   200942503.261       -2183.604          26.000  
R02  19867883.850   106018657.958         651.689          23.000  
> 2021  9 12 11 13 29.9973916  0  8
C06  36687626.984   191042015.1831      -1250.140          25.000  
C07  37700888.618   196318428.6061        -40.487          20.000  
C16  37318190.654   194325610.233       -1208.956          27.000  
C25  22139535.419   115286448.5521      -2541.109          26.000  
G25  21076431.490   110757638.8261      -2833.243          25.000  
G32  21279870.652   111826465.412        -329.075          32.000  
J02  38238256.406   200943426.114       -2182.993          25.000  
R02  19867520.802   106016726.712         651.441          26.000  
> 2021  9 12 11 13 30.9973908  0  9
C06  36687625.186   191042016.093       -1249.193          25.000  
C07  37700658.677   196317220.650         -42.139          23.000  
C16  37318184.658   194325569.494       -1207.545          29.000  
C25  22139783.347   115287741.319       -2541.571          27.000  
E01                                                                                                                                  23624462.025    92707462.9631       -237.353          25.000  
G25  21076732.482   110759211.027       -2833.369          24.000  
G32  21279693.775   111825534.359        -329.149          32.000  
J02  38238432.984   200944348.619       -2182.563          26.000  
R02  19867157.753   106014796.294         649.574          24.000  
> 2021  9 12 11 13 31.9973898  0  9
C06  36687565.227   191041703.044       -1247.978          24.000  
C07  37700368.478   196315701.589         -43.061          22.000  
C16  37318116.905   194325216.309       -1207.414          28.000  
C25  22139972.516   115288722.595       -2542.884          27.000  
E01                                                                                                                                  23624222.791    92706523.513        -237.123          24.000  
G25  21076970.817   110760468.800       -2833.044          25.000  
G32  21279459.637   111824288.296        -327.813          31.000  
J02  38238547.504   200944956.209       -2183.822          25.000  
R02  19866733.547   106012546.407         651.309          25.000  
