     3.04           OBSERVATION DATA    M: Mixed            RINEX VERSION / TYPE
Higeo_Hi1105        Huawei CBG          20220209 104449 UTC PGM / RUN BY / DATE 
************************************************************COMMENT             
* If you have any problem,                                 *COMMENT             
*     please contact with LBS Technology Group, thanks.    *COMMENT             
*                                                          *COMMENT             
* Version Higeo2RinexV1.1 2020.07.21                       *COMMENT             
* Fuction:  Convert Higeo Log to Rinex file                *COMMENT             
*                                                          *COMMENT             
* Note that the verision support B1C B2A signal            *COMMENT             
*     BDS: C1D L1D D1D S1D indicate BDS B1C                *COMMENT             
*     BDS: C5D L5D D5D S5D indicate BDS B2A                *COMMENT             
*     Reference: RINEX V3.04                               *COMMENT             
*                                                          *COMMENT             
* Copyright(C) Huawei Technologies Co., Ltd. 2019 - 2020   *COMMENT             
*     All rights reserved.                                 *COMMENT             
************************************************************COMMENT             
                                                            MARKER NAME         
                                                            MARKER NUMBER       
                                                            MARKER TYPE         
                                                            OBSERVER / AGENCY   
                                                            REC # / TYPE / VERS 
                                                            ANT # / TYPE        
        0.0000        0.0000        0.0000                  APPROX POSITION XYZ 
        0.0000        0.0000        0.0000                  ANTENNA: DELTA H/E/N
G    8 C1C L1C D1C S1C C5I L5I D5I S5I                      SYS / # / OBS TYPES 
R    4 C1C L1C D1C S1C                                      SYS / # / OBS TYPES 
E    8 C1C L1C D1C S1C C5I L5I D5I S5I                      SYS / # / OBS TYPES 
J    8 C1C L1C D1C S1C C5I L5I D5I S5I                      SYS / # / OBS TYPES 
C   12 C2I L2I D2I S2I C1D L1D D1D S1D C5D L5D D5D S5D      SYS / # / OBS TYPES 
  2022     1    20     8    44   49.0000000     GPS         TIME OF FIRST OBS   
  2022     1    20     9     7   58.0000000     GPS         TIME OF LAST OBS    
G                                                           SYS / PHASE SHIFT   
R                                                           SYS / PHASE SHIFT   
E                                                           SYS / PHASE SHIFT   
J                                                           SYS / PHASE SHIFT   
C                                                           SYS / PHASE SHIFT   
  0                                                         GLONASS SLOT / FRQ #
 C1C    0.000 C1P    0.000 C2C    0.000 C2P    0.000        GLONASS COD/PHS/BIS 
                                                            END OF HEADER       
> 2022  1 20  8 44 49.0000000  0  2                     
G 4  23017984.374       15277.378        2614.378          26.000                                                                  
G 8  20228367.215       -1111.070        -153.379          33.000                                                                  
> 2022  1 20  8 44 50.0000000  0  5                     
G 4  23018477.046       29017.094        2616.161          28.000                                                                  
G 8  20228336.275       -1912.650        -151.107          34.000                                                                  
G 9  22862386.445        2692.928        1224.779          27.000                                                                  
G21  22001337.056      -41074.498       -3044.765          31.000                                                                  
R 9  19889455.165                                          20.000  
> 2022  1 20  8 44 51.0000000  0  5                     
G 4  23018974.290       42768.193        2617.506          28.000                                                                  
G 8  20228309.419       -2701.003        -149.012          30.000                                                                  
G 9  22862617.888        9133.103        1225.804          28.000                                                                  
G21  22000756.623      -57070.193       -3041.214          29.000                                                                  
R 9  19878721.475                                          19.000  
> 2022  1 20  8 44 52.0000000  0  8                     
G 4  23019472.058       56526.980        2619.120          28.000    23019474.589       19629.624        1955.743          27.000  
G 7  22944574.538      -31358.750       -3228.198          16.000                                                                  
G 8  20228282.735       -3478.513        -146.152          31.000                                                                  
G 9  22862851.878       15590.844        1231.737          27.000                                                                  
G21  22000176.508      -73051.077       -3041.851          29.000                                                                  
R 9  19878500.940                                          19.000  
R20  20328302.561                                          25.000  
C 6  37019158.951        7929.410        1284.065          34.000                                                                                                                                  
> 2022  1 20  8 44 53.0000000  0  9                     
G 4  23019970.418       70298.630        2622.231          29.000    23019973.317       27306.666        1956.872          27.000  
G 7  23034975.761      -48322.220       -3228.234          17.000                                                                  
G 8  20228249.107       -4244.722        -146.171          32.000                                                                  
G 9  22863083.267       22066.100        1233.339          28.000                                                                  
G21  21999596.672      -89030.949       -3040.166          30.000                                                                  
R 8  23909813.928                                          20.000  
R 9  19888795.497                                          20.000  
R20  20327735.045                                          26.000  
C 6  37019406.081       14625.412        1287.208          33.000                                                                                                                                  
> 2022  1 20  8 44 54.0000000  0  9                     
G 4  23020469.285       84069.927        2619.207          24.000    23020472.166       34985.633        1956.957          25.000  
G 7  23034361.182      -65295.804       -3229.952          18.000                                                                  
G 8  20228219.791       -5015.090        -144.086          20.000                                                                  
G 9  22863316.350       28537.706        1232.220          27.000                                                                  
G21  21999019.153     -105004.006       -3037.516          31.000                                                                  
R 8  23891136.466                                          19.000  
R 9  19888578.016                                          21.000  
R20  20327138.492                                          27.000  
C 6  37019652.253       21320.454        1284.388          34.000                                                                                                                                  
> 2022  1 20  8 44 55.0000000  0 10                     
G 4  23020966.233       97836.384        2619.398          25.000    23020971.068       42666.984        1958.552          24.000  
G 7  23033741.462      -82278.455       -3229.324          17.000                                                                  
G 8  20228193.632       -5774.973        -144.114          33.000                                                                  
G 9  22863550.776       35015.676        1233.951          20.000                                                                  
G21  21998444.535     -120967.897       -3037.529          37.000                                                                  
G27  20789087.703       47837.443        1902.337          33.000                                                                  
R 8  23891378.815                                          20.000  
R 9  19888360.394                                          32.000  
R20  20326539.391                                          30.000  
C 6  37019899.890       28024.465        1289.928          30.000                                                                                                                                  
> 2022  1 20  8 44 56.0000000  0 10                     
G 4  23021464.078      111614.860        2624.324          27.000    23021470.361       50352.344        1960.010          21.000  
G 7  23033119.118      -99243.652       -3228.800          17.000                                                                  
G 8  20228170.719       -6524.823        -140.604          37.000                                                                  
G 9  22863786.337       41498.329           0.001          19.000                                                                  
G21  21997871.348     -136922.734       -3035.201          37.000                                                                  
G27  20789446.448       57833.243        1902.275          33.000                                                                  
R 8  23891629.016                                          20.000  
R 9  19888145.444                                          29.000  
R20  20325938.650                                          29.000  
C 6  37020146.934       34732.510        1288.822          34.000                                                                                                                                  
> 2022  1 20  8 44 57.0000000  0 10                     
G 4  23021962.857      125402.655        2623.098          26.000    23021969.577       58043.600        1959.195          24.000  
G 7  23032505.167     -116205.307       -3227.914          21.000                                                                  
G 8  20228146.008       -7265.941        -141.516          35.000                                                                  
G 9  22864021.147       47980.865           0.001          18.000                                                                  
G21  21997297.315     -152876.318       -3035.351          36.000                                                                  
G27  20789805.700       67830.593        1903.758          32.000                                                                  
R 8  23891881.992                                          18.000  
R 9  19887929.533                                          28.000  
R20  20325340.838                                          29.000  
C 6  37020394.169       41441.979        1288.347          34.000                                                                                                                                  
> 2022  1 20  8 44 58.0000000  0 12                     
G 4  23022460.869      139194.283        2625.219          27.000    23022468.845       65732.996        1959.329          24.000  
G 7  23031876.889     -133155.746       -3223.460          18.000                                                                  
G 8  20228118.489       -8007.188        -140.093          36.000                                                                  
G 9  22864256.184       54470.687           0.001          25.000                                                                  
G21  21996716.816     -168823.878       -3034.371          32.000                                                                  
G27  20790165.896       77830.619        1903.734          29.000                                                                  
R 8  23892135.666                                          19.000  
R 9  19887714.320                                          25.000  
R20  20324742.662                                          28.000  
C 3  37112264.928        -576.522        -178.094          32.000                                                                                                                                  
C 6  37020641.755       48155.478        1289.359          34.000                                                                                                                                  
C35  21610200.625        -661.466        -190.665          28.000                                                                                                                                  
> 2022  1 20  8 44 59.0000000  0 13                     
G 4  23022960.451      153003.803        2628.886          28.000    23022968.654       73427.604        1961.266          28.000  
G 7  23031263.287     -150101.695       -3223.681          17.000                                                                  
G 8  20228092.748       -8734.520        -137.291          37.000                                                                  
G 9  22864485.096       60970.901        1237.076          25.000                                                                  
G21  21996142.529     -184769.180       -3033.150          35.000                                                                  
G27  20790528.098       87845.608        1902.602          20.000                                                                  
R 8  23892392.234                                          18.000  
R 9  19887500.311                                          29.000  
R20  20324142.933                                          23.000  
C 2  38233281.117        -796.087        -154.863          30.000                                                                                                                                  
C 3  37112232.468       -1425.171        -166.324          31.000                                                                                                                                  
C 6  37020889.531       54878.334        1295.028          34.000                                                                                                                                  
C35  21610165.030       -1611.557        -189.748          31.000                                                                                                                                  
> 2022  1 20  8 45  0.0000000  0 12                     
G 4  23023459.370      166809.768        2627.756          30.000    23023468.586       81125.022        1961.483          28.000  
G 7  23030649.728     -167045.898       -3223.149          17.000                                                                  
G 8  20228067.078       -9453.649        -137.088          37.000                                                                  
G 9  22864722.000       67469.397        1236.953          25.000                                                                  
G21  21995569.094     -200697.912       -3029.996          34.000                                                                  
G27  20790890.650       97855.826        1905.214          20.000                                                                  
R 9  19887290.769                                          25.000  
R20  20323543.187                                          23.000  
C 2  38233248.522       -1543.255        -135.546          31.000                                                                                                                                  
C 3  37112202.154       -2260.431        -158.330          32.000                                                                                                                                  
C 6  37021137.919       61606.936        1291.763          34.000                                                                                                                                  
C35  21610131.721       -2579.425        -188.341          30.000                                                                                                                                  
> 2022  1 20  8 45  1.0000000  0 13                     
G 4  23023959.773      180618.163        2627.464          28.000    23023968.726       88824.062        1962.495          26.000  
G 7  23030026.912     -183982.676       -3222.954          14.000                                                                  
G 8  20228040.937      -10167.304        -134.563          37.000                                                                  
G 9  22864962.970       73976.311        1239.885          26.000                                                                  
G21  21994992.853     -216627.609       -3031.385          33.000                                                                  
G27  20791251.594      107874.415        1907.714          26.000                                                                  
R 9  19887074.701                                          26.000  
R20  20322941.870                                          24.000  
J 3  37740740.238       20835.052         444.555          32.000                                                                  
C 2  38233220.132       -2320.183        -136.773          29.000                                                                                                                                  
C 3  37112170.864       -3088.553        -160.667          32.000                                                                                                                                  
C 6  37021385.435       68339.000        1295.113          34.000                                                                                                                                  
C35  21610094.264       -3568.118        -189.986          29.000                                                                                                                                  
> 2022  1 20  8 45  3.0000000  0 16                     
G 4  23024657.398      199946.042        2629.506          24.000    23024669.091       99607.145        1963.043          26.000  
G 7  23029168.606     -207685.678       -3222.596          16.000                                                                  
G 8  20228004.115      -11160.369        -133.217          37.000                                                                  
G 9  22865296.374       83115.004        1245.343          29.000                                                                  
G21  21994181.641     -238912.497       -3027.098          31.000                                                                  
G27  20791758.044      121914.580        1908.913          23.000                                                                  
R 9  19886770.858                                          28.000  
R20  20322106.336                                          25.000  
E 9  26789414.482       22026.238        2316.129          27.000                                                                  
J 3  37740858.463       24124.831         447.608          32.000                                                                  
C 2  38233185.441       -3251.498        -128.222          31.000                                                                                                                                  
C 3  37112130.550       -4242.230        -158.412          34.000                                                                                                                                  
C 6  37021733.280       77766.330        1292.423          34.000                                                                                                                                  
C 9  36484804.865        3863.237         845.907          31.000                                                                                                                                  
C10  37355757.950        -808.942        -183.386          29.000                                                                                                                                  
C35  21610043.315       -4947.856        -188.306          29.000                                                                                                                                  
> 2022  1 20  8 45  4.0000000  0 17                     
G 4                                                                  23083352.631      107311.203        1963.844          25.000  
G 7  23028555.326     -224622.902           0.011          15.000                                                                  
G 8  20227977.014      -11861.522        -133.397          34.000                                                                  
G 9  22865532.161       89646.635        1244.535          25.000                                                                  
G21  21993605.609     -254827.504       -3030.060          33.000                                                                  
G27  20792119.564      131946.597        1909.240          24.000                                                                  
R 9  19886556.222                                          31.000  
R20  20321509.362                                          28.000  
E 9  26789854.612       34198.623        2316.406          24.000                                                                  
E12  24374451.701      -22007.653       -2078.728          24.000                                                                  
J 3  37740942.067       26471.534         446.216          32.000                                                                  
C 2  38233162.131       -3913.287        -123.077          30.000                                                                                                                                  
C 3  37112098.785       -5064.812        -158.641          34.000                                                                                                                                  
C 6  37021981.250       84502.977        1292.466          34.000                                                                                                                                  
C 9  36484967.399        8259.888         844.083          30.000                                                                                                                                  
C10  37355722.962       -1768.571        -184.180          27.000                                                                                                                                  
C35  21610007.216       -5925.380        -185.700          29.000                                                                                                                                  
> 2022  1 20  8 45  5.0000000  0 20                     
G 4                                                                  23083853.069      115015.581        1964.111          24.000  
G 7  23027942.003     -241561.173           0.011          13.000                                                                  
G 8  20227951.693      -12558.474        -132.439          29.000                                                                  
G 9  22865769.153       96181.020        1245.221          27.000                                                                  
G21  21993026.244     -270748.595       -3026.495          32.000                                                                  
G27  20792482.063      141983.491        1909.884          28.000                                                                  
R 9  19886342.369                                          26.000  
R20  20320910.244                                          26.000  
E 9  26790294.863       46371.991        2316.748          24.000                                                                  
E12  24374050.887      -32934.012       -2079.118          23.000                                                                  
E24  24538025.196      -26300.022       -1245.197          29.000                                                                  
J 3  37741027.660       28814.915         445.893          31.000                                                                  
C 2  38233138.610       -4576.098        -129.140          28.000                                                                                                                                  
C 3  37112065.680       -5887.039        -159.511          32.000                                                                                                                                  
C 6  37022229.514       91245.466        1295.499          33.000                                                                                                                                  
C 9  36485129.598       12651.547         845.441          31.000                                                                                                                                  
C10  37355688.550       -2720.892        -180.715          28.000                                                                                                                                  
C26  22137191.593       -7845.003       -1497.511          29.000                                                                                                                                  
C29  23958708.355       25357.662        2426.864          17.000                                                                                                                                  
C35  21609970.592       -6895.495        -187.003          28.000                                                                                                                                  
> 2022  1 20  8 45  6.0000000  0 19                     
G 4  23026161.851      241399.378        2628.390          24.000    23026170.595      122721.497        1963.764          23.000  
G 7  23027329.430     -258495.225           0.011          17.000                                                                  
G 8  20227926.703      -13257.238        -132.628          25.000                                                                  
G 9  22866005.970      102732.347        1247.671          28.000                                                                  
G27  20792848.210      152024.357        1912.734          28.000                                                                  
R 9  19886126.808                                          27.000  
R20  20320310.864                                          27.000  
E 9  26790735.621       58547.042        2317.021          24.000                                                                  
E12  24373654.069      -43859.305       -2079.119          19.000                                                                  
E24  24537790.455      -32839.773       -1244.430          24.000                                                                  
J 3  37741113.637       31164.621         448.259          31.000                                                                  
C 2  38233114.145       -5243.535        -116.150          28.000                                                                                                                                  
C 3  37112037.163       -6707.183        -156.910          30.000                                                                                                                                  
C 6  37022478.496       97988.479        1295.325          30.000                                                                                                                                  
C 9  36485292.585       17061.023         848.186          31.000                                                                                                                                  
C10  37355654.575       -3666.418        -183.117          25.000                                                                                                                                  
C26  22136906.212      -15620.897       -1491.500          30.000                                                                                                                                  
C29  23959176.369       37997.123        2428.184          17.000                                                                                                                                  
C35  21609934.651       -7862.521        -185.868          30.000                                                                                                                                  
> 2022  1 20  8 45  7.0000000  0 19                     
G 4  23026660.404      255207.297        2629.195          25.000    23026671.154      130429.214        1964.148          24.000  
G 7  23026722.547     -275423.673       -3220.698          17.000                                                                  
G 8  20227900.701      -13948.877        -132.139          22.000                                                                  
G 9  22866244.357      109277.522        1243.950          28.000    22866239.560        3156.924         927.761          22.000  
G27  20793212.698      162073.332        1910.085          33.000                                                                  
R 9  19885911.681                                          28.000  
R20  20319712.269                                          26.000  
E 9  26791176.117       70724.581        2316.870          22.000                                                                  
E12  24373258.926      -54768.395       -2074.693          19.000                                                                  
E24  24537555.090      -39379.004       -1244.242          23.000                                                                  
J 3  37741197.712       33519.803         445.856          33.000    37741195.864        1240.252         334.206          24.000  
C 2  38233092.823       -5836.004        -126.384          29.000                                                                                                                                  
C 3  37112008.141       -7526.400        -157.939          30.000                                                                                                                                  
C 6  37022727.426      104732.041        1295.691          32.000                                                                                                                                  
C 9  36485455.241       21467.275         844.695          32.000                                                                                                                                  
C10  37355619.605       -4622.635        -182.606          23.000                                                                                                                                  
C26  22136620.552      -23389.816       -1494.061          30.000                                                                                                                                  
C29  23959636.322       50639.418        2430.589          18.000                                                                                                                                  
C35  21609898.011       -8828.383        -185.179          29.000                                                                                                                                  
> 2022  1 20  8 45  8.0000000  0 19                     
G 4  23027160.199      269027.814        2630.478          26.000    23027171.892      138138.514        1963.815          25.000  
G 7  23026109.695     -292348.605       -3221.240          17.000                                                                  
G 8  20227870.145      -14639.017        -128.900          28.000                                                                  
G 9  22866480.389      115821.447        1246.569          28.000    22866477.075        6807.150         930.631          23.000  
G21  21991296.990     -318474.693       -3026.927          31.000                                                                  
G27  20793577.028      172123.827        1910.591          32.000                                                                  
R 9  19885696.137                                          28.000  
R20  20319115.140                                          24.000  
E12  24372865.127      -65680.432       -2077.519          20.000                                                                  
E24  24537319.582      -45917.059       -1244.181          23.000                                                                  
J 3  37741283.934       35875.293         448.492          31.000    37741280.725        2553.904         334.884          24.000  
C 2  38233067.487       -6496.093        -127.378          28.000                                                                                                                                  
C 3  37111976.518       -8371.662        -160.541          28.000                                                                                                                                  
C 6  37022976.301      111475.560        1296.048          30.000                                                                                                                                  
C 9  36485617.964       25870.689         845.506          32.000                                                                                                                                  
C10  37355584.708       -5578.170        -183.957          20.000                                                                                                                                  
C26  22136334.386      -31170.943       -1493.386          30.000                                                                                                                                  
C29  23960105.122       63307.796        2427.921          17.000                                                                                                                                  
C35  21609862.207       -9789.905        -184.306          29.000                                                                                                                                  
> 2022  1 20  8 45  9.0000000  0 21                     
G 4  23027660.497      282853.445        2630.263          27.000    23027672.696      145849.828        1965.439          26.000  
G 7  23025496.712     -309277.072       -3221.929          16.000                                                                  
G 8  20227847.057      -15321.333        -129.533          26.000                                                                  
G 9  22866716.856      122372.927        1245.183          27.000    22866714.153       10458.868         931.098          23.000  
G21  21990722.947     -334386.205       -3029.282          31.000                                                                  
G27  20793942.146      182176.699        1914.178          30.000                                                                  
R 9  19885481.761                                          25.000  
R20  20318518.150                                          25.000  
E12  24372472.009      -76580.956       -2074.723          20.000                                                                  
E24  24537084.510      -52449.807       -1243.240          24.000                                                                  
J 3  37741368.725       38230.785         447.776          30.000    37741366.545        3868.736         335.621          24.000  
C 2  38233042.673       -7146.089        -128.718          28.000                                                                                                                                  
C 3  37111947.165       -9163.749        -156.901          28.000                                                                                                                                  
C 5  40237333.925       -1162.476        -100.008          26.000                                                                                                                                  
C 6  37023225.352      118220.785        1295.364          29.000                                                                                                                                  
C 9  36485781.806       30285.663         846.253          31.000                                                                                                                                  
C10  37355549.912       -6525.111        -180.669          21.000                                                                                                                                  
C24  25364487.244      -88639.700       -2849.166          15.000                                                                                                                                  
C26  22136048.534      -38944.474       -1491.956          30.000                                                                                                                                  
C29  23960571.602       75955.597        2429.655          17.000                                                                                                                                  
C35  21609826.353      -10751.544        -183.153          29.000                                                                                                                                  
> 2022  1 20  8 45 10.0000000  0 21                     
G 4  23028159.695      296682.499        2631.333          27.000    23028173.517      153560.598        1964.593          23.000  
G 7  23024874.873     -326210.944       -3220.926          17.000                                                                  
G 8  20227823.603      -15996.066        -128.090          29.000                                                                  
G 9  22866955.244      128922.228        1248.318          26.000    22866951.651       14111.387         930.926          21.000  
G21  21990150.563     -350277.250       -3022.990          32.000                                                                  
G27  20794305.359      192235.325        1912.771          28.000                                                                  
R 9  19885267.631                                          30.000  
R20  20317920.585                                          27.000  
E12  24372078.506      -87489.047       -2075.820          23.000                                                                  
E24  24536850.154      -58984.624       -1243.787          28.000    24536848.864      -13473.627        -896.975          27.000  
J 3  37741454.353       40582.293         448.004          30.000    37741451.964        5183.559         335.404          24.000  
C 2  38233018.052       -7816.564        -124.505          29.000                                                                                                                                  
C 3  37111917.635       -9964.735        -149.961          27.000                                                                                                                                  
C 5  40237310.594       -1687.346         -98.841          25.000                                                                                                                                  
C 6  37023472.153      124965.069        1295.883          29.000                                                                                                                                  
C 9  36485944.740       34699.859         847.397          32.000                                                                                                                                  
C10  37355515.780       -7470.599        -181.500          20.000                                                                                                                                  
C24  25363940.074     -103477.587       -2850.795          16.000                                                                                                                                  
C26  22135762.089      -46714.428       -1491.318          32.000                                                                                                                                  
C29  23961037.538       88609.794        2429.236          17.000                                                                                                                                  
C35  21609791.109      -11709.908        -184.745          29.000                                                                                                                                  
> 2022  1 20  8 45 11.0000000  0 21                     
G 4  23028662.401      310519.150        2633.828          28.000    23028674.461      161273.333        1965.658          23.000  
G 7  23024261.899     -343138.554       -3220.197          17.000                                                                  
G 8  20227799.258      -16676.551        -129.033          24.000                                                                  
G 9  22867190.777      135485.710        1249.061          26.000    22867188.964       17767.383         931.192          20.000  
G21  21989577.720     -366176.245       -3024.069          33.000                                                                  
G27  20794671.364      202290.067        1915.800          30.000                                                                  
R 9  19885051.266                                          30.000  
R20  20317322.774                                          26.000  
E12  24371686.382      -98396.219       -2075.266          25.000                                                                  
E24  24536614.820      -65518.246       -1243.234          27.000    24536613.897      -17099.208        -903.127          26.000  
J 3  37741539.998       42946.466         450.948          30.000    37741537.452        6499.141         335.705          25.000  
C 2  38232996.082       -8413.536        -113.234          29.000                                                                                                                                  
C 3  37111889.013      -10740.358        -155.029          28.000                                                                                                                                  
C 5  40237289.060       -2270.082        -125.346          25.000                                                                                                                                  
C 6  37023721.778      131718.580        1298.042          30.000                                                                                                                                  
C 9  36486107.359       39104.180         847.696          31.000                                                                                                                                  
C10  37355482.380       -8415.736        -181.672          22.000                                                                                                                                  
C24  25363391.928     -118318.051       -2849.770          17.000                                                                                                                                  
C26  22135475.401      -54484.819       -1491.184          33.000                                                                                                                                  
C29  23961504.349      101266.416        2429.741          18.000                                                                                                                                  
C35  21609756.806      -12660.935        -181.350          27.000                                                                                                                                  
> 2022  1 20  8 45 12.0000000  0 22                     
G 4  23029165.159      324360.674        2634.131          26.000    23029175.666      168988.358        1965.839          24.000  
G 7  23023646.099     -360057.646       -3220.199          15.000                                                                  
G 8  20227777.270      -17346.437        -126.905          38.000                                                                  
G 9  22867427.420      142044.964        1249.346          27.000    22867426.688       21426.566         933.324          26.000  
G21  21989002.596     -382063.592       -3025.252          32.000                                                                  
G27  20795035.207      212354.855        1916.093          26.000                                                                  
R 9  19884835.338                                          31.000  
R20  20316726.430                                          23.000  
E12  24371292.321     -109298.350       -2074.801          23.000                                                                  
E24  24536378.042      -72048.799       -1242.621          30.000    24536375.129      -20780.926        -967.761          24.000  
E31  24406353.295       10974.174         297.383           8.000                                                                  
J 3  37741624.475       45304.642         447.534          30.000    37741623.080        7816.524         335.959          23.000  
C 2  38232973.381       -9014.077        -126.494          29.000                                                                                                                                  
C 3  37111858.526      -11562.851        -154.958          27.000                                                                                                                                  
C 5  40237265.396       -2880.178        -106.216          25.000                                                                                                                                  
C 6  37023970.638      138476.288        1298.186          29.000                                                                                                                                  
C 9  36486269.648       43532.619         848.695          31.000                                                                                                                                  
C10  37355447.043       -9363.266        -181.378          24.000                                                                                                                                  
C24  25362845.178     -133144.324       -2843.113          17.000                                                                                                                                  
C26  22135188.781      -62252.633       -1492.575          33.000                                                                                                                                  
C29  23961971.160      113918.006        2430.407          17.000                                                                                                                                  
C35  21609723.185      -13601.550        -182.111          32.000                                                                                                                                  
> 2022  1 20  8 45 13.0000000  0 23                     
G 4  23029665.038      338192.581        2631.362          23.000    23029676.923      176705.002        1966.088          24.000  
G 7  23023033.325     -376980.473       -3221.239          16.000                                                                  
G 8  20227752.822      -18015.019        -126.997          39.000    20227748.182        -212.359        -104.100          19.000  
G 9  22867664.586      148613.668        1251.158          29.000    22867664.919       25087.488         933.494          26.000  
G21  21988426.128     -397955.741       -3024.175          29.000                                                                  
G27  20795398.962      222423.685        1915.315          27.000                                                                  
R 9  19884620.752                                          25.000  
R20  20316129.231                                          21.000  
E 9  26793810.733      143829.907        2320.878          12.000                                                                  
E12  24370898.505     -120194.844       -2072.078          19.000                                                                  
E24  24536140.771      -78578.204       -1242.386          34.000                                                                  
E31  24259209.958       12538.970         297.673          10.000                                                                  
J 3  37741708.986       47669.063         452.051          28.000    37741708.639        9134.915         336.309          20.000  
C 2  38232947.644       -9713.939        -123.958          27.000                                                                                                                                  
C 3  37111829.293      -12323.476        -140.202          28.000                                                                                                                                  
C 5  40237244.647       -3442.070        -100.372          26.000                                                                                                                                  
C 6  37024219.149      145239.216        1298.071          31.000                                                                                                                                  
C 9  36486432.127       47950.741         848.398          34.000                                                                                                                                  
C10  37355411.829      -10301.268        -179.614          29.000                                                                                                                                  
C24  25362298.934     -147957.712       -2845.507          17.000                                                                                                                                  
C26  22134903.086      -70011.357       -1490.414          33.000                                                                    22134897.691       -3916.632       -1122.169          26.000  
C29  23962437.517      126576.111        2431.227          16.000                                                                                                                                  
C35  21609688.186      -14549.428        -181.148          32.000                                                                                                                                  
> 2022  1 20  8 45 14.0000000  0 23                     
G 1  24827535.770      -42525.554       -3994.058          16.000                                                                  
G 4  23030166.086      352022.129        2633.613          26.000    23030178.111      184421.478        1966.239          22.000  
G 7  23022420.386     -393907.682       -3220.959          16.000                                                                  
G 8  20227730.223      -18680.650        -127.107          34.000    20227727.590        -583.045         -92.496          23.000  
G 9  22867903.270      155174.179        1246.614          25.000    22867903.044       28750.054         935.456          23.000  
G27  20795765.929      232489.212        1915.409          31.000                                                                  
R 9  19884406.500                                          23.000  
R20  20315532.800                                          19.000  
E 9  26794252.363      156025.373        2320.578          19.000                                                                  
E12  24370504.462     -131078.521       -2068.719          16.000                                                                  
E24  24535905.054      -85107.165       -1242.376          30.000                                                                  
E31  24259266.636       14103.605         297.620           9.000                                                                  
J 3  37741793.376       50031.006         451.910          25.000    37741794.878       10455.824         336.960          21.000  
C 2  38232922.935      -10338.112        -117.913          30.000                                                                                                                                  
C 3  37111800.202      -13124.529        -157.429          30.000                                                                                                                                  
C 5  40237223.777       -4013.027         -97.508          28.000                                                                                                                                  
C 6  37024468.600      151991.518        1294.246          30.000                                                                                                                                  
C 9  36486595.271       52373.357         849.082          32.000                                                                                                                                  
C10  37355376.352      -11242.026        -182.806          30.000                                                                                                                                  
C24  25361751.765     -162766.230       -2841.736          14.000                                                                                                                                  
C26  22134617.007      -77771.754       -1491.736          31.000                                                                    22134611.717       -8321.989       -1121.965          24.000  
C29  23962904.589      139240.567        2432.332          17.000                                                                                                                                  
C35  21609653.551      -15482.011        -179.089          33.000                                                                    21609650.425        -211.690        -135.341          22.000  
> 2022  1 20  8 45 15.0000000  0 23                     
G 4  23030667.361      365864.196        2633.246          21.000    23030679.124      192138.364        1968.243          21.000  
G 7  23021805.039     -410829.678       -3218.905          17.000                                                                  
G 8  20227706.455      -19341.223        -124.539          36.000    20227703.472        -950.924         -92.536          22.000  
G 9  22868138.499      161730.895        1250.885          28.000    22868141.397       32414.759         935.022          23.000  
G21  21987606.104      -10120.487       -3022.870          33.000                                                                  
G27  20796131.550      242562.494        1916.661          32.000                                                                  
R 9  19884189.421                                          25.000  
R20  20314935.514                                          18.000  
E 9  26794693.906      168218.791        2319.973          24.000                                                                  
E12  24370110.174     -141967.494       -2070.524          14.000                                                                  
E24  24535669.807      -91633.695       -1241.846          32.000                                                                  
E31  24259323.332       15669.066         298.162          10.000                                                                  
J 3  37741878.602       52396.447         449.335          29.000    37741880.454       11776.246         338.715          20.000  
C 2  38232898.314      -10992.830        -124.824          26.000                                                                                                                                  
C 3  37111768.317      -13987.339        -162.952          28.000                                                                                                                                  
C 5  40237201.929       -4606.013        -113.467          27.000                                                                                                                                  
C 6  37024718.279      158748.670        1300.118          30.000                                                                                                                                  
C 9  36486759.566       56800.899         851.198          33.000                                                                                                                                  
C10  37355342.102      -12178.286        -179.589          30.000                                                                                                                                  
C24  25361206.376     -177556.056       -2839.931          15.000                                                                                                                                  
C26  22134330.824      -85517.791       -1488.780          30.000                                                                    22134326.022      -12726.119       -1121.702          24.000  
C29  23963371.365      151911.475        2433.475          14.000                                                                                                                                  
C35  21609619.930      -16418.113        -179.331          35.000                                                                    21609617.048        -742.620        -134.857          23.000  
> 2022  1 20  8 45 16.0000000  0 24                     
G 1  24826006.836      -84509.236       -3994.343          20.000                                                                  
G 4  23031169.125      379713.478           0.002          18.000    23031180.085      199859.054        1968.302          22.000  
G 7  23021189.517     -427729.896       -3214.616          19.000                                                                  
G 8  20227681.046      -19995.776        -123.839          35.000    20227679.826       -1316.419         -92.284          24.000  
G 9  22868376.677      168310.208        1251.794          29.000    22868379.714       36081.880         936.532          22.000  
G21  21987035.080      -25998.603       -3022.132          33.000                                                                  
G27  20796494.852      252636.582        1916.732          33.000                                                                  
R 9  19883976.929                                          27.000  
R20  20314339.921                                          17.000  
E 9  26795135.432      180411.100        2320.082          24.000                                                                  
E12  24369716.270     -152846.115       -2067.406          13.000                                                                  
E24  24535433.915      -98159.009       -1241.494          32.000                                                                  
E31  24259380.115       17236.602         298.481          10.000                                                                  
J 3  37741966.063       54758.898         449.256          29.000    37741966.221       13102.782         337.990          18.000  
C 2  38232872.978      -11694.494        -129.834          26.000                                                                                                                                  
C 3  37111738.508      -14793.649        -160.232          27.000                                                                                                                                  
C 5  40237175.876       -5263.327        -124.161          27.000                                                                                                                                  
C 6  37024967.765      165512.320        1297.060          29.000                                                                                                                                  
C 9  36486922.813       61228.535         850.737          32.000                                                                                                                                  
C10  37355306.590      -13114.253        -179.416          29.000                                                                                                                                  
C24  25360662.959     -192343.061           0.002          11.000                                                                                                                                  
C26  22134045.199      -93272.125       -1488.501          32.000                                                                    22134040.973      -17128.876       -1121.243          24.000  
C29  23963838.734      164583.991        2432.629          15.000                                                                                                                                  
C35  21609586.657      -17345.423        -177.741          35.000                                                                    21609582.867       -1271.166        -133.789          24.000  
> 2022  1 20  8 45 17.0000000  0 23                     
G 1  24825251.259     -105516.800       -3996.021          19.000                                                                  
G 4  23031672.319      393569.888           0.002          19.000    23031681.186      207581.165        1969.979          22.000  
G 7  23020580.547     -444618.773       -3214.108          18.000                                                                  
G 8  20227657.819      -20647.143        -124.832          35.000    20227656.459       -1678.794         -91.315          23.000  
G 9  22868615.273      174893.040        1253.553          28.000    22868617.823       39751.474         935.632          23.000  
G21  21986460.266      -41879.508       -3020.662          33.000                                                                  
G27  20796861.103      262711.031        1918.930          32.000                                                                  
R 9  19883762.589                                          25.000  
R20  20313744.011                                          16.000  
E 9  26795590.184      192605.598        2320.342          23.000                                                                  
E24  24535198.058     -104681.836       -1241.071          31.000                                                                  
E31  24259436.967       18806.554         298.975          11.000                                                                  
J 3  37742053.140       57122.294         449.395          30.000    37742052.077       14429.710         338.683          19.000  
C 2  38232846.646      -12362.138        -112.892          25.000                                                                                                                                  
C 3  37111708.946      -15600.650        -150.624          28.000                                                                                                                                  
C 5  40237152.475       -5900.419        -119.745          27.000                                                                                                                                  
C 6  37025216.817      172277.369        1300.006          27.000                                                                                                                                  
C 9  36487085.835       65656.344         850.655          32.000                                                                                                                                  
C10  37355270.660      -14049.222        -179.471          29.000                                                                                                                                  
C24  25360117.517     -207133.979           0.002          12.000                                                                                                                                  
C26  22133759.922     -101019.386       -1488.443          32.000                                                                    22133755.522      -21529.359       -1120.212          25.000  
C29  23964305.737      177246.818        2431.097          15.000                                                                                                                                  
C35  21609552.774      -18273.391        -177.315          34.000                                                                    21609549.090       -1797.044        -133.761          23.000  
> 2022  1 20  8 45 18.0000000  0 23                     
G 1  24824216.950     -126527.206       -3999.206          19.000                                                                  
G 4  23032175.025      407425.085        2636.933          18.000    23032182.932      215304.611        1968.700          22.000  
G 7  23019969.109     -461504.707       -3214.224          18.000                                                                  
G 8  20227634.784      -21292.915        -123.342          35.000    20227633.215       -2038.819         -90.423          25.000  
G 9  22868854.516      181485.525        1252.427          29.000    22868856.228       43423.002         935.872          23.000  
G21  21985886.084      -57752.157       -3021.974          31.000                                                                  
G27  20797225.609      272793.583        1918.516          33.000                                                                  
R 9  19883548.719                                          26.000  
R20  20313148.069                                          14.000  
E 9  26796036.159      204802.586        2321.114          25.000                                                                  
E24  24534962.833     -111202.776       -1240.743          31.000                                                                  
E31  24259493.890       20378.261         299.204          11.000                                                                  
J 3  37742138.419       59488.657         451.263          29.000    37742138.106       15756.340         339.146          17.000  
C 2  38232824.418      -12989.582        -120.117          27.000                                                                                                                                  
C 3  37111679.975      -16397.826        -169.770          27.000                                                                                                                                  
C 5  40237130.050       -6497.798        -105.800          27.000                                                                                                                                  
C 6  37025466.375      179045.352        1296.484          28.000                                                                                                                                  
C 9  36487249.118       70084.439         850.311          33.000                                                                                                                                  
C10  37355235.236      -14981.023        -178.756          28.000                                                                                                                                  
C24  25359572.076     -221925.052           0.002          13.000                                                                                                                                  
C26  22133474.751     -108768.709       -1485.624          34.000                                                                    22133470.107      -25928.572       -1120.778          25.000  
C29  23964770.593      189902.307           0.008          13.000                                                                                                                                  
C35  21609519.101      -19194.603        -177.836          35.000                                                                    21609515.382       -2320.182        -133.213          24.000  
> 2022  1 20  8 45 19.0000000  0 22                     
G 4  23032676.252      421277.903        2636.365          18.000    23032684.786      223028.512        1969.397          22.000  
G 7  23019352.802     -478395.212       -3213.062          17.000                                                                  
G 8  20227609.201      -21937.950        -122.076          35.000    20227610.040       -2397.766         -91.409          24.000  
G 9  22869094.676      188071.825        1253.604          27.000    22869097.714       47096.259         936.110          22.000  
G21  21985310.489      -73622.447       -3020.715          31.000                                                                  
G27  20797591.683      282881.323        1921.682          32.000                                                                  
R 9  19883332.442                                          25.000  
R20  20312561.916                                          17.000  
E 9  26796477.423      216999.317        2320.882          24.000                                                                  
E24  24534726.592     -117723.418       -1240.678          32.000                                                                  
E31  24259550.830       21950.500         299.247          11.000                                                                  
J 3  37742104.592       61866.943         451.451          30.000    37742099.655       17084.903         338.210          18.000  
C 2  38232802.221      -13569.023        -114.293          25.000                                                                                                                                  
C 3  37111649.749      -17204.532        -148.880          27.000                                                                                                                                  
C 5  40237110.733       -7053.874         -94.892          27.000                                                                                                                                  
C 6  37025715.616      185807.741        1300.960          27.000                                                                                                                                  
C 9  36487412.208       74515.587         849.952          33.000                                                                                                                                  
C10  37355199.778      -15910.655        -178.760          29.000                                                                                                                                  
C24  25359026.180     -236725.325           0.002          13.000                                                                                                                                  
C26  22133189.353     -116513.246       -1486.726          32.000                                                                    22133184.691      -30326.395       -1119.801          25.000  
C29  23965237.352      202558.217           0.008          13.000                                                                                                                                  
C35  21609485.496      -20118.368        -175.037          34.000                                                                    21609481.811       -2841.369        -130.584          23.000  
> 2022  1 20  8 45 20.0000000  0 23                     
G 1  24822680.861     -168542.038       -3996.251          20.000                                                                  
G 4  23033178.190      435137.132        2636.888          19.000    23033186.637      230753.800        1969.085          24.000  
G 7  23018741.068     -495288.311       -3215.497          16.000                                                                  
G 8  20227590.127      -22575.818        -121.497          38.000    20227587.040       -2754.520         -90.435          25.000  
G 9  22869333.657      194653.969        1252.349          27.000    22869336.869       50776.800         937.550          21.000  
G21  21984738.149      -89495.338       -3021.098          23.000                                                                  
G27  20797958.338      292973.546        1918.388          25.000                                                                  
R 9  19883117.491                                          24.000  
R20  20311966.602                                          18.000  
E 9  26796919.978      229198.636        2321.368          25.000                                                                  
E24  24534490.421     -124242.798       -1240.431          30.000                                                                  
E31  24259614.035       23522.477         299.176          12.000                                                                  
J 3  37742191.933       64229.868         449.987          32.000    37742186.106       18411.228         339.618          18.000  
C 2  38232781.719      -14125.792        -103.317          26.000                                                                                                                                  
C 3  37111618.911      -18017.708        -162.290          27.000                                                                                                                                  
C 5  40237090.421       -7554.263         -97.455          26.000                                                                                                                                  
C 6  37025964.598      192577.803        1301.122          26.000                                                                                                                                  
C 9  36487577.237       78947.487         853.398          30.000                                                                                                                                  
C10  37355164.511      -16843.648        -178.135          26.000                                                                                                                                  
C24  25358480.966     -251509.139           0.002          14.000                                                                                                                                  
C26  22132903.501     -124255.578       -1485.985          28.000                                                                    22132899.450      -34722.463       -1119.312          24.000  
C29  23965704.267      215218.321           0.008          14.000                                                                                                                                  
C35  21609452.366      -21027.697        -174.951          34.000                                                                    21609448.280       -3360.720        -131.890          23.000  
> 2022  1 20  8 45 21.0000000  0 22                     
G 1  24821910.871     -189528.613       -3991.789          17.000                                                                  
G 4  23033681.472      448993.249           0.002          20.000    23033688.436      238481.448        1968.765          22.000  
G 7  23018123.774     -512179.059       -3213.716          13.000                                                                  
G 8  20227566.026      -23212.998        -120.466          39.000    20227563.881       -3108.697         -90.190          27.000  
G 9  22869573.004      201263.416        1259.355          27.000    22869575.413       54453.903         937.275          21.000  
G27  20798324.255      303053.547        1918.225          20.000                                                                  
R 9  19882908.839                                          27.000  
R20  20311370.834                                          20.000  
E 9  26797361.765      241399.351        2322.217          24.000                                                                  
E24  24534253.813     -130760.483       -1240.138          31.000                                                                  
E31  24259671.062       25097.360         299.731          12.000                                                                  
J 3  37742276.272       66603.186         450.079          30.000    37742271.457       19737.185         335.269          20.000  
C 2  38232760.188      -14689.439        -100.608          24.000                                                                                                                                  
C 3  37111591.041      -18800.150        -140.852          26.000                                                                                                                                  
C 5  40237075.728       -8031.230        -113.717          27.000                                                                                                                                  
C 6  37026213.667      199348.942        1300.174          25.000                                                                                                                                  
C 9  36487741.218       83393.002         851.948          30.000                                                                                                                                  
C10  37355129.436      -17776.370        -179.096          28.000                                                                                                                                  
C24  25357935.367     -266295.749           0.002          11.000                                                                                                                                  
C26  22132617.561     -131993.801       -1485.550          31.000                                                                    22132614.016      -39117.597       -1120.120          25.000  
C29  23966169.909      227868.582           0.008          14.000                                                                                                                                  
C35  21609419.930      -21937.847        -175.727          33.000                                                                    21609414.570       -3878.068        -131.290          24.000  
> 2022  1 20  8 45 22.0000000  0 24                     
G 1  24821151.263     -210507.196       -3991.406          16.000                                                                  
G 4  23034184.125      462858.268           0.002          19.000    23034190.304      246209.048        1969.262          22.000  
G 7  23017512.510     -529060.333       -3211.220          14.000                                                                  
G 8  20227543.706      -23845.414        -120.349          38.000    20227540.846       -3461.382         -90.090          27.000  
G 9  22869811.723      207864.209        1255.447          27.000    22869813.731       58133.146         938.404          20.000  
G21  21983591.072      -29388.878       -3020.069          19.000                                                                  
G27  20798689.564      313141.360        1921.369          21.000                                                                  
R 9  19882694.673                                          26.000  
R20  20310778.940                                          20.000  
E 9  26797802.014      253599.915        2321.603          25.000                                                                  
E24  24534016.193     -137278.076       -1240.169          32.000                                                                  
E31  24259728.177       26674.900         300.530          12.000                                                                  
J 3  37742361.885       68979.174         452.174          29.000    37742357.227       21068.475         338.201          18.000  
C 2  38232737.223      -15269.680        -126.971          24.000                                                                                                                                  
C 3  37111566.239      -19499.639        -128.426          24.000                                                                                                                                  
C 5  40237051.594       -8619.010        -109.420          27.000                                                                                                                                  
C 6  37026462.804      206119.281        1301.149          25.000                                                                                                                                  
C 9  36487905.111       87833.918         853.418          29.000                                                                                                                                  
C10  37355095.722      -18705.647        -177.412          29.000                                                                                                                                  
C16  37204666.983      132399.392        1359.285          28.000                                                                                                                                  
C24  25357389.734     -281092.895           0.002          11.000                                                                                                                                  
C26  22132332.147     -139729.783       -1485.029          32.000                                                                    22132328.568      -43511.689       -1120.311          26.000  
C29  23966636.578      240521.667           0.008          15.000                                                                                                                                  
C35  21609386.447      -22844.853        -173.733          31.000                                                                    21609381.017       -4393.981        -132.545          22.000  
> 2022  1 20  8 45 23.0000000  0 23                     
G 1  24820382.947     -231490.666       -3994.042          17.000                                                                  
G 4  23034686.866      476725.689        2639.717          18.000    23034692.120      253937.890        1969.093          22.000  
G 7  23016901.299     -545940.111       -3212.414          15.000                                                                  
G 8  20227521.037      -24474.223        -119.616          38.000    20227517.968       -3812.047         -89.832          26.000  
G 9  22870049.447      214463.290        1257.994          25.000    22870053.148       61814.865         939.580          20.000  
G27  20799052.114      323234.368        1920.255          21.000                                                                  
R 9  19882482.444                                          25.000  
R20  20310183.329                                          19.000  
E 9  26798242.231      265801.454        2321.933          23.000                                                                  
E24  24533780.061     -143794.371       -1239.863          31.000                                                                  
E31  24259785.413       28255.214         300.813          12.000                                                                  
J 3  37742448.353       71358.015         452.350          29.000    37742443.556       22393.763         337.013          18.000  
C 2  38232712.446      -15966.193        -125.530          25.000                                                                                                                                  
C 3  37111540.219      -20163.153        -116.868          25.000                                                                                                                                  
C 5  40237031.751       -9180.317        -106.221          27.000                                                                                                                                  
C 6  37026712.274      212892.164        1300.532          25.000                                                                                                                                  
C 9  36488068.167       92275.119         853.137          30.000                                                                                                                                  
C10  37355061.349      -19632.967        -177.715          30.000                                                                                                                                  
C16  37204927.637      139476.158        1356.154          29.000                                                                                                                                  
C24  25356843.647     -295900.675           0.002          10.000                                                                                                                                  
C26  22132046.732     -147464.776       -1485.362          32.000                                                                    22132043.152      -47904.539       -1119.625          27.000  
C29  23967103.319      253182.759           0.008          14.000                                                                                                                                  
C35  21609353.332      -23749.123        -173.535          31.000                                                                    21609347.606       -4907.319        -131.436          23.000  
> 2022  1 20  8 45 24.0000000  0 24                     
G 1  24819622.728     -252484.788       -3994.932          17.000                                                                  
G 4  23035190.025      490597.096        2640.439          20.000    23035194.023      261667.452        1968.758          23.000  
G 7  23016289.721     -562829.788           0.011          16.000                                                                  
G 8  20227496.833      -25100.085        -119.151          38.000    20227495.177       -4160.924         -89.151          27.000  
G 9  22870289.597      221067.313        1256.364          25.000    22870291.937       65496.593         938.534          20.000  
G21  21982079.639      -61113.671       -3018.264          19.000                                                                  
G27  20799416.236      333323.690        1920.571          25.000                                                                  
R 9  19882268.958                                          23.000  
R20  20309589.077                                          20.000  
E 9  26798684.122      278003.675        2322.309          24.000                                                                  
E24  24533543.663     -150310.276       -1239.719          30.000                                                                  
E31  24259842.737       29838.064         301.446          12.000                                                                  
J 3  37742532.797       73731.066         451.707          29.000    37742529.360       23720.330         337.827          19.000  
C 2  38232689.186      -16578.879        -123.791          25.000                                                                                                                                  
C 3  37111515.942      -20798.245        -133.312          25.000                                                                                                                                  
C 5  40237008.787       -9794.408        -117.818          26.000                                                                                                                                  
C 6  37026961.795      219665.546        1303.508          27.000                                                                                                                                  
C 9  36488232.236       96722.149         853.396          30.000                                                                                                                                  
C10  37355026.675      -20570.599        -179.472          29.000                                                                                                                                  
C16  37205188.309      146536.373        1355.979          29.000                                                                                                                                  
C24  25356295.344     -310721.072           0.002          13.000                                                                                                                                  
C26  21894639.766     -155197.913       -1485.329          31.000                                                                    21894636.501      -52296.321       -1118.802          28.000  
C29  23967570.653      265854.422           0.008          13.000                                                                                                                                  
C35  21578932.748      -24649.825        -172.561          32.000                                                                    21578927.336       -5418.850        -130.970          23.000  
> 2022  1 20  8 45 25.0000000  0 23                     
G 1  24818862.389     -273482.053       -3996.656          17.000                                                                  
G 4  23035692.417      504467.283        2639.976          20.000    23035696.101      269398.608        1969.579          23.000  
G 7  23015677.950     -579725.330           0.011          17.000                                                                  
G 8  20227476.206      -25720.932        -117.190          38.000    20227472.648       -4507.756         -88.258          26.000  
G 9  22870529.101      227673.739        1256.864          25.000    22870530.743       69180.872         938.728          19.000  
G27  20799782.225      343416.121        1921.693          28.000                                                                  
R 9  19882055.630                                          21.000  
R20  20309005.123                                          20.000  
E 9  26799127.288      290207.832        2322.231          23.000                                                                  
E24  24533307.317     -156824.523       -1239.440          30.000                                                                  
E31  24259900.044       31420.933         301.209          11.000                                                                  
J 3  37742620.085       76106.655         454.800          28.000    37742615.654       25048.028         338.385          18.000  
C 2  38232665.087      -17212.739        -118.455          25.000                                                                                                                                  
C 3  37111488.665      -21531.014        -146.994          25.000                                                                                                                                  
C 5  40236985.438      -10395.495        -112.395          26.000                                                                                                                                  
C 6  37027212.312      226447.860        1300.275          28.000                                                                                                                                  
C 9  36488396.669      101163.661         851.631          30.000                                                                                                                                  
C10  37354992.595      -21495.222        -176.722          28.000                                                                                                                                  
C16  37205448.963      153613.170        1360.667          30.000                                                                                                                                  
C24  25355748.502     -325551.141           0.002          12.000                                                                                                                                  
C26  21894354.612     -162936.651       -1484.915          30.000                                                                    21894351.399      -56686.595       -1119.060          25.000  
C29  23968038.197      278531.709           0.008          14.000                                                                                                                                  
C35  21578899.226      -25544.809        -172.743          32.000                                                                    21578894.268       -5927.447        -129.187          23.000  
> 2022  1 20  8 45 26.0000000  0 23                     
G 1  24818094.649     -294485.724       -3997.771          18.000                                                                  
G 4  23036195.210      518326.404           0.002          21.000    23036198.178      277130.571        1969.692          22.000  
G 7  23015059.392     -596625.227       -3215.814          16.000                                                                  
G 8  20227454.096      -26340.423        -116.542          38.000    20227450.224       -4852.272         -88.460          26.000  
G 9  22870765.587      234281.691           0.001          25.000    22870770.910       72878.442         944.115          20.000  
G27  20800149.608      353521.812        1922.563          25.000                                                                  
R 9  19881841.185                                          23.000  
R20  20308408.413                                          19.000  
E 9  26799571.431      302413.996        2322.895          25.000    26799577.087       12894.178        1734.939          18.000  
E24  24533071.250     -163337.404       -1239.340          29.000                                                                  
E31  24259957.385       33005.162         301.607          12.000                                                                  
J 3  37742706.675       78490.420         453.112          28.000    37742704.129       26382.892         341.884          19.000  
C 2  38232644.114      -17797.877        -108.868          26.000                                                                                                                                  
C 3  37111458.283      -22317.807        -156.728          24.000                                                                                                                                  
C 5  40236964.149      -11007.004        -123.635          27.000                                                                                                                                  
C 6  37027462.289      233218.874        1301.579          27.000                                                                                                                                  
C 9  36488560.668      105604.918         855.108          30.000                                                                                                                                  
C10  37354959.213      -22421.063        -178.188          30.000                                                                                                                                  
C16  37205709.756      160691.170        1357.990          29.000                                                                                                                                  
C24  25355201.892     -340373.840           0.002           9.000                                                                                                                                  
C26  21894070.122     -170663.444       -1484.390          32.000                                                                    21894066.315      -61075.239       -1118.699          27.000  
C29  23968505.601      291206.095           0.008          13.000                                                                                                                                  
C35  21578865.826      -26436.348        -167.702          32.000                                                                    21578861.199       -6435.478        -129.884          22.000  
> 2022  1 20  8 45 27.0000000  0 22                     
G 1  24817326.072     -315497.226       -3998.157          17.000                                                                  
G 4  23036696.799      532184.093        2638.255          20.000    23036700.413      284865.589        1972.026          20.000  
G 7  23014447.988     -613511.147       -3212.132          17.000                                                                  
G 8  20227431.306      -26955.140        -116.585          39.000    20227427.957       -5195.128         -87.350          28.000  
G 9  22871003.189      240889.010        1257.508          25.000    22871010.781       76571.997         942.047          19.000  
G27  20800513.663      363623.204        1922.208          24.000                                                                  
R 9  19881626.094                                          31.000  
R20  20307814.251                                          19.000  
E 9  26800013.183      314620.593        2322.889          25.000    26800019.066       19700.984        1732.849          18.000  
E24  24532836.580     -169849.892       -1239.064          32.000                                                                  
E31  24260014.814       34591.128         301.880          13.000                                                                  
J 3  37742791.852       80871.839         455.350          28.000    37742788.171       27711.113         336.951          20.000  
C 2  38232620.783      -18393.300        -110.274          24.000                                                                                                                                  
C 3  37111427.654      -23119.131        -135.403          23.000                                                                                                                                  
C 5  40236938.584      -11674.705        -123.567          26.000                                                                                                                                  
C 6  37055160.795      239988.562        1300.527          23.000                                                                                                                                  
C 9  36488724.351      110061.023         854.516          28.000                                                                                                                                  
C10  37354926.284      -23347.680        -177.189          31.000                                                                                                                                  
C16  37205969.869      167755.354        1356.141          26.000                                                                                                                                  
C26  21893785.700     -178388.823       -1482.760          35.000                                                                    21893781.318      -65463.017       -1117.811          26.000  
C29  23968972.866      303875.636           0.008          13.000                                                                                                                                  
C35  21578832.688      -27322.323        -170.687          32.000                                                                    21578828.166       -6941.299        -130.170          22.000  
> 2022  1 20  8 45 28.0000000  0 21                     
G 1  24816565.400     -336504.460       -3996.834          17.000                                                                  
G 4  23037199.645      546055.720           0.002          17.000    23037202.403      292599.929        1971.280          21.000  
G 7  23013838.976     -630385.452       -3208.609          19.000                                                                  
G 8  20227411.254      -27565.658        -115.373          39.000    20227405.794       -5535.081         -87.516          30.000  
G 9  22871243.792      247498.966        1257.909          24.000    22871250.093       80263.105         940.445          22.000  
G27  20800878.777      373732.109        1926.248          32.000                                                                  
R 9  19881412.837                                          30.000  
R20  20307216.371                                          18.000  
E 9  26800453.836      326830.268        2323.494          22.000    26800460.731       26503.507        1733.295          18.000  
E24  24532601.525     -176359.596       -1238.666          33.000                                                                  
E31  24260087.215       36178.382         302.417          12.000                                                                  
J 3  37742876.959       83263.440         454.561          25.000    37742874.273       29041.926         339.339          23.000  
C 3  37111401.649      -23795.010        -126.803          25.000                                                                                                                                  
C 5  40236915.688      -12321.952        -116.375          25.000                                                                                                                                  
C 6  37055410.717      246770.064        1304.325          22.000                                                                                                                                  
C 9  36488887.425      114506.613         854.018          30.000                                                                                                                                  
C10  37354893.443      -24273.270        -178.028          33.000                                                                                                                                  
C16  37206230.593      174826.430        1358.033          20.000                                                                                                                                  
C26  21893500.459     -186114.184       -1485.016          34.000                                                                    21893496.495      -69849.006       -1118.582          28.000  
C29  23969440.217      316548.071           0.008          14.000                                                                                                                                  
C35  21578799.603      -28210.397        -169.647          33.000                                                                    21578795.604       -7443.008        -127.141          23.000  
> 2022  1 20  8 45 29.0000000  0 21                     
G 1  24815804.971     -357505.001       -3995.835          15.000                                                                  
G 4  23037702.368      559938.256           0.002          14.000    23037704.359      300335.505        1970.243          20.000  
G 7  23013225.705     -647246.197       -3208.756          20.000                                                                  
G 8  20227394.180      -28173.465        -115.188          38.000    20227391.320       -5873.137         -86.453          29.000  
G 9  22871483.401      254121.921        1259.908          24.000    22871489.615       83956.565         941.878          22.000  
G27  20801247.245      383854.218        1924.405          32.000                                                                  
R 9  19881200.765                                          28.000  
R20  20306623.919                                          19.000  
E 9  26800895.222      339039.523        2323.468          23.000    26800902.902       33309.909        1734.603          17.000  
E24  24532366.527     -182869.494       -1238.702          33.000                                                                  
E31  24260144.853       37769.051         302.821          12.000                                                                  
J 3  37742962.537       85654.819         454.621          27.000    37742961.352       30372.074         341.035          22.000  
C 3  37111377.791      -24433.888        -136.563          27.000                                                                                                                                  
C 5  40236894.678      -12906.066        -104.507          27.000                                                                                                                                  
C 6  37055661.214      253563.934        1303.065          24.000                                                                                                                                  
C 9  36489050.395      118954.915         854.600          30.000                                                                                                                                  
C10  37354860.951      -25196.276        -176.887          33.000                                                                                                                                  
C16  37206491.107      181894.731        1358.232          21.000                                                                                                                                  
C26  21893215.392     -193835.232       -1482.414          34.000                                                                    21893211.778      -74233.678       -1117.288          28.000  
C29  23969907.604      329220.679           0.008          14.000                                                                                                                                  
C35  21578767.721      -29090.011        -168.313          33.000                                                                    21578762.920       -7944.063        -127.976          23.000  
> 2022  1 20  8 45 30.0000000  0 23                     
G 1  24815044.474     -378506.419          -0.015          15.000                                                                  
G 4  23038209.157      573812.917           0.002          14.000    23038206.489      308072.191        1970.170          20.000  
G 7  23012617.695     -664106.871       -3208.170          20.000                                                                  
G 8  20227372.802      -28779.988        -115.201          38.000    20227369.436       -6209.715         -86.079          29.000  
G 9  22871724.075      260741.804        1259.656          26.000    22871729.678       87654.763         941.505          21.000  
G21  21979016.665      -12243.865       -3014.264          27.000                                                                  
G27  20801612.307      393969.244        1925.968          32.000                                                                  
R 9  19880986.686                                          30.000  
R20  20306028.289                                          19.000  
E 9  26801336.329      351249.371        2323.488          23.000    26801345.143       40118.947        1733.457          16.000  
E12  24364520.221      -41769.885       -2065.858          18.000                                                                  
E24  24532131.141     -189378.410       -1238.517          33.000                                                                  
E31  24260202.561       39362.350         303.293          11.000                                                                  
J 3  37743048.848       88045.443         455.558          27.000    37743047.820       31701.993         337.496          22.000  
C 3  37111352.295      -25136.983        -131.517          26.000                                                                                                                                  
C 5  40236874.505      -13477.147         -99.082          25.000                                                                                                                                  
C 6  37055911.032      260349.872        1301.995          23.000                                                                                                                                  
C 9  36489214.970      123406.718         854.145          30.000                                                                                                                                  
C10  37354828.039      -26123.672        -176.598          33.000                                                                                                                                  
C16  37206751.709      188962.143        1356.565          22.000                                                                                                                                  
C26  21892931.093     -201553.734       -1483.578          34.000                                                                    21892927.042      -78617.534       -1117.479          27.000  
C29  23970375.026      341894.663           0.008          13.000                                                                                                                                  
C35  21578735.491      -29959.361        -168.663          34.000                                                                    21578730.358       -8446.672        -130.666          21.000  
> 2022  1 20  8 45 31.0000000  0 22                     
G 1  24814283.768     -399511.852          -0.015          13.000                                                                  
G 4  23038711.483      587682.118           0.002          14.000    23038708.483      315809.941        1971.400          21.000  
G 7  23012005.036     -680967.813       -3208.225          19.000                                                                  
G 8  20227350.884      -29382.445        -113.809          38.000    20227347.692       -6544.207         -84.689          28.000  
G 9  22871967.610      267362.625        1262.334          27.000    22871969.740       91351.238         942.427          23.000  
G21  21978435.081      -28083.339       -3014.555          30.000                                                                  
G27  20801977.757      404086.702        1928.188          32.000                                                                  
R 9  19880774.631                                          30.000  
R20  20305433.516                                          17.000  
E 9  26801777.592      363461.389        2324.013          23.000    26801788.291       46923.867        1736.277          17.000  
E24  24531894.272     -195886.320       -1238.336          33.000                                                                  
E31  24260260.269       40955.269         302.932          10.000                                                                  
J 3  37743134.862       90433.517         453.671          26.000    37743134.445       33033.756         338.988          22.000  
C 3  37111322.940      -25915.728        -145.828          26.000                                                                                                                                  
C 5  40236855.502      -14042.811        -118.565          25.000                                                                                                                                  
C 6  37056160.832      267131.790        1302.288          23.000                                                                                                                                  
C 9  36489378.356      127851.203         852.965          31.000                                                                                                                                  
C10  37354794.731      -27046.055        -177.018          32.000                                                                                                                                  
C16  37207012.746      196033.427        1357.806          22.000                                                                                                                                  
C26  21892646.585     -209270.029       -1480.948          34.000                                                                    21892642.412      -82999.946       -1116.828          27.000  
C29  23970843.948      354564.796           0.008          11.000                                                                                                                                  
C35  21578702.998      -30837.874        -168.215          32.000                                                                    21578697.272       -8944.746        -126.501          22.000  
> 2022  1 20  8 45 32.0000000  0 22                     
G 1  24813523.026     -420519.544          -0.015          15.000                                                                  
G 4  23039213.613      601547.366           0.002          12.000    23039211.154      323549.331        1971.921          21.000  
G 7  23011388.903     -697840.443       -3210.553          17.000                                                                  
G 8  20227327.360      -29977.537        -113.827          38.000    20227326.052       -6876.920         -84.688          29.000  
G 9  22872209.749      274001.691        1263.948          28.000    22872210.135       95048.964         942.957          22.000  
G21  21977859.415      -43917.053       -3010.542          31.000                                                                  
G27  20802345.298      414207.926        1928.362          32.000                                                                  
R 9  19880560.693                                          30.000  
R20  20304839.929                                          16.000  
E 9  26802219.414      375673.735        2324.066          24.000    26802232.730       53739.114        1735.637          17.000  
E24  24531659.147     -202392.856       -1237.995          33.000                                                                  
E31  24260317.942       42547.631         303.011          10.000                                                                  
J 3  37743221.976       92821.089         453.448          25.000    37743221.175       34365.743         338.618          22.000  
C 3  37111289.591      -26763.631        -165.893          26.000                                                                                                                                  
C 5  40236833.253      -14664.702        -112.446          26.000                                                                                                                                  
C 6  37056410.352      273918.376        1302.885          23.000                                                                                                                                  
C 9  36489542.338      132302.188         852.732          30.000                                                                                                                                  
C10  37354761.698      -27971.907        -176.733          33.000                                                                                                                                  
C16  37207273.540      203105.866        1357.076          20.000                                                                                                                                  
C26  21892362.443     -216984.758       -1481.889          35.000                                                                    21892357.869      -87381.273       -1117.296          26.000  
C29  23971311.038      367230.865           0.008          12.000                                                                                                                                  
C35  21578670.593      -31708.675        -166.053          32.000                                                                    21578665.076       -9439.844        -125.953          21.000  
> 2022  1 20  8 45 33.0000000  0 22                     
G 1  24812762.144     -441532.589          -0.015          14.000                                                                  
G 4  23039708.763      615409.049           0.002          14.000    23039713.773      331289.843        1972.968          22.000  
G 7  23010778.303     -714704.176       -3207.341          17.000                                                                  
G 8  20227308.792      -30574.085        -113.145          38.000    20227304.448       -7207.557         -84.371          30.000  
G 9  22872451.888      280640.069        1263.871          26.000    22872450.407       98748.341         942.298          21.000  
G21  21977284.553      -59744.926       -3013.931          30.000                                                                  
G27  20802714.341      424336.839        1925.862          33.000                                                                  
R 9  19880350.313                                          30.000  
R20  20304246.674                                          16.000  
E 9  26802661.236      387887.433        2324.388          24.000    26802672.197       60552.776        1736.308          18.000  
E24  24531422.906     -208898.658       -1237.980          33.000                                                                  
E31  24260375.702       44141.822         303.864          10.000                                                                  
J 3  37743308.025       95209.864         455.574          25.000    37743307.503       35698.305         338.023          22.000  
C 3  37111256.451      -27634.906        -172.707          26.000                                                                                                                                  
C 5  40236816.414      -15200.290        -105.907          26.000                                                                                                                                  
C 6  37029233.030      280697.750        1302.415          23.000                                                                                                                                  
C 9  36489707.156      136751.346         854.343          31.000                                                                                                                                  
C10  37354735.445      -28895.336        -177.713          33.000                                                                                                                                  
C16  37207533.862      210175.819        1360.498          20.000                                                                                                                                  
C26  22129192.785     -224694.921       -1480.619          33.000                                                                    22129188.071      -91760.914       -1116.518          27.000  
C29  23971778.754      379912.141           0.008          14.000                                                                                                                                  
C35  21609020.483      -32576.338        -166.262          32.000                                                                    21609015.489       -9928.931        -125.662          24.000  
> 2022  1 20  8 45 34.0000000  0 22                     
G 1  24812001.210     -462546.518          -0.015          14.000                                                                  
G 4  23040210.631      629265.929           0.002          15.000    23040216.444      339030.150        1971.380          22.000  
G 7  23010167.762     -731566.593       -3208.093          16.000                                                                  
G 8  20227284.657      -31163.623        -111.751          38.000    20227283.245       -7536.005         -83.926          29.000  
G 9  22872692.230      287285.386        1266.551          28.000    22872691.237      102450.985         943.470          22.000  
G21  21976710.088      -75580.350       -3010.708          31.000                                                                  
G27  20803082.913      434462.676        1926.824          33.000                                                                  
R 9  19880137.072                                          29.000  
R20  20303653.471                                          16.000  
E 9  26803103.879      400102.637        2324.625          24.000    26803115.642       67362.618        1734.546          17.000  
E24  24531187.817     -215403.274       -1237.760          33.000                                                                  
E31  24260433.497       45737.233         303.104          11.000                                                                  
J 3  37743396.343       97600.662         455.429          25.000    37743394.320       37031.751         339.541          22.000  
C 3  37111224.703      -28471.855        -158.937          27.000                                                                                                                                  
C 5  40236795.035      -15777.451        -119.815          25.000                                                                                                                                  
C 6  37029483.074      287481.503        1303.852          24.000                                                                                                                                  
C 9  36489871.434      141207.916         855.132          31.000                                                                                                                                  
C10  37354701.679      -29819.170        -177.283          32.000                                                                                                                                  
C16  37207795.423      217258.765        1359.678          20.000                                                                                                                                  
C26  22128908.172     -232405.020       -1479.828          33.000                                                                    22128903.737      -96139.638       -1116.546          27.000  
C29  23972246.595      392596.164           0.008          14.000                                                                                                                                  
C35  21608988.714      -33441.212        -166.968          33.000                                                                    21608983.703      -10420.214        -124.798          23.000  
> 2022  1 20  8 45 35.0000000  0 21                     
G 1  24811240.415     -483557.120          -0.015          13.000                                                                  
G 4                                                                  23098902.730      346772.820        1974.029          22.000  
G 7  23009543.463     -748417.977       -3206.022          17.000                                                                  
G 8  20227265.583      -31748.755        -111.748          37.000    20227261.920       -7862.963         -83.409          30.000  
G 9  22872932.345      293939.072        1264.883          25.000    22872931.527      106158.465         944.405          21.000  
G21  21976136.011      -91398.764       -3011.022          31.000                                                                  
G27  20803448.446      444587.054        1926.899          34.000    20803446.301        3538.230        1440.162          23.000  
R 9  19879926.064                                          28.000  
R20  20303060.775                                          17.000  
E 9  26803546.067      412317.688        2324.641          24.000    26803557.952       74172.213        1736.185          17.000  
E24  24530953.080     -221907.296       -1237.470          32.000                                                                  
E31  24260491.205       47330.293         303.082          10.000                                                                  
J 3  37743484.905       99989.414         456.374          27.000    37743480.980       38365.843         339.454          22.000  
C 3  37111193.989      -29292.566        -156.987          27.000                                                                                                                                  
C 5  40236772.926      -16443.954        -127.844          27.000                                                                                                                                  
C 6  37029733.243      294275.286        1304.315          25.000                                                                                                                                  
C 9  36490035.520      145666.166         857.822          31.000                                                                                                                                  
C10  37354667.794      -30743.023        -177.737          32.000                                                                                                                                  
C26  22128624.100     -240116.456       -1480.361          34.000                                                                    22128619.490     -100516.796       -1114.876          27.000  
C29  23972714.557      405283.874           0.008          14.000                                                                                                                                  
C35  21608956.348      -34302.302        -163.326          33.000                                                                    21608951.982      -10908.924        -124.619          24.000  
> 2022  1 20  8 45 36.0000000  0 22                     
G 1  24810479.795     -504563.264          -0.015          14.000                                                                  
G 4                                                                  23099405.889      354515.518        1973.671          22.000  
G 7  23008925.132     -765272.545       -3210.145          16.000                                                                  
G 8  20227244.328      -32331.556        -111.686          37.000    20227240.822       -8188.106         -82.893          30.000  
G 9  22873174.135      300577.543        1263.722          22.000    22873172.305      109863.526         945.281          21.000  
G21  21975561.672     -107222.179       -3009.461          32.000                                                                  
G27  20803815.081      454716.292        1925.800          33.000    20803810.563        9188.760        1439.822          23.000  
R 9  19879712.509                                          32.000  
R20  20302468.218                                          17.000  
E 9  26803988.744      424534.079        2324.531          25.000    26803998.413       80984.247        1735.884          19.000  
E24  24933973.925     -228410.487       -1237.554          32.000                                                                  
E31  24260553.450       48924.698         303.590          11.000                                                                  
J 3  37743572.298      102381.318         455.417          26.000    37743567.641       39699.162         339.029          23.000  
C 3  37111162.889      -30125.854        -165.323          26.000                                                                                                                                  
C 5  40236752.021      -17027.835        -109.046          26.000                                                                                                                                  
C 6  37029984.561      301065.554        1303.664          25.000                                                                                                                                  
C 9  36490200.652      150133.829         859.169          30.000                                                                                                                                  
C10  37354633.662      -31662.689        -175.519          33.000                                                                                                                                  
C16  37208322.211        8880.679        1360.344          19.000                                                                                                                                  
C26  22128339.958     -247821.189       -1479.312          34.000                                                                    22128335.279     -104893.425       -1114.704          28.000  
C29  23973182.048      417959.784           0.008          13.000                                                                                                                                  
C35  21608924.891      -35159.099        -165.608          32.000                                                                    21608920.351      -11397.247        -125.450          25.000  
> 2022  1 20  8 45 37.0000000  0 23                     
G 1  24809719.578     -525557.868          -0.015          15.000                                                                  
G 4                                                                  23099908.700      362258.599        1973.250          21.000  
G 7  23008314.741     -782129.670       -3207.399          15.000                                                                  
G 8  20227222.880      -32914.932        -109.361          37.000    20227219.845       -8511.935         -82.023          28.000  
G 9  22873413.107      307215.420        1263.280          23.000    22873412.811      113570.194         945.779          21.000  
G21  21974988.127     -123039.084       -3010.796          31.000                                                                  
G27  20804180.964      464851.873        1929.836          33.000    20804177.475       14839.362        1436.459          22.000  
R 9  19879497.610                                          28.000  
R20  20301870.666                                          17.000  
E 9  26804431.195      436751.437        2324.743          23.000    26804439.188       87799.745        1737.288          18.000  
E12  24361465.368      -12677.311       -2066.170          18.000                                                                  
E24  24933738.190     -234913.238       -1237.248          33.000                                                                  
E31  24260611.228       50519.787         303.572          10.000                                                                  
J 3  37743658.068      104771.711         454.719          26.000    37743654.440       41034.428         340.426          23.000  
C 3  37111128.807      -31039.502        -169.648          27.000                                                                                                                                  
C 5  40236732.860      -17588.230        -117.867          25.000                                                                                                                                  
C 6  37030235.863      307868.213        1308.748          25.000                                                                                                                                  
C 9  36490365.261      154599.824         858.377          32.000                                                                                                                                  
C10  37354598.884      -32588.452        -177.611          32.000                                                                                                                                  
C16  37208579.846       15969.241        1364.679          17.000                                                                                                                                  
C26  22128055.694     -255522.305       -1476.435          36.000                                                                    22128051.172     -109269.134       -1114.389          26.000  
C29  23973649.575      430635.513           0.008          15.000                                                                                                                                  
C35  21608892.804      -36011.741        -164.456          32.000                                                                    21608889.171      -11878.436        -122.619          22.000  
> 2022  1 20  8 45 38.0000000  0 23                     
G 1  24808949.675     -546565.321          -0.015          14.000                                                                  
G 4                                                                  23100411.144      370004.386        1973.849          22.000  
G 7  23007704.375     -798986.453       -3206.382          15.000                                                                  
G 8  20227202.532      -33490.221        -108.138          37.000    20227198.991       -8833.454         -82.786          29.000  
G 9  22873652.611      313858.597        1265.690          21.000    22873653.677      117278.827         944.863          21.000  
G21  21974414.294     -138861.512       -3009.693          31.000                                                                  
G27  20804548.857      474985.732        1928.561          34.000    20804544.845       20494.290        1441.720          22.000  
R 9  19879287.371                                          28.000  
R20  20301277.969                                          16.000  
E 9  26804873.924      448969.836        2324.936          24.000    26804886.856       94616.155        1737.673          17.000  
E12  24361069.283      -23527.831       -2063.542          18.000                                                                  
E24  24933502.263     -241415.469       -1237.185          33.000                                                                  
E31  24260669.023       52115.496         303.750          10.000                                                                  
J 3  37743744.833      107167.717         455.394          26.000    37743741.362       42369.086         339.311          22.000  
C 3  37111098.684      -31863.923        -155.882          26.000                                                                                                                                  
C 5  40236710.576      -18232.001        -141.738          26.000                                                                                                                                  
C 6  37030487.428      314678.599        1307.483          25.000                                                                                                                                  
C 9  36490530.482      159070.854         855.608          32.000                                                                                                                                  
C10  37354564.105      -33504.218        -178.774          32.000                                                                                                                                  
C16  37208840.674       23056.698        1358.659          18.000                                                                                                                                  
C26  22127771.622     -263225.565       -1477.791          34.000                                                                    22127767.152     -113643.175       -1114.858          29.000  
C29  23974117.136      443312.698           0.008          14.000                                                                                                                                  
C35  21608861.399      -36863.504        -162.729          33.000                                                                    21608857.767      -12363.027        -124.682          24.000  
> 2022  1 20  8 45 39.0000000  0 22                     
G 1  24808188.636     -567580.918          -0.015          13.000                                                                  
G 4                                                                  23100913.990      377749.159        1973.497          21.000  
G 7  23007096.706     -815831.841       -3205.527          14.000                                                                  
G 8  20227177.664      -34061.578        -108.907          36.000    20227178.119       -9153.797         -81.687          29.000  
G 9  22873891.818      320511.369        1266.473          21.000    22873894.193      120988.073         945.126          21.000  
G21  21973839.659     -154681.066       -3010.892          33.000                                                                  
G27  20804915.473      485123.922        1929.304          34.000    20804912.019       26148.006        1441.422          21.000  
R 9  19879075.734                                          28.000  
R20  20300684.592                                          17.000  
E 9  26805316.514      461187.472        2324.808          23.000    26805329.394      101429.347        1735.703          17.000  
E24  24933265.150     -247917.802       -1237.250          33.000                                                                  
E31  24260726.888       53713.485         304.505          10.000                                                                  
J 3  37743831.458      109565.248         457.001          27.000    37743828.162       43703.741         340.481          22.000  
C 3  37111072.158      -32606.420        -150.608          27.000                                                                                                                                  
C 5  40236686.284      -18922.667        -122.315          25.000                                                                                                                                  
C 6  37030738.903      321482.751        1307.032          26.000                                                                                                                                  
C 9  36490694.810      163532.588         857.518          31.000                                                                                                                                  
C10  37354529.432      -34429.047        -177.127          31.000                                                                                                                                  
C16  37209104.242       30135.315        1361.156          19.000                                                                                                                                  
C26  22127486.677     -270926.426       -1478.584          33.000                                                                    22127483.150     -118016.959       -1113.911          26.000  
C29  23974585.622      455991.404           0.008          14.000                                                                                                                                  
C35  21608829.907      -37716.295        -162.941          32.000                                                                    21608826.484      -12845.164        -122.417          23.000  
> 2022  1 20  8 45 40.0000000  0 22                     
G 1  24807428.173     -588582.769          -0.015          15.000                                                                  
G 4  23043578.576       16205.487        2642.032          20.000    23043234.093      385495.051        1973.434          21.000  
G 7  23006487.013     -832670.665       -3203.428          15.000                                                                  
G 8  20227161.488      -34631.653        -107.115          37.000    20227157.545       -9471.717         -80.565          29.000  
G 9  22874132.527      327162.560        1266.425          25.000    22874134.866      124697.892         944.256          22.000  
G21  21973265.351     -170494.713       -3009.212          32.000                                                                  
G27  20805284.568      495267.889        1930.474          34.000    20805279.108       31799.960        1437.859          20.000  
R 9  19878862.302                                          27.000  
R20  20300089.470                                          18.000  
E 9  26805759.226      473406.402        2325.010          23.000    26805769.610      108238.795        1735.175          17.000  
E24  24933029.520     -254419.081       -1237.099          33.000                                                                  
E31  24260784.857       55313.930         304.526          11.000                                                                  
J 3  37743917.176      111964.234         458.195          25.000    37743914.001       45038.877         339.141          23.000  
C 3  37111040.517      -33450.756        -154.426          27.000                                                                                                                                  
C 5  40236666.949      -19502.680        -114.470          26.000                                                                                                                                  
C 6  37030989.979      328282.690        1305.183          24.000                                                                                                                                  
C 9  36490859.228      167999.885         858.099          32.000                                                                                                                                  
C10  37354494.985      -35345.931        -173.809          32.000                                                                                                                                  
C16  37209370.637       37220.799        1361.084          20.000                                                                                                                                  
C26  22127202.535     -278625.607       -1478.017          33.000                                                                    22127199.252     -122389.414       -1114.145          28.000  
C29  23975053.602      468680.480           0.008          13.000                                                                                                                                  
C35  21608799.321      -38568.668        -164.019          33.000                                                                    21608795.270      -13325.342        -122.996          23.000  
> 2022  1 20  8 45 41.0000000  0 24                     
G 1  24806667.256     -609595.917          -0.015          13.000                                                                  
G 4  23044083.777       30095.026        2644.730          20.000    23043737.270      393243.041        1974.910          22.000  
G 7  23005875.854     -849503.058           0.011          16.000                                                                  
G 8  20227137.824      -35196.601        -106.801          37.000    20227136.953       -9788.680         -80.567          29.000  
G 9  22874374.858      333821.271        1267.341          24.000    22874375.854      128409.649         947.042          22.000  
G21  21972691.622     -186306.263       -3009.555          31.000                                                                  
G27  20805649.615      505406.999        1929.855          34.000    20805645.812       37447.643        1437.722          20.000  
R 9  19878649.654                                          27.000  
R20  20299496.983                                          17.000  
E 9  26806201.938      485626.247        2325.250          23.000    26806213.893      115051.440        1735.063          17.000  
E12  24359893.383      -23472.503       -2056.731          18.000                                                                  
E24  24932794.465     -260919.469       -1236.830          33.000                                                                  
E31  24260842.844       56914.864         304.878          11.000                                                                  
J 3  37744003.225      114362.584         456.371          25.000    37744001.045       46379.827         341.166          23.000  
C 3  37111009.976      -34292.035        -159.247          27.000                                                                                                                                  
C 5  40236642.990      -20154.454        -125.334          25.000                                                                                                                                  
C 6  37031240.793      335082.727        1305.942          26.000                                                                                                                                  
C 9  36491023.766      172468.992         859.343          32.000                                                                                                                                  
C10  37354459.648      -36265.571        -175.165          31.000                                                                                                                                  
C16  37209632.321       44314.929        1363.122          18.000                                                                                                                                  
C24  25347042.449      -80597.570       -2837.763          14.000                                                                                                                                  
C26  22126919.111     -286322.761       -1477.546          33.000                                                                    22126915.321     -126761.069       -1113.567          27.000  
C29  23975521.861      481377.873           0.008          13.000                                                                                                                                  
C35  21608768.996      -39405.413        -161.081          33.000                                                                    21608764.212      -13804.275        -121.950          22.000  
> 2022  1 20  8 45 42.0000000  0 23                     
G 1  24805905.990     -630618.149          -0.015          13.000                                                                  
G 4  23044599.400       43981.044        2641.182          16.000    23044240.102      400991.482        1974.592          22.000  
G 7  23005266.431     -866333.380           0.011          15.000                                                                  
G 8  20227119.396      -35760.595        -106.901          37.000    20227116.570      -10102.476         -79.927          29.000  
G 9  22874616.718      340482.237        1267.397          24.000    22874617.190      132124.425         946.133          22.000  
G21  21972117.039     -202114.386       -3007.500          32.000                                                                  
G27  20806017.367      515553.339        1930.978          34.000    20806013.547       43108.885        1442.306          21.000  
R 9  19878438.821                                          26.000  
R20  20298908.334                                          17.000  
E 9  26806644.510      497848.371        2325.899          23.000    26806652.591      121859.653        1736.421          17.000  
E24  24932558.556     -267418.154       -1236.543          33.000                                                                  
E31  24260900.919       58518.457         305.373          11.000                                                                  
J 3  37744090.531      116759.274         455.744          26.000    37744087.932       47715.687         339.166          23.000  
C 3  37110979.454      -35129.230        -145.197          27.000                                                                                                                                  
C 5  40236619.153      -20829.059        -135.597          24.000                                                                                                                                  
C 6  37031491.710      341879.120        1305.557          25.000                                                                                                                                  
C 9  36491188.655      176938.886         858.584          32.000                                                                                                                                  
C10  37354424.818      -37183.706        -176.074          31.000                                                                                                                                  
C16  37209893.568       51407.236        1361.360          18.000                                                                                                                                  
C24  25346496.868      -95392.335       -2840.354          15.000                                                                                                                                  
C26  22126635.510     -294015.480       -1477.131          33.000                                                                    22126631.581     -131130.504       -1113.026          27.000  
C29  23975990.434      494082.869           0.008          15.000                                                                                                                                  
C35  21608737.733      -40243.440        -160.506          33.000                                                                    21608733.246      -14281.053        -121.740          22.000  
> 2022  1 20  8 45 43.0000000  0 24                     
G 1  24805144.796     -651639.096          -0.015          13.000                                                                  
G 4  23045102.104       57861.809        2642.705          15.000    23044743.521      408741.231        1973.917          21.000  
G 7  23004657.121     -883161.616           0.011          13.000                                                                  
G 8  20227098.245      -36319.529        -105.968          37.000    20227096.292      -10414.361         -79.651          29.000  
G 9  22874859.049      347143.361        1268.560          23.000    22874858.771      135842.760         947.028          22.000  
G21  21971544.598     -217920.003       -3007.167          32.000                                                                  
G27  20806387.280      525705.427        1932.111          34.000    20806381.105       48769.141        1439.905          20.000  
R 9  19878226.296                                          27.000  
R20  20298316.214                                          17.000  
E 9  26807087.851      510072.289        2326.382          23.000    26807095.478      128677.731        1736.152          18.000  
E12  24359113.306      -20572.314       -2054.914          19.000                                                                  
E24  24932323.833     -273914.808       -1235.988          33.000                                                                  
E31  24260959.045       60122.872         304.977           9.000                                                                  
J 3  37744176.964      119155.023         456.190          25.000    37744174.819       49055.282         341.222          23.000  
C 3  37110951.215      -35903.412        -148.629          27.000                                                                                                                                  
C 5  40236597.637      -21480.430        -119.843          25.000                                                                                                                                  
C 6  37031742.594      348683.607        1307.053          25.000                                                                                                                                  
C 9  36491353.405      181411.608         858.976          31.000                                                                                                                                  
C10  37354389.638      -38101.964        -176.070          32.000                                                                                                                                  
C16  37210153.943       58488.490        1359.745          19.000                                                                                                                                  
C24  25345951.706     -110175.636       -2839.610          17.000                                                                                                                                  
C26  22126351.630     -301706.364       -1476.264          33.000                                                                    22126347.945     -135498.558       -1112.848          27.000  
C29  23976459.409      506798.712           0.008          16.000                                                                                                                                  
C35  21608706.606      -41077.741        -159.572          33.000                                                                    21608702.572      -14753.866        -119.003          23.000  
> 2022  1 20  8 45 44.0000000  0 24                     
G 1  24804384.141     -672646.004          -0.015          13.000                                                                  
G 4  23045605.114       71752.732           0.002          17.000    23045246.880      416493.403        1974.715          21.000  
G 7  23004053.222     -899994.928           0.011          15.000                                                                  
G 8  20227080.340      -36871.258        -105.368          37.000    20227076.206      -10723.380         -78.257          27.000  
G 9  22875102.043      353808.485        1268.933          22.000    22875100.317      139564.402         950.922          20.000  
G21  21970971.498     -233721.531       -3006.499          33.000                                                                  
G27  20806753.656      535864.245        1932.911          33.000    20806748.945       54434.529        1443.465          21.000  
R 9  19878014.677                                          28.000  
R20  20297722.503                                          17.000  
E 9  26807531.697      522297.819        2326.727          23.000    26807540.493      135486.877        1734.586          17.000  
E12  24358721.461      -31381.775       -2056.811          18.000                                                                  
E24  24932089.633     -280409.386       -1235.604          34.000                                                                  
E31  24408217.118       61726.217         305.300           8.000                                                                  
J 3  37744262.856      121555.724         455.740          26.000    37744261.462       50394.336         341.038          22.000  
C 3  37110920.658      -36756.895        -173.859          27.000                                                                                                                                  
C 5  40236575.663      -22072.812        -124.622          26.000                                                                                                                                  
C 6  37031993.460      355488.379        1306.965          24.000                                                                                                                                  
C 9  36491518.292      185887.133         860.376          32.000                                                                                                                                  
C10  37354354.741      -39017.772        -176.312          31.000                                                                                                                                  
C16  37210414.876       65568.391        1359.569          16.000                                                                                                                                  
C24  25345407.591     -124964.150       -2839.420          15.000                                                                                                                                  
C26  22126068.325     -309394.291       -1476.064          34.000                                                                    22126064.449     -139864.761       -1112.365          27.000  
C29  23976928.785      519525.517        2444.121          15.000                                                                                                                                  
C35  21608675.200      -41907.326        -159.106          33.000                                                                    21608671.847      -15225.755        -120.382          22.000  
> 2022  1 20  8 45 45.0000000  0 24                     
G 1  24803623.643     -693647.550          -0.015          15.000                                                                  
G 4  23046108.099       85641.940           0.002          17.000    23045749.639      424246.127        1976.048          20.000  
G 7  23003443.563     -916831.974           0.011          15.000                                                                  
G 8  20227059.643      -37422.658        -104.901          38.000    20227056.190      -11030.857         -78.738          28.000  
G 9  22875343.642      360476.298        1269.284          23.000    22875341.898      143285.459         949.554          19.000  
G21  21970399.598     -249521.027       -3005.832          33.000                                                                  
G27  20807121.702      546022.995        1933.778          33.000    20807116.957       60098.245        1443.830          20.000  
R 9  19877802.798                                          26.000  
R20  20297130.330                                          17.000  
E 9  26807975.927      534524.802        2326.898          22.000    26807983.240      142299.463        1736.767          17.000  
E12  24358325.722      -42183.101       -2055.438          18.000                                                                  
E24  24931854.753     -286903.283       -1235.681          33.000                                                                  
E31  24261072.925       63329.474         304.977          10.000                                                                  
J 3  37744349.918      123953.981         457.665          25.000    37744348.506       51733.661         340.479          22.000  
C 3  37110888.703      -37640.113        -152.951          25.000                                                                                                                                  
C 5  40236555.316      -22670.275        -107.153          26.000                                                                                                                                  
C 6  37032244.028      362292.488        1306.003          23.000                                                                                                                                  
C 9  36491683.809      190366.911         860.243          31.000                                                                                                                                  
C10  37354319.928      -39933.955        -176.313          32.000                                                                                                                                  
C16  37210676.472       72659.029        1363.431          15.000                                                                                                                                  
C24  25344862.760     -139738.306       -2838.681          15.000                                                                                                                                  
C26  22125785.178     -317079.954       -1475.463          34.000                                                                    22125781.214     -144229.509       -1112.609          26.000  
C29  23977398.331      532255.581        2443.957          15.000                                                                                                                                  
C35  21608644.233      -42731.208        -157.079          31.000                                                                    21608641.055      -15694.443        -118.764          22.000  
> 2022  1 20  8 45 46.0000000  0 24                     
G 1  24802863.269     -714646.235          -0.015          17.000                                                                  
G 4  23046611.346       99537.893           0.002          17.000    23046252.833      431998.449        1974.787          21.000  
G 7  23002843.004     -933672.107       -3203.552          17.000                                                                  
G 8  20227040.517      -37970.560        -103.501          33.000    20227036.487      -11335.680         -75.560          25.000  
G 9  22875586.392      367151.604        1270.688          25.000    22875583.671      147007.188         946.940          21.000  
G21  21969828.714     -265319.741       -3005.897          33.000                                                                  
G27  20807490.047      556180.299        1933.720          25.000    20807485.407       65768.070        1448.872          20.000  
R 9  19877592.820                                          23.000  
R20  20296541.210                                          17.000  
E 9  26808418.988      546749.051        2325.836          23.000    26808425.656      149112.289        1734.472          18.000  
E12  24357931.225      -53005.742       -2060.073          16.000                                                                  
E24  24931620.694     -293397.231       -1235.459          28.000                                                                  
E31  24261130.982       64932.309         305.575          11.000                                                                  
J 3  37744436.996      126366.675         459.732          24.000    37744435.759       53075.856         343.314          20.000  
C 3  37110860.483      -38424.514        -151.165          24.000                                                                                                                                  
C 5  40236539.000      -23165.212         -87.647          27.000                                                                                                                                  
C 6  37032495.034      369095.090        1306.264          25.000                                                                                                                                  
C 9  36491848.366      194840.993         861.660          29.000                                                                                                                                  
C10  37354286.057      -40850.748        -176.614          27.000                                                                                                                                  
C16  37210939.290       79758.014        1361.944          25.000                                                                                                                                  
C24  25344321.053     -154514.356       -2838.643          14.000                                                                                                                                  
C26  22125502.205     -324763.625       -1473.668          29.000                                                                    22125497.997     -148593.288       -1111.309          25.000  
C29  23977867.568      544978.865           0.008          14.000                                                                                                                                  
C35  21608613.193      -43553.827        -157.212          31.000                                                                    21608610.591      -16162.828        -117.941          22.000  
> 2022  1 20  8 45 47.0000000  0 24                     
G 1  24802102.614     -735651.617          -0.015          14.000                                                                  
G 4  23047112.464      113440.761        2644.382          20.000    23046756.586      439754.211        1977.259          18.000  
G 7  23002233.521     -950503.610       -3200.571          17.000                                                                  
G 8  20227020.466      -38516.908        -102.560          30.000    20227016.786      -11641.686         -77.987          24.000  
G 9  22875827.344      373829.638        1271.594          25.000    22875825.636      150731.962         949.206          22.000  
G21  21969254.916     -281118.199       -3003.960          33.000                                                                  
G27  20807859.908      566342.575        1933.319          30.000    20807854.553       71450.220        1448.751          17.000  
R 9  19877382.179                                          24.000  
R20  20295949.090                                          13.000  
E 9  26808862.590      558975.639        2327.121          22.000    26808870.148      155925.535        1736.876          17.000  
E12  24357544.022      -63820.438       -2057.048          20.000                                                                  
E24  24931384.330     -299892.488       -1235.830          27.000                                                                  
E31  24261189.161       66538.803         305.640          11.000                                                                  
J 3  37744524.128      128764.384         454.983          21.000    37744523.326       54417.801         342.295          17.000  
C 3  37110832.997      -39151.344        -137.109          22.000                                                                                                                                  
C 5  40236522.213      -23699.906        -104.776          27.000                                                                                                                                  
C 6  37032746.003      375896.993        1306.880          21.000                                                                                                                                  
C 9  36492014.440      199325.443         860.946          29.000                                                                                                                                  
C10  37354253.600      -41765.832        -175.604          27.000                                                                                                                                  
C16  37211201.287       86859.205        1363.605          18.000                                                                                                                                  
C24  25343776.013     -169294.810       -2839.127          14.000                                                                                                                                  
C26  22125218.692     -332449.850       -1476.867          21.000                                                                    22125214.239     -152957.699       -1111.647          23.000  
C29  23978337.014      557706.711           0.008          13.000                                                                                                                                  
C35  21608582.993      -44379.220        -158.599          33.000                                                                    21608580.181      -16629.033        -118.383          20.000  
> 2022  1 20  8 45 48.0000000  0 22                     
G 4  23047608.714      127339.759        2644.730          20.000    23047260.513      447510.852        1976.201          24.000  
G 7  23001633.722     -967325.037       -3202.021          18.000                                                                  
G 8  20227000.712      -39057.456        -102.116          32.000    20226997.014      -11945.936         -77.778          24.000  
G 9  22876069.797      380506.930        1271.514          29.000    22876068.002      154458.087         948.299          21.000  
G21  21968683.453     -296907.807          -0.008          25.000                                                                  
G27  20808228.430      576508.438        1934.752          26.000    20808224.069       77137.982        1448.569          17.000  
R 9  19877170.037                                          25.000  
R20  20295356.061                                          19.000  
E 9  26809304.779      571202.263        2325.498          21.000    26809311.167      162737.717        1736.108          18.000  
E12  24357157.447      -74632.654       -2056.706          24.000                                                                  
E24  24931149.712     -306386.447       -1235.538          23.000                                                                  
E31  24261247.270       68143.366         305.079          11.000                                                                  
J 3  37744610.491      131160.103         456.372          30.000    37744610.510       55758.151         340.973          22.000  
C 5  40236501.203      -24306.570        -110.815          27.000                                                                                                                                  
C 6  37032997.690      382696.812        1307.901          31.000                                                                                                                                  
C 9  36492180.376      203803.388         860.317          34.000                                                                                                                                  
C10  37354220.078      -42668.548        -173.941          23.000                                                                                                                                  
C16  37211463.704       93956.283        1362.452          29.000                                                                                                                                  
C24  25343230.798     -184078.795       -2839.822          13.000                                                                                                                                  
C26  22124935.858     -340133.943       -1474.593          21.000                                                                    22124930.848     -157319.970       -1110.623          20.000  
C29  23978806.564      570438.318           0.008          14.000                                                                                                                                  
C35  21608553.244      -45202.280        -157.469          30.000                                                                    21608549.472      -17096.324        -119.778          23.000  
> 2022  1 20  8 45 49.0000000  0 24                     
G 4  23048102.694      141246.223        2646.755          23.000    23047764.615      455267.535        1976.580          26.000  
G 7  23001024.500     -984149.688       -3201.450          17.000                                                                  
G 8  20226982.858      -39604.977        -104.934          30.000    20226977.154      -12255.287         -78.121          18.000  
G 9  22876311.518      387189.800        1271.549          27.000    22876310.036      158182.678         948.243          18.000  
G21  21967769.393     -312694.267       -3003.158          28.000                                                                  
G27  20808596.302      586678.701        1935.304          27.000    20808586.933       82818.215        1446.553          19.000  
R 9  19876956.674                                          30.000  
R20  20294762.649                                          24.000  
E 9  26809745.973      583420.514        2325.290          23.000    26809756.130      169552.574        1737.215          17.000  
E12  24356763.195      -85429.000       -2054.077          27.000                                                                  
E24  24527660.325     -312878.871       -1235.079          29.000                                                                  
E31  24261305.415       69748.506         305.761          10.000                                                                  
J 3  37744698.634      133559.245         455.441          28.000    37744700.416       57102.210         341.712          27.000  
C 2  38232110.760       -1063.250        -116.358          27.000                                                                                                                                  
C 3  37110778.250      -40600.075        -147.931          31.000                                                                                                                                  
C 5  40236482.531      -24844.613         -99.371          24.000                                                                                                                                  
C 6  37033250.493      389511.496        1310.272          34.000                                                                                                                                  
C 9  36492346.258      208288.675         861.845          32.000                                                                                                                                  
C10  37354186.068      -43572.663        -174.364          23.000                                                                                                                                  
C16  37211726.853      101060.309        1363.967          33.000                                                                                                                                  
C24  25342684.659     -198872.152           0.002          16.000                                                                                                                                  
C26  22124652.729     -347809.563       -1473.337          24.000                                                                    22124647.473     -161685.001       -1114.260          18.000  
C29  23979276.359      583175.697           0.008          16.000                                                                                                                                  
C35  21608523.270      -46022.013        -158.137          19.000                                                                    21608520.179      -17556.872        -118.383          21.000  
> 2022  1 20  8 45 50.0000000  0 24                     
G 4                                                                  23106451.502      463025.328        1976.688          27.000  
G 7  23000428.959    -1000978.275       -3201.513          20.000                                                                  
G 8  20226961.795      -40139.725         -98.202          28.000    20226957.451      -12559.564         -76.656          18.000  
G 9  22876553.971      393879.712        1273.425          28.000    22876550.989      161899.359         946.193          17.000  
G21  21967199.207     -328480.415       -3002.897          27.000                                                                  
G27  20808964.959      596853.065        1935.271          31.000    20808957.178       88490.461        1446.380          20.000  
R 9  19876747.132                                          31.000  
R20  20294169.567                                          22.000  
E 9  26810187.446      595651.811        2328.180          25.000    26810197.010      176368.341        1736.673          18.000  
E12  24356373.933      -96222.065       -2053.600          27.000                                                                  
E24  24527426.544     -319369.086       -1234.893          27.000                                                                  
E31  24408563.662       71356.570         305.658           8.000                                                                  
J 3  37744784.457      135963.954         458.297          29.000    37744787.809       58444.771         342.310          25.000  
C 2  38232086.384       -1655.758        -122.910          28.000                                                                                                                                  
C 3  37110749.139      -41382.224        -147.803          31.000                                                                                                                                  
C 5  40236464.661      -25350.658         -90.961          26.000                                                                                                                                  
C 6  37033502.980      396329.803        1309.889          33.000                                                                                                                                  
C 9  36492511.321      212774.576         860.175          33.000                                                                                                                                  
C10  37354152.232      -44478.562        -174.112          22.000                                                                                                                                  
C16  37211990.473      108161.594        1364.228          34.000                                                                                                                                  
C24  25342138.938     -213670.662           0.002          15.000                                                                                                                                  
C26  22124369.843     -355484.304       -1475.005          25.000                                                                    22124364.291     -166053.210       -1110.362          21.000  
C29  23979746.136      595913.088           0.008          15.000                                                                                                                                  
C35  21608492.512      -46849.392        -159.473          18.000                                                                    21608489.769      -18017.463        -116.479          24.000  
> 2022  1 20  8 45 51.0000000  0 24                     
G 4                                                                  23106955.482      470783.518        1977.052          19.000  
G 7  22999814.527    -1017801.537       -3201.213          19.000                                                                  
G 8  20226943.367      -40667.004        -101.022          36.000    20226938.587      -12855.867         -75.287          30.000  
G 9  22876796.076      400571.015        1272.097          27.000    22876792.814      165615.388         948.309          18.000  
G21  21966959.629       -4131.469       -3003.901          34.000                                                                  
G27  20809333.620      607027.587        1936.997          25.000    20809326.380       94164.383        1446.261          19.000  
R 9  19876536.701                                          28.000  
R20  20293578.458                                          17.000  
E 9  26810629.878      607884.359        2327.371          22.000    26810639.233      183184.154        1736.352          17.000  
E12  24355983.083     -107014.690       -2055.439          18.000                                                                  
E24  24527188.924     -325857.809       -1234.984          32.000                                                                  
E31  24261421.895       72965.364         306.134           9.000                                                                  
J 3  37744871.082      138361.042         454.549          28.000    37744874.312       59784.021         343.055          19.000  
C 2  38232067.136       -2260.074        -115.756          26.000                                                                                                                                  
C 3  37110720.205      -42185.508        -173.469          22.000                                                                                                                                  
C 5  40236445.518      -25910.962        -102.116          25.000                                                                                                                                  
C 6  37033755.853      403142.514        1308.975          21.000                                                                                                                                  
C 9  36492676.053      217256.026         860.262          24.000                                                                                                                                  
C10  37354119.321      -45381.815        -175.461          30.000                                                                                                                                  
C16  37212253.064      115265.079        1363.996          23.000                                                                                                                                  
C24  25341589.640     -228468.188           0.002          16.000                                                                                                                                  
C26  22124085.947     -363162.352       -1475.019          33.000                                                                    22124081.408     -170411.313       -1110.753          24.000  
C29  23980219.159      608644.910           0.008          13.000                                                                                                                                  
C35  21608462.780      -47661.547        -154.786          33.000                                                                    21608459.933      -18478.013        -120.439          19.000  
> 2022  1 20  8 45 52.0000000  0 23                     
G 4                                                                  23107459.147      478547.518        1976.435          20.000  
G 7  22999205.724    -1034614.367       -3199.586          17.000                                                                  
G 8  20226922.792      -41199.037         -99.847          37.000    20226919.565      -13150.755         -74.843          29.000  
G 9  22877039.384      407268.819        1277.205          25.000    22877034.848      169335.682         948.978          19.000  
G21  21966400.524      -19910.549       -3003.563          33.000                                                                  
G27  20809701.352      617206.528        1936.038          26.000    20809695.770       99849.703        1449.148          17.000  
R 9  19876326.513                                          27.000  
R20  20292987.733                                          13.000  
E 9  26811073.358      620116.590        2327.567          20.000    26811081.579      189996.512        1736.909          17.000  
E24  24526949.368     -332347.926       -1234.975          31.000                                                                  
E31  24261480.231       74576.480         306.655           9.000                                                                  
J 3  37744958.318      140764.300         459.035          24.000    37744960.937       61124.369         342.470          18.000  
C 2  38232042.830       -2879.327        -126.272          25.000                                                                                                                                  
C 3  37110689.540      -43029.763        -175.962          24.000                                                                                                                                  
C 5  40236425.188      -26509.775        -119.244          25.000                                                                                                                                  
C 6  37034007.191      409956.115           0.098          16.000                                                                                                                                  
C 9  36492842.181      221745.308         862.619          27.000                                                                                                                                  
C10  37354086.008      -46298.638        -176.222          32.000                                                                                                                                  
C16  37212515.044      122374.422        1365.432          20.000                                                                                                                                  
C24  25341043.692     -243271.320           0.002          15.000                                                                                                                                  
C26  22123802.800     -370833.381       -1474.298          31.000                                                                    22123798.557     -174769.039       -1109.817          26.000  
C29  23980688.622      621374.849           0.008          14.000                                                                                                                                  
C35  21608433.171      -48469.321        -152.902          32.000                                                                    21608430.150      -18938.721        -115.452          19.000  
> 2022  1 20  8 45 53.0000000  0 25                     
G 1  24797925.679      -25754.383       -3994.174          19.000                                                                  
G 4                                                                  23107962.604      486298.490        1976.843          18.000  
G 7  22998597.025    -1051424.128       -3198.705          15.000                                                                  
G 8  20226905.864      -41717.317         -97.273          37.000    20226900.822      -13442.753         -74.176          29.000  
G 9  22877283.547      413973.364        1275.868          24.000    22877278.628      173066.914         953.540          20.000  
G21  21965828.960      -35687.947       -3003.800          32.000                                                                  
G27  20810069.174      627383.060        1940.428          27.000    20810067.448      105529.414        1447.318          17.000  
R 8  23906114.841                                          19.000  
R 9  19876115.593                                          27.000  
R20  20292390.587                                          13.000  
E 9  26811516.105      632350.847        2325.942          19.000    26811527.170      196817.113        1738.716          17.000  
E24  24526712.450     -338834.442       -1234.342          30.000    24526713.394       -4293.840        -921.323          24.000  
E31  24261530.837       76186.652         306.065          10.000                                                                  
J 3  37745044.978      143174.099         458.501          22.000    37745047.911       62472.135         342.287          17.000  
C 2  38232021.246       -3501.989        -126.094          26.000                                                                                                                                  
C 3  37110659.768      -43865.433        -155.211          24.000                                                                                                                                  
C 5  40236404.789      -27086.276        -106.940          25.000                                                                                                                                  
C 6  37034258.736      416775.833           0.098          17.000                                                                                                                                  
C 9  36493008.865      226237.302         862.299          28.000                                                                                                                                  
C10  37354054.130      -47211.931        -174.559          32.000                                                                                                                                  
C16  37212777.321      129481.852        1363.838          22.000                                                                                                                                  
C24  25340497.710     -258077.039           0.002          16.000                                                                                                                                  
C26  22123519.252     -378506.201       -1474.457          31.000                                                                    22123515.898     -179124.146       -1109.658          27.000  
C29  23981158.208      634107.447           0.008          13.000                                                                                                                                  
C35  21608403.287      -49271.110        -152.399          32.000                                                                    21608400.422      -19394.402        -116.813          18.000  
> 2022  1 20  8 45 54.0000000  0 21                     
G 1  24797161.133      -46737.253       -3992.938          22.000                                                                  
G 4                                                                  23108466.496      494055.200        1976.234          17.000  
G 7  22998003.334    -1068232.274           0.011          15.000                                                                  
G 8  20226885.603      -42236.403         -99.375          36.000    20226882.185      -13732.433         -73.391          28.000  
G 9  22877526.629      420676.063        1275.514          22.000    22877521.936      176807.572         952.438          17.000  
G21  21965257.304      -51463.930       -3003.083          34.000                                                                  
G27  20810439.140      637574.222        1938.587          27.000    20810434.238      111208.283        1448.478          16.000  
R 8  23906377.868                                          18.000  
R 9  19875905.963                                          25.000  
R20  20291799.897                                          16.000  
E 9  26811959.236      644569.627        2324.212          19.000    26811969.306      203639.329        1739.129          17.000  
E12  24354812.313     -139357.053       -2051.537          18.000                                                                  
E24  24526477.151     -345319.248       -1233.789          31.000    24526479.281       -7906.146        -920.513          21.000  
E31  24261589.155       77797.383         306.976          10.000                                                                  
J 3  37745133.278      145584.342         457.223          21.000    37745132.355       63814.014         342.572          17.000  
C 9  36493175.115      230734.409         863.684          28.000                                                                                                                                  
C10  37354022.266      -48120.843        -174.512          31.000                                                                                                                                  
C24  25339945.498     -272883.582       -2844.738          17.000                                                                                                                                  
C26  22123247.936       -3862.621       -1470.510          30.000                                                                    22123233.292     -183477.680       -1109.038          26.000  
C29  23981628.002      646845.915           0.008          12.000                                                                                                                                  
C35  21608374.568      -50061.531        -150.091          31.000                                                                    21608370.499      -19853.919        -116.217          17.000  
> 2022  1 20  8 45 55.0000000  0 21                     
G 1  24796388.612      -67719.623       -3994.358          21.000                                                                  
G 4                                                                  23108975.275      501816.834        1978.582          18.000  
G 7  22997394.661    -1085040.677           0.011          14.000                                                                  
G 8  20226870.892      -42747.794         -97.281          36.000    20226863.634      -14019.345         -73.155          26.000  
G 9  22877769.885      427381.409        1276.345          23.000    22877764.721      180546.753         953.580          20.000  
G21  21964685.408      -67236.396       -3000.615          35.000                                                                  
G27  20810806.963      647764.521        1940.750          24.000    20810803.335      116889.288        1449.255          17.000  
R 8  23906656.479                                          19.000  
R 9  19875697.364                                          28.000  
R20  20291207.131                                          16.000  
E 9  26812402.629      656796.733        2328.774          19.000    26812412.873      210467.084        1740.281          17.000  
E12  24354422.196     -150130.962       -2049.083          16.000                                                                  
E24  24526241.870     -351801.849       -1233.454          30.000    24526244.803      -11526.007        -924.674          19.000  
E31  24408847.734       79414.367         307.988           8.000                                                                  
J 3  37745228.052        2218.778         459.399          20.000    37745219.922       65158.749         344.828          16.000  
C 9  36493341.137      235220.984         860.795          26.000                                                                                                                                  
C10  37353989.303      -49030.175        -173.714          32.000                                                                                                                                  
C24  25339395.432     -287693.882       -2844.191          17.000                                                                                                                                  
C26  22122962.258      -11514.262       -1469.192          28.000                                                                    22122950.791     -187829.461       -1109.102          25.000  
C29  23982097.989      659588.640           0.008          16.000                                                                                                                                  
C35  21608344.924      -50852.101        -151.301          31.000                                                                    21608342.129      -20310.148        -115.874          17.000  
> 2022  1 20  8 45 56.0000000  0 20                     
G 1  24795636.333      -88693.743       -3990.013          19.000                                                                  
G 4  23051654.289       13471.412        2649.941          22.000    23051293.315      509566.887        1973.936          20.000  
G 7  22996785.927    -1101851.151           0.011          13.000                                                                  
G 8  20226848.799      -43260.524         -97.028          36.000    20226845.275      -14305.776         -72.712          26.000  
G 9  22878009.215      434083.353        1274.910          23.000    22878007.297      184288.675         954.437          20.000  
G21  21964113.822      -83003.394       -3000.021          33.000                                                                  
G27  20811175.603      657953.349        1938.270          23.000    20811171.382      122575.949        1448.530          18.000  
R 8  23906938.108                                          17.000  
R 9  19864972.693                                          27.000  
R20  20290616.685                                          15.000  
E 9  26812846.475      669027.396        2327.354          19.000    26812856.510      217293.417        1737.904          17.000  
E12  24354034.050     -160906.769       -2049.280          13.000                                                                  
E24  24526006.885     -358286.333       -1234.062          30.000    24526009.295      -15152.733        -922.513          18.000  
E31  24408906.419       81034.542         308.628           8.000                                                                  
J 3  37745303.649        4626.003         458.305          22.000    37745307.873       66510.196         343.729          17.000  
C 9  36493506.671      239709.696         863.656          28.000                                                                                                                                  
C24  25338849.589     -302495.287       -2842.059          17.000                                                                                                                                  
C26  22122679.320      -19169.727       -1470.871          28.000                                                                    22122668.446     -192181.150       -1108.433          25.000  
C29  23982572.284      672343.782           0.008          15.000                                                                                                                                  
C35  21608315.894      -51642.078        -151.633          30.000                                                                    21608308.755      -20760.676        -114.980          19.000  
> 2022  1 20  8 45 57.0000000  0 21                     
G 1  24794877.214     -109665.895       -3990.400          19.000                                                                  
G 4  23052177.202       27390.532        2650.301          19.000    23051796.108      517331.303        1976.502          21.000  
G 7  22996177.002    -1118666.885           0.011          15.000                                                                  
G 8  20226832.761      -43770.635         -97.630          35.000    20226826.917      -14592.294         -72.635          28.000  
G 9  22878252.122      440789.639        1277.790          25.000    22878249.977      188029.767         953.884          20.000  
G21  21963542.729      -98776.746       -3001.318          34.000                                                                  
G27  20811543.704      668142.877        1938.876          23.000    20811541.437      128256.013        1448.468          19.000  
R 8  23907203.874                                          17.000  
R 9  19864762.139                                          28.000  
R20  20290026.098                                          12.000  
E 9  26813288.594      681245.007        2326.704          23.000    26813295.994      224117.097        1739.538          19.000  
E12  24353644.684     -171661.313       -2045.247          15.000                                                                  
E24  24525772.633     -364772.603       -1234.448          29.000    24525774.432      -18776.136        -921.942          19.000  
E31  24261765.123       82655.831         308.651           9.000                                                                  
J 3  37745385.196        7039.106         459.717          24.000    37745392.544       67856.637         342.694          17.000  
C 9  36493672.640      244202.090         861.518          25.000                                                                                                                                  
C10  37353925.627        -628.052        -175.571          30.000                                                                                                                                  
C24  25338303.869     -317294.406       -2841.931          18.000                                                                                                                                  
C26  22122396.121      -26836.421       -1473.860          28.000                                                                    22122385.892     -196533.566       -1108.927          25.000  
C29  23983042.794      685101.352           0.008          14.000                                                                                                                                  
C35  21608287.437      -52425.470        -150.315          31.000                                                                    21608283.037      -21210.392        -114.626          19.000  
> 2022  1 20  8 45 58.0000000  0 21                     
G 1  24794117.782     -130637.675       -3992.392          16.000                                                                  
G 4  23052681.810       41325.133           0.002          18.000    23052299.547      525096.732        1977.978          25.000  
G 7  22995568.251    -1135478.321           0.011          16.000                                                                  
G 8  20226809.952      -44277.980         -94.048          35.000    20226808.662      -14875.231         -72.096          26.000  
G 9  22878496.215      447504.078        1279.143          25.000    22878493.564      191776.009         955.574          21.000  
G21  21962974.201     -114540.560       -2999.285          33.000                                                                  
G27  20811911.211      678333.403        1939.990          25.000    20811909.119      133940.282        1449.332          24.000  
R 8  23907469.938                                          17.000  
R 9  19864553.364                                          30.000  
R20  20289435.268                                          14.000  
E 9  26813730.169      693482.196        2329.461          26.000    26813741.809      230943.629        1739.787          19.000  
E12  24353264.897     -182407.673       -2045.218          16.000                                                                  
E24  24525538.773     -371255.499       -1233.294          31.000    24525539.647      -22396.023        -924.003          19.000  
E31  24261823.913       84278.550         308.841           9.000                                                                  
J 3  37745475.992        9458.550         461.288          30.000    37745483.305       69207.848         344.490          18.000  
C 9  36493838.299      248687.022         859.851          28.000                                                                                                                                  
C10  37353891.215       -1533.140        -172.384          29.000                                                                                                                                  
C24  25337749.789     -332093.512           0.002          18.000                                                                                                                                  
C26  22122111.647      -34496.564       -1469.227          30.000                                                                    22122103.478     -200883.088       -1107.909          25.000  
C29  23983513.444      697861.846           0.008          15.000                                                                                                                                  
C35  21608258.388      -53207.491        -150.113          32.000                                                                    21608253.569      -21653.622        -112.491          21.000  
> 2022  1 20  8 45 59.0000000  0 19                     
G 1  24793358.087     -151617.209       -3992.048          21.000                                                                  
G 4  23053186.139       55252.009           0.002          20.000    23052804.661      532866.216        1979.410          24.000  
G 7  22994963.016    -1152295.914       -3200.333          15.000                                                                  
G 8  20226794.927      -44774.314         -93.570          28.000    20226790.618      -15154.549         -69.721          27.000  
G 9  22878739.454      454222.952        1278.617          26.000    22878737.047      195524.397         955.524          20.000  
G21  21962402.929     -130304.641       -2999.301          33.000                                                                  
G27  20812279.644      688527.273        1940.202          35.000    20812276.679      139626.924        1449.259          25.000  
R 8  23907735.792                                          17.000  
R 9  19864343.316                                          30.000  
R20  20288844.596                                          17.000  
E 9  26814174.434      705727.574        2330.243          24.000    26814186.022      237771.421        1740.854          20.000  
E12  24352875.548     -193160.117       -2046.999          19.000                                                                  
E24  24525306.301     -377734.068       -1232.633          27.000    24525305.901      -26013.180        -919.612          22.000  
E31  24261882.755       85902.855         309.168          10.000                                                                  
J 3  37745565.304       11879.945         460.551          33.000    37745568.272       70556.490         343.860          19.000  
C 9  36494002.593      253175.104         862.625          29.000                                                                                                                                  
C24  25337199.462     -346886.405       -2837.608          19.000                                                                                                                                  
C26  22121827.994      -42143.117       -1466.991          26.000                                                                    22121821.290     -205230.983       -1108.439          23.000  
C35  21608230.280      -53985.603        -147.984          35.000                                                                    21608226.351      -22095.785        -113.196          21.000  
> 2022  1 20  8 46  0.0000000  0 22                     
G 1  24792607.588     -172594.033       -3989.920          17.000                                                                  
G 4                                                                  23111492.189      540633.662        1979.257          26.000  
G 7  22994353.916    -1169116.669       -3200.990          14.000                                                                  
G 8  20226775.260      -45269.254         -96.218          30.000    20226772.452      -15433.547         -70.959          26.000  
G 9  22878983.809      460940.659        1278.553          24.000    22878980.687      199272.765         955.131          20.000  
G21  21961831.051     -146060.327       -2999.880          33.000                                                                  
G27  20812647.812      698728.375        1940.281          32.000    20812646.470      145314.670        1449.234          26.000  
R 8  23908003.566                                          16.000  
R 9  19864131.575                                          30.000  
R20  20288254.377                                          23.000  
E 9  26814618.001      717967.086        2329.379          25.000    26814629.851      244609.876        1740.011          19.000  
E12  24352485.850     -203921.459       -2048.683          23.000                                                                  
E24  24525069.903     -384214.240       -1233.265          25.000    24525071.056      -29627.400        -921.285          24.000  
E31  24261941.615       87527.628         309.401          10.000                                                                  
J 3  37745656.097       14300.875         460.197          33.000    37745661.456       71906.434         344.244          25.000  
C 2  38231863.435        -469.523        -123.674          29.000                                                                                                                                  
C 3  37110474.007        -633.357        -135.377          29.000                                                                                                                                  
C 6  37036011.045        3684.523        1311.239          27.000                                                                                                                                  
C 9  36494167.866      257673.212         864.173          29.000                                                                                                                                  
C24  25336650.722     -361659.520       -2837.233          17.000                                                                                                                                  
C26  22121545.632      -49792.538       -1469.560          31.000                                                                    22121539.051     -209576.760       -1107.154          20.000  
C35  21608201.458      -54763.761        -149.295          33.000                                                                    21608196.377      -22536.099        -112.091          23.000  
> 2022  1 20  8 46  1.0000000  0 19                     
G 1  24791848.050     -193569.397       -3993.893          19.000                                                                  
G 4  23053820.489       83115.766        2650.656          23.000    23053814.453      548410.545        1986.008          23.000  
G 7  22993744.956    -1185933.773       -3200.944          15.000                                                                  
G 8  20226757.599      -45767.867         -94.142          38.000    20226754.564      -15709.854         -69.707          28.000  
G 9  22879226.594      467659.741        1278.109          20.000    22879223.943      203024.975         956.764          19.000  
G21  21961260.376     -161816.247       -2997.670          36.000                                                                  
G27  20813015.983      708916.803        1940.064          30.000    20813016.037      151003.807        1451.350          21.000  
R 9  19863921.335                                          26.000  
R20  20287674.000                                          19.000  
E 9  26815061.498      730214.626        2330.522          23.000    26815072.929      251440.868        1743.078          18.000  
E12  24352096.169     -214683.753       -2047.392          20.000                                                                  
E24  24524837.379     -390692.843       -1232.708          33.000    24524836.770      -33242.908        -918.609          22.000  
E31  24262000.282       89154.546         310.020           9.000                                                                  
J 3  37745744.868       16719.744         461.802          30.000    37745746.597       73254.112         342.893          21.000  
C 9  36494333.887      262180.153         865.268          30.000                                                                                                                                  
C10  37353789.568        -511.024        -173.170          30.000                                                                                                                                  
C24  25336100.831     -376432.574       -2837.313          17.000                                                                                                                                  
C26  22121263.115      -57444.858       -1470.516          30.000                                                                    22121255.713     -213926.173       -1106.579          25.000  
C35  21608173.526      -55533.755        -148.082          34.000                                                                    21608168.672      -22972.642        -109.838          21.000  
> 2022  1 20  8 46  2.0000000  0 20                     
G 1  24791084.184     -214559.374       -3996.838          19.000                                                                  
G 4  23054307.280       97052.676        2652.462          22.000    23054319.235      556180.164        1980.147          22.000  
G 7  22993127.916    -1202753.187           0.011          11.000                                                                  
G 8  20226736.710      -46259.259         -93.378          39.000    20226736.729      -15984.937         -69.938          28.000  
G 9  22879470.478      474384.164        1281.372          19.000    22879469.032      206792.782         960.503          19.000  
G21  21960690.479     -177566.935       -2998.965          37.000                                                                  
G27  20813388.376      719118.813        1940.772          30.000    20813385.481      156689.740        1449.443          17.000  
R 9  19863709.838                                          21.000  
R20  20287088.633                                          18.000  
E 9  26815505.117      742458.290        2330.271          23.000    26815517.160      258279.247        1741.211          17.000  
E12  24351691.463     -225446.085       -2049.287          19.000                                                                  
E24  24524602.900     -397171.737       -1233.005          34.000    24524602.134      -36856.945        -920.358          22.000  
E31  24262059.316       90784.488         310.559          11.000                                                                  
J 3  37745832.244       19136.437         460.274          28.000    37745833.938       74604.210         344.323          23.000  
C 6  37036522.269        3828.834        1312.247          27.000                                                                                                                                  
C 9  36494499.631      266688.057         865.384          29.000                                                                                                                                  
C10  37353756.660       -1416.023        -173.987          31.000                                                                                                                                  
C24  25335555.965     -391207.398       -2837.624          14.000                                                                                                                                  
C26  22120980.421      -65097.923       -1467.990          31.000                                                                    22120973.735     -218271.093       -1107.212          26.000  
C35  21608145.767      -56300.697        -147.025          33.000                                                                    21608140.354      -23410.245        -111.530          22.000  
> 2022  1 20  8 46  3.0000000  0 17                     
G 1  24790307.649     -235551.424       -3992.618          18.000                                                                  
G 4  23054814.924      110987.579        2651.595          23.000    23054823.808      563949.824        1981.356          21.000  
G 8  20226722.627      -46748.934         -92.771          39.000    20226718.929      -16259.038         -68.844          27.000  
G 9  22879714.275      481124.973        1282.938          21.000    22879713.003      210553.013         956.954          19.000  
G21  21960119.403     -193319.200       -2995.505          37.000                                                                  
G27  20813758.133      729320.510        1940.946          30.000    20813752.969      162377.440        1450.609          17.000  
R 9  19863501.012                                          24.000  
E 9  26815948.719      754701.487        2330.132          22.000    26815963.746      265112.396        1741.714          17.000  
E12  24351301.172     -236224.237       -2049.219          16.000                                                                  
E24  24524369.347     -403651.046       -1232.729          34.000    24524367.184      -40471.278        -918.683          22.000  
E31  24262118.455       92417.231         310.893          11.000                                                                  
J 3  37745920.195       21546.629         459.731          28.000    37745921.715       75954.699         343.760          21.000  
C 9  36494665.495      271194.634         864.776          31.000                                                                                                                                  
C10  37353722.196       -2327.850        -174.478          32.000                                                                                                                                  
C24  25335010.803     -405990.296       -2840.694          13.000                                                                                                                                  
C26  22120698.286      -72738.843       -1467.899          30.000                                                                    22120691.792     -222614.813       -1105.801          26.000  
C35  21608117.519      -57067.514        -145.646          33.000                                                                    21608112.333      -23845.051        -110.336          21.000  
> 2022  1 20  8 46  4.0000000  0 19                     
G 4  23055319.934      124920.214        2651.393          23.000    23055328.782      571721.972        1979.805          20.000  
G 7  22991909.749    -1236394.924           0.011          15.000                                                                  
G 8  20226702.837      -47233.431         -92.217          38.000    20226701.408      -16530.020         -68.706          27.000  
G 9  22879958.840      487865.716        1283.184          22.000    22879957.167      214308.060         960.251          20.000  
G21  21959549.340     -209064.598       -2997.747          38.000                                                                  
G27  20814130.509      739525.867        1942.482          32.000    20814120.895      168064.879        1450.375          18.000  
R 9  19873804.684                                          25.000  
R20  20285915.348                                          18.000  
E 9  26816392.164      766948.342        2329.785          20.000    26816407.400      271941.072        1739.477          17.000  
E12  24350911.596     -246983.885       -2045.185          13.000                                                                  
E24  24524134.575     -410127.223       -1232.471          34.000    24524131.994      -44083.325        -924.000          20.000  
E31  24262177.559       94049.797         310.621          12.000                                                                  
J 3  37746006.977       23971.018         461.480          27.000    37746009.387       77304.505         345.125          23.000  
C 6  37037024.297        3823.365        1312.170          28.000                                                                                                                                  
C 9  36494831.484      275700.139         865.279          32.000                                                                                                                                  
C10  37353689.861       -3224.135        -173.074          32.000                                                                                                                                  
C24  25334468.695     -420782.251           0.002          14.000                                                                                                                                  
C26  22120416.029      -80387.914       -1467.926          30.000                                                                    22120409.919     -226957.294       -1106.433          27.000  
C35  21608089.240      -57825.332        -145.451          34.000                                                                    21608084.787      -24273.793        -109.896          22.000  
> 2022  1 20  8 46  5.0000000  0 19                     
G 1  24788775.243     -277524.065       -3993.063          18.000                                                                  
G 4  23055820.860      138858.272        2652.928          23.000    23055833.844      579495.882        1981.380          23.000  
G 7  22991295.344    -1253198.729       -3195.879          17.000                                                                  
G 8  20226688.649      -47716.086         -91.115          38.000    20226683.817      -16798.750         -67.564          26.000  
G 9  22880202.393      494609.180        1282.249          20.000    22880200.754      218066.558         957.676          20.000  
G21  21958979.342     -224809.048       -2995.097          37.000                                                                  
G27  20814502.571      749739.730        1944.614          32.000    20814493.062      173754.786        1451.193          18.000  
R 9  19873595.282                                          23.000  
R20  20285326.752                                          17.000  
E 9  26816835.731      779199.198        2331.744          18.000    26816850.705      278764.200        1739.198          17.000  
E12  24350531.268     -257746.664       -2049.143          12.000                                                                  
E24  24523900.376     -416602.833       -1232.196          33.000    24523897.288      -47696.414        -920.217          21.000  
E31  24262236.715       95683.068         310.934          11.000                                                                  
J 3  37746094.370       26390.608         458.668          25.000    37746097.181       78655.714         344.683          24.000  
C 9  36494997.978      280209.927         868.459          32.000                                                                                                                                  
C10  37353655.292       -4125.276        -172.929          31.000                                                                                                                                  
C24  25333923.341     -435570.847           0.002          12.000                                                                                                                                  
C26  22120133.091      -88030.789       -1466.749          28.000                                                                    22120128.080     -231297.765       -1105.448          27.000  
C35  21608060.922      -58586.251        -145.986          33.000                                                                    21608056.906      -24704.147        -109.182          22.000  
> 2022  1 20  8 46  6.0000000  0 19                     
G 1  24788010.574     -298506.961       -3991.704          19.000                                                                  
G 4  23056325.747      152799.745        2652.659          24.000    23056338.906      587270.808        1981.867          20.000  
G 7  22990687.239    -1269992.018       -3195.636          18.000                                                                  
G 8  20226668.982      -48195.711         -89.971          37.000    20226666.383      -17066.198         -67.380          25.000  
G 9  22880448.109      501349.771        1283.428          20.000    22880444.761      221826.649         959.681          19.000  
G21  21958409.732     -240549.185       -2995.623          38.000                                                                  
G27  20814871.021      759959.279        1943.165          32.000    20814862.158      179447.875        1449.930          18.000  
R 9  19873386.403                                          25.000  
R20  20284738.558                                          17.000  
E 9  26817279.072      791441.419        2328.789          17.000    26817293.923      285591.050        1739.506          16.000  
E12  24350141.378     -268514.833       -2049.160          12.000                                                                  
E24  24523665.705     -423077.202       -1231.824          33.000    24523662.792      -51306.282        -919.825          20.000  
E31  24262295.819       97315.708         310.535           9.000                                                                  
J 3  37746180.838       28808.331         461.122          27.000    37746185.447       80007.672         344.538          21.000  
C 9  36495164.751      284725.023         867.032          32.000                                                                                                                                  
C10  37353621.177       -5037.536        -176.096          32.000                                                                                                                                  
C24  25333377.027     -450354.896           0.002          12.000                                                                                                                                  
C26  22119851.130      -95666.452       -1466.290          30.000                                                                    22119846.364     -235637.326       -1105.697          27.000  
C35  21608033.267      -59339.852        -145.962          33.000                                                                    21608029.268      -25132.365        -108.856          20.000  
> 2022  1 20  8 46  7.0000000  0 19                     
G 1  24787242.346     -319488.716       -3991.862          20.000                                                                  
G 4  23056829.207      166740.328        2652.541          25.000    23056843.483      595046.384        1979.926          20.000  
G 7  22990073.628    -1286777.534       -3192.946          19.000                                                                  
G 8  20226652.700      -48668.913         -89.990          37.000    20226649.229      -17330.777         -66.895          27.000  
G 9  22880691.802      508097.240        1284.654          18.000    22880688.697      225590.362         960.878          21.000  
G21  21957840.436     -256289.755       -2995.351          37.000                                                                  
G27  20815240.079      770177.814        1943.896          33.000    20815231.757      185138.838        1448.919          19.000  
R 9  19873176.529                                          24.000  
R20  20284146.594                                          16.000  
E 9                                                                  25202185.745      292415.197        1740.060          16.000  
E12  24349751.540     -279280.970       -2048.775          11.000    24349741.473      -27878.049       -1532.537          17.000  
E24  24523431.785     -429549.897       -1231.735          33.000    24523428.366      -54916.054        -919.609          22.000  
E31  24262354.853       98945.587         309.794           9.000                                                                  
J 3  37746269.592       31233.158         459.227          27.000    37746273.485       81360.537         344.153          23.000  
C 9  36495331.994      289241.761         866.092          32.000                                                                                                                                  
C10  37353587.603       -5927.796        -171.718          30.000                                                                                                                                  
C24  25332831.707     -465142.693           0.002          12.000                                                                                                                                  
C26  22119568.873     -103302.912       -1466.925          29.000                                                                    22119564.752     -239975.197       -1105.208          26.000  
C35  21608005.494      -60090.682        -142.336          34.000                                                                    21608002.054      -25559.592        -109.916          21.000  
> 2022  1 20  8 46  8.0000000  0 19                     
G 1  24786481.028     -340462.005       -3992.416          19.000                                                                  
G 4  23057335.717      180680.736           0.002          20.000    23057348.981      602824.086        1982.861          19.000  
G 7  22989460.532    -1303562.701       -3195.423          19.000                                                                  
G 8  20226634.044      -49141.374         -88.709          33.000    20226631.986      -17595.126         -66.922          25.000  
G 9  22880937.606      514848.796           0.001          19.000    22880932.826      229348.504         957.051          18.000  
G21  21957270.107     -272031.559       -2995.790          37.000                                                                  
G27  20815611.880      780393.024        1942.783          31.000    20815602.877      190834.349        1453.917          18.000  
R 9  19872965.451                                          24.000  
R20  20283558.452                                          15.000  
E 9                                                                  25202629.278      299241.566        1740.223          17.000  
E12  24349361.755     -290045.493       -2048.081          10.000    24349351.478      -33892.885       -1530.428          17.000  
E24  24523197.411     -436026.166       -1232.460          28.000    24523193.905      -58522.841        -919.695          21.000  
E31  24262413.765      100571.833         309.434          10.000                                                                  
J 3  37746358.957       33658.027         461.651          28.000    37746361.280       82713.325         345.021          20.000  
C 9  36495498.192      293758.476         867.528          32.000                                                                                                                                  
C10  37353553.871       -6837.538        -177.428          31.000                                                                                                                                  
C24  25332286.510     -479925.828           0.002          13.000                                                                                                                                  
C26  22119286.075     -110950.442       -1471.479          30.000                                                                    22119283.176     -244313.401       -1105.168          26.000  
C35  21607978.433      -60840.795        -144.607          32.000                                                                    21607974.364      -25983.654        -107.378          22.000  
> 2022  1 20  8 46  9.0000000  0 20                     
G 1  24785718.261     -361445.498       -3993.898          18.000                                                                  
G 4  23057840.726      194625.545           0.002          17.000    23057853.501      610603.176        1981.766          21.000  
G 7  22988852.776    -1320347.857       -3193.872          17.000                                                                  
G 8  20226617.587      -49612.246         -88.189          36.000    20226615.076      -17858.430         -66.628          26.000  
G 9  22881182.467      521594.809        1283.979          17.000    22881177.181      233108.011         958.688          20.000  
G21  21956699.868     -287765.248       -2993.699          37.000                                                                  
G27  20815979.893      790613.818        1946.940          31.000    20815974.188      196536.747        1452.495          18.000  
R 8  23910428.291                                          19.000  
R 9  19872755.368                                          22.000  
R20  20282957.623                                          15.000  
E 9  26818608.482       33661.525        2330.646          22.000    26818620.785      306067.588        1739.032          17.000  
E12  24348972.298     -300806.557       -2046.880          17.000    24348964.429      -39898.746       -1528.809          17.000  
E24  24522962.583     -442500.424       -1231.858          33.000    24522959.915      -62133.926        -919.486          23.000  
E31  24262471.091      102197.206         309.083          10.000                                                                  
J 3  37746447.991       36084.422         461.676          29.000    37746448.899       84064.771         345.529          20.000  
C 9  36495665.924      298274.507         869.091          30.000                                                                                                                                  
C10  37353519.756       -7745.446        -170.431          30.000                                                                                                                                  
C24  25331741.470     -494705.390           0.002          16.000                                                                                                                                  
C26  22119003.312     -118596.432       -1466.102          32.000                                                                    22119001.651     -248651.240       -1105.089          25.000  
C35  21607950.257      -61581.799        -143.916          30.000                                                                    21607946.537      -26408.666        -107.728          22.000  
> 2022  1 20  8 46 10.0000000  0 20                     
G 1  24784960.293     -382431.259       -3994.264          18.000                                                                  
G 4  23058346.364      208588.476           0.002          18.000    23058358.685      618379.427        1981.654          23.000  
G 7  22988245.194    -1337127.898       -3193.811          16.000                                                                  
G 8  20226600.066      -50077.738         -89.019          37.000    20226598.305      -18119.617         -66.295          27.000  
G 9  22881426.770      528342.105        1283.656          17.000    22881421.781      236873.664         958.134          20.000  
G21  21956130.241     -303498.404       -2993.748          38.000                                                                  
G27  20816349.756      800838.990        1943.464          25.000    20816344.418      202232.269        1451.997          18.000  
R 8  23910686.205                                          16.000  
R 9  19872545.512                                          24.000  
R20  20282369.933                                          16.000  
E 9  26819055.155       45911.056        2330.763          24.000    26819064.946      312904.963        1743.229          16.000  
E12  24348582.896     -311560.412       -2045.594          21.000    24348574.714      -45903.697       -1528.487          17.000  
E24  24522728.300     -448974.335       -1232.038          29.000    24522725.492      -65743.918        -919.437          23.000  
E31  24262530.003      103823.936         309.888           9.000                                                                  
J 3  37746536.483       38505.776         460.342          30.000    37746536.729       85417.042         345.207          20.000  
C 9  36495832.837      302793.556         867.208          29.000                                                                                                                                  
C10  37353485.885       -8641.368        -172.114          29.000                                                                                                                                  
C24  25331196.535     -509482.408           0.002          18.000                                                                                                                                  
C26  22118721.124     -126232.912       -1466.634          29.000                                                                    22118720.127     -252986.819       -1104.308          25.000  
C35  21607922.532      -62324.570        -141.729          32.000                                                                    21607919.057      -26830.419        -106.711          20.000  
> 2022  1 20  8 46 11.0000000  0 20                     
G 1  24784200.478     -403415.481       -3990.700          17.000                                                                  
G 4  23058864.775      222545.666        2655.373          25.000    23058863.660      626155.163        1981.922          23.000  
G 7  22987641.783    -1353909.643       -3192.602          14.000                                                                  
G 8  20226581.272      -50551.795         -93.367          20.000    20226581.640      -18378.887         -63.703          22.000  
G 9  22881668.578      535093.853        1285.692          23.000    22881666.485      240635.450         958.090          19.000  
G21  21955561.569     -319232.385       -2991.813          35.000                                                                  
G27  20816721.066      811053.651        1944.960          30.000    20816714.279      207931.484        1450.019          22.000  
R 8  23910944.870                                          14.000  
R 9  19872336.947                                          24.000  
R20  20281782.332                                          20.000  
E 9  26819497.308       58158.251        2331.534          25.000    26819508.530      319750.102        1744.656          17.000  
E12  24348193.809     -322305.749       -2043.952          24.000    24348184.422      -51903.065       -1528.339          17.000  
E24  24522493.386     -455454.415       -1234.688          21.000    24522491.415      -69351.475        -919.776          20.000  
E31  24262589.037      105453.930         310.293           9.000                                                                  
J 3  37746625.115       40924.361         463.121          29.000    37746624.732       86770.543         346.041          22.000  
C 9  36495998.598      307308.284         868.743          27.000                                                                                                                                  
C10  37353452.961       -9538.323        -173.210          18.000                                                                                                                                  
C24  25330654.636     -524273.228       -2840.049          18.000                                                                                                                                  
C26  22118440.404     -133865.520       -1464.233          28.000                                                                    22118438.482     -257325.734       -1103.919          19.000  
C35  21607894.181      -63064.615        -141.420          24.000                                                                    21607891.474      -27250.119        -105.554          20.000  
> 2022  1 20  8 46 12.0000000  0 19                     
G 4  23059364.235      236499.522        2656.452          22.000    23059369.123      633937.633        1982.954          22.000  
G 7  22987037.472    -1370699.663       -3197.124          19.000                                                                  
G 8  20226563.978      -51026.394         -90.679          19.000    20226565.899      -18626.206         -62.233          19.000  
G 9  22881912.540      541858.204        1288.606          26.000    22881911.808      244403.786         960.816          20.000  
G21  21954987.719     -334959.693       -2993.024          35.000                                                                  
G27  20817091.315      821284.854        1948.078          31.000    20817084.511      213638.431        1454.518          20.000  
R 8  23911201.929                                          17.000  
R 9  19872126.619                                          24.000  
R20  20281197.488                                          21.000  
E 9  26819941.975       70414.804        2332.267          25.000    26819951.399      326592.465        1744.881          17.000  
E12  24347805.245     -333036.601       -2042.578          25.000    24347795.788      -57899.916       -1525.572          18.000  
E24  24522260.076     -461929.040       -1233.022          20.000    24522256.588      -72963.822        -920.577          19.000  
E31  24409848.102      107083.880         310.688           8.000                                                                  
J 3  37746715.439       43356.875         463.291          28.000    37746712.823       88126.701         346.608          23.000  
C 9  36496163.871      311829.633         867.229          30.000                                                                                                                                  
C24  25330103.296     -539058.552       -2838.682          19.000                                                                                                                                  
C26  22118159.177     -141494.354       -1463.211          19.000                                                                    22118157.586     -261655.000       -1103.274          17.000  
C29  23989500.158       74166.331        2461.160          15.000                                                                                                                                  
C35  21607866.773      -63808.886        -143.598          18.000                                                                    21607865.147      -27667.413        -106.304          20.000  
> 2022  1 20  8 46 13.0000000  0 21                     
G 4  23059867.639      250456.746        2655.821          22.000    23059874.097      641720.550        1984.245          25.000  
G 7  22986429.960    -1387497.742       -3193.976          19.000                                                                  
G 8  20226546.719      -51503.104         -88.211          26.000    20226548.117      -18879.752         -64.157          26.000  
G 9  22882158.099      548625.435        1286.810          27.000    22882156.914      248174.962         957.184          20.000  
G21  21954417.459     -350676.297       -2990.491          36.000                                                                  
G27  20817460.321      831511.409        1947.832          31.000    20817455.733      219345.155        1455.178          26.000  
R 8  23911462.129                                          17.000  
R 9  19871920.061                                          33.000  
R20  20280628.960                                          20.000  
E 9  26820387.322       82671.938        2332.605          26.000    26820395.525      333434.522        1744.444          18.000  
E12  24347409.858     -343765.014       -2040.813          25.000    24347406.474      -63885.424       -1523.264          20.000  
E24  24522027.029     -468399.032       -1230.262          28.000    24522022.510      -76571.204        -919.680          22.000  
E31  24409907.311      108719.004         311.440           8.000                                                                  
J 3  37746803.356       45784.550         463.150          32.000    37746801.019       89482.841         346.217          23.000  
C 2  38231572.155        -470.630        -112.325          28.000                                                                                                                                  
C 3  37110098.929        -620.389        -139.745          27.000                                                                                                                                  
C 9  36496329.997      316354.636         867.858          29.000                                                                                                                                  
C24  25329556.842     -553836.015       -2838.516          18.000                                                                                                                                  
C26  22117878.996     -149116.412       -1465.263          32.000                                                                    22117874.805     -265987.477       -1104.402          18.000  
C29  23989972.798       86981.676        2459.063          13.000                                                                                                                                  
C35  21607839.328      -64548.313        -140.912          26.000                                                                    21607838.383      -28081.556        -104.537          22.000  
> 2022  1 20  8 46 14.0000000  0 20                     
G 4  23060374.079      264411.236           0.002          21.000    23060379.420      649501.501        1981.225          22.000  
G 7  22985822.361    -1404277.546       -3193.797          14.000                                                                  
G 8  20226532.671      -51957.937         -87.230          36.000    20226531.730      -19132.521         -64.513          29.000  
G 9  22882402.926      555385.670        1285.787          20.000    22882401.723      251947.625         962.045          19.000  
G21  21953849.036     -366397.462       -2991.516          38.000                                                                  
G27  20817831.753      841753.200        1949.474          32.000    20817826.310      225040.268        1448.564          20.000  
R 8  23911724.999                                          17.000  
R 9  19871711.583                                          28.000  
R20  20280041.446                                          18.000  
E 9  26820831.081       94929.098        2332.256          22.000    26820841.169      340276.107        1743.364          19.000  
E12  24347023.004     -354490.732       -2041.037          22.000    24347021.156      -69859.685       -1522.430          20.000  
E24  24521793.353     -474866.919       -1230.456          32.000    24521788.503      -80178.070        -919.452          21.000  
E31  24409966.607      110356.021         311.544           7.000                                                                  
J 3  37746891.150       48218.737         464.661          31.000    37746888.569       90838.789         346.788          21.000  
C 9  36496496.788      320873.945         866.621          33.000                                                                                                                                  
C10  37353346.445       -2106.033        -172.142          32.000                                                                                                                                  
C24  25329011.802     -568615.684       -2838.831          16.000                                                                                                                                  
C26  22117597.594     -156743.970       -1463.594          31.000                                                                    22117593.490     -270318.956       -1102.771          27.000  
C29  23990444.372       99811.178        2467.582          13.000                                                                                                                                  
C35  21607813.228      -65274.959        -136.044          34.000                                                                    21607811.550      -28494.843        -103.831          20.000  
> 2022  1 20  8 46 15.0000000  0 20                     
G 4  23060880.502      278361.321        2655.837          21.000    23060884.761      657279.193        1982.440          18.000  
G 7  22985214.413    -1421067.141       -3194.027          17.000                                                                  
G 8  20226516.074      -52407.633         -84.865          36.000    20226515.779      -19381.612         -62.661          27.000  
G 9  22882647.264      562137.717        1284.906          18.000    22882646.794      255719.196         961.123          17.000  
G21  21953280.839     -382115.144       -2991.019          38.000                                                                  
G27  20818200.813      851990.590        1948.255          34.000    20818195.789      230725.561        1449.857          18.000  
R 8  23911990.609                                          19.000  
R 9  19871505.391                                          29.000  
R20  20279457.370                                          20.000  
E 9  26821275.451      107186.569        2333.520          20.000    26821285.504      347114.755        1742.469          16.000  
E12  24346637.843     -365208.922       -2039.567          20.000    24346633.656      -75837.621       -1522.727          17.000  
E24  24521559.523     -481331.909       -1229.773          29.000    24521554.569      -83782.764        -917.778          20.000  
E31  24262825.941      111995.582         311.869           9.000                                                                  
J 3  37746978.700       50658.115         463.631          30.000    37746976.538       92199.069         347.840          19.000  
C 9  36496664.310      325405.986         869.307          32.000                                                                                                                                  
C10  37353313.376       -3001.213        -173.092          31.000                                                                                                                                  
C24  25328466.902     -583392.087       -2836.137          16.000                                                                                                                                  
C26  22117316.418     -164368.065       -1463.723          33.000                                                                    22117312.402     -274647.000       -1102.035          25.000  
C29  23990917.692      112644.659        2460.238          18.000                                                                                                                                  
C35  21607786.971      -65995.505        -138.954          33.000                                                                    21607784.822      -28901.472        -106.237          20.000  
> 2022  1 20  8 46 16.0000000  0 20                     
G 4  23061386.576      292321.322           0.002          19.000    23061390.259      665062.213        1984.386          19.000  
G 7  22984609.404    -1437837.888       -3192.346          19.000                                                                  
G 8  20226502.532      -52853.008         -85.456          36.000    20226499.672      -19631.034         -63.049          24.000  
G 9  22882893.277      568897.393        1287.343          23.000    22882892.126      259490.483         962.768          17.000  
G21  21952710.702     -397830.620       -2990.697          39.000                                                                  
G27  20818570.991      862221.209        1947.815          28.000    20818568.410      236430.114        1456.072          26.000  
R 8  23912276.164                                          20.000  
R 9  19871297.105                                          32.000  
R20  20278870.150                                          17.000  
E 9  26821719.559      119452.140        2333.183          22.000    26821730.275      353956.095        1743.720          16.000  
E12  24346249.715     -375928.726       -2036.945          14.000    24346245.144      -81820.710       -1523.704          15.000  
E24  24521325.062     -487799.799       -1230.854          34.000    24521320.248      -87389.625        -918.916          25.000  
E31  24262885.307      113634.669         311.960           9.000                                                                  
J 3  37747066.564       53094.163         462.998          26.000    37747064.891       93558.487         347.417          18.000  
C 9  36496831.694      329928.018         867.507          27.000                                                                                                                                  
C10  37353280.675       -3907.461        -174.442          31.000                                                                                                                                  
C24  25327922.734     -598156.172           0.002          14.000                                                                                                                                  
C26  22117035.330     -171988.016       -1463.311          37.000                                                                    22117031.663     -278973.956       -1102.932          20.000  
C29  23991397.660      125460.201        2463.843          15.000                                                                                                                                  
C35  21607759.700      -66724.825        -139.467          30.000                                                                    21607758.162      -29309.047        -101.951          19.000  
> 2022  1 20  8 46 17.0000000  0 18                     
G 4  23061892.318      306281.548        2656.647          18.000    23061895.740      672844.502        1983.361          17.000  
G 7  22983987.880    -1454613.101       -3192.586          17.000                                                                  
G 8  20226484.312      -53297.742         -82.623          36.000    20226483.633      -19879.549         -62.955          23.000  
G 9  22883138.679      575667.115        1288.528          24.000    22883137.634      263270.075         965.137          18.000  
G21  21952142.645     -413549.303       -2990.997          39.000                                                                  
G27  20818941.779      872462.864        1950.608          30.000    20818939.547      242140.510        1455.796          24.000  
R 9  19871088.715                                          31.000  
E 9  26822163.702      131708.173        2333.931          20.000    26822174.941      360799.344        1743.675          16.000  
E12  24345861.954     -386638.273       -2039.798          17.000    24345856.772      -87805.456       -1524.940          15.000  
E24  24521091.893     -494268.659       -1230.958          30.000    24521086.101      -90996.725        -919.032          24.000  
E31  24262944.725      115275.272         312.617           9.000                                                                  
J 3  37747154.359       55530.551         464.648          28.000    37747153.627       94919.969         347.886          18.000  
C 9  36496999.009      334450.662         867.934          27.000                                                                                                                                  
C10  37353248.776       -4813.769        -173.849          30.000                                                                                                                                  
C24  25327378.357     -612918.582           0.002          15.000                                                                                                                                  
C26  22116754.713     -179607.405       -1463.983          37.000                                                                    22116749.894     -283305.381       -1102.946          19.000  
C29  23991870.840      138290.043        2465.415          13.000                                                                                                                                  
C35  21607732.292      -67446.130        -137.972          30.000                                                                    21607731.748      -29717.289        -103.536          20.000  
> 2022  1 20  8 46 18.0000000  0 21                     
G 1  24778889.646     -550100.254          -0.015          14.000                                                                  
G 4  23062399.303      320249.037        2656.286          20.000    23062401.189      680625.069        1984.261          23.000  
G 7  22983382.602    -1471402.171       -3197.615          17.000                                                                  
G 8  20226469.897      -53744.562         -83.092          35.000    20226467.560      -20128.865         -62.728          25.000  
G 9  22883385.355      582441.563        1289.865          20.000    22883378.656      267052.274         961.209          20.000  
G21  21951574.675     -429272.319       -2992.985          34.000                                                                  
G27  20819313.385      882705.398        1948.133          23.000    20819310.699      247850.930        1457.321          23.000  
R 8  23912811.275                                          18.000  
R 9  19870882.610                                          29.000  
R20  20277691.912                                          18.000  
E 9  26822607.251      143966.294        2331.411          24.000    26822618.473      367639.105        1744.895          17.000  
E12  24345473.669     -397362.495       -2042.409          18.000    24345468.540      -93788.273       -1523.983          17.000  
E24  24520856.925     -500741.217       -1231.439          27.000    24520851.779      -94608.811        -921.140          19.000  
E31  24263004.213      116917.605         312.320           9.000                                                                  
J 3  37747241.839       57964.996         462.223          33.000    37747241.421       96279.172         346.193          24.000  
C 9  36497166.008      338970.630         869.742          33.000                                                                                                                                  
C10  37353216.388       -5718.596        -173.342          28.000                                                                                                                                  
C24  25326834.120     -627689.232       -2835.548          17.000                                                                                                                                  
C26  22116473.276     -187234.417       -1462.885          25.000                                                                    22116468.562     -287633.234       -1102.360          24.000  
C29  23992341.979      151125.924        2463.215          16.000                                                                                                                                  
C35  21607705.582      -68167.494        -137.380          34.000                                                                    21607704.654      -30125.709        -101.514          22.000  
> 2022  1 20  8 46 19.0000000  0 18                     
G 4  23062906.860      334206.470        2653.946          20.000    23062906.739      688409.798        1984.733          21.000  
G 7  22982774.147    -1488205.224       -3195.051          16.000                                                                  
G 8  20226451.713      -54184.993         -82.892          35.000    20226451.889      -20373.389         -62.234          24.000  
G 9  22883630.897      589224.753        1290.993          18.000    22883623.936      270824.703         961.665          19.000  
G21  21951004.381     -444987.111       -2989.405          39.000                                                                  
G27  20819685.170      892945.342        1951.335          35.000    20819682.257      253569.714        1458.666          19.000  
R 9  19870672.981                                          29.000  
E 9  26823051.464      156222.888        2332.336          21.000    26823059.964      374489.743        1748.299          17.000  
E12  24345085.297     -408096.705       -2042.103          18.000    24345079.958      -99765.017       -1522.187          16.000  
E24  24520622.726     -507207.914       -1230.428          29.000    24520616.951      -98229.231        -920.804          19.000  
E31  24263063.665      118559.628         312.808           9.000                                                                  
J 3  37747328.743       60397.513         462.609          28.000    37747329.512       97637.038         346.821          21.000  
C 9  36497333.165      343497.159         869.412          33.000                                                                                                                                  
C10  37353184.664       -6617.115        -173.452          32.000                                                                                                                                  
C24  25326289.673     -642453.025       -2835.377          16.000                                                                                                                                  
C26  22116192.345     -194855.279       -1463.156          33.000                                                                    22116188.207     -291959.988       -1102.019          24.000  
C29  23992814.843      163945.438        2460.826          15.000                                                                                                                                  
C35  21607680.475      -68879.097        -136.156          35.000                                                                    21607678.011      -30527.869        -101.358          20.000  
> 2022  1 20  8 46 20.0000000  0 21                     
G 1  24777371.234     -592031.797          -0.015          17.000                                                                  
G 4  23063413.126      348157.032        2655.505          22.000    23063412.464      696198.193        1986.169          20.000  
G 7  22982159.175    -1504993.172       -3193.616          16.000                                                                  
G 8  20226437.473      -54617.988         -82.332          37.000    20226436.166      -20617.130         -61.732          26.000  
G 9  22883877.382      596011.198           0.001          21.000    22883873.788      274595.289         961.606          18.000  
G21  21950436.621     -460695.328       -2990.519          35.000                                                                  
G27  20820058.399      903194.531        1947.939          32.000    20820052.869      259285.984        1456.603          20.000  
R 8  23913347.730                                          18.000  
R 9  19870465.707                                          35.000  
R20  20276509.328                                          23.000  
E 9  26823495.293      168481.224        2332.992          20.000    26823501.960      381340.870        1742.973          17.000  
E12  24344696.070     -418820.340       -2040.147          20.000    24344692.005     -105743.597       -1522.974          17.000  
E24  24520389.486     -513673.229       -1230.070          32.000    24520383.049     -101841.678        -917.493          21.000  
E31  24263123.223      120203.918         313.326          10.000                                                                  
J 3  37747416.328       62828.618         464.091          30.000    37747417.865       98992.247         345.529          21.000  
C 9  36497500.148      348026.836         870.212          29.000                                                                                                                                  
C10  37353152.807       -7522.053        -172.900          27.000                                                                                                                                  
C24  25325745.156     -657219.219       -2835.704          18.000                                                                                                                                  
C26  22115911.972     -202468.463       -1462.730          33.000                                                                    22115907.537     -296285.337       -1103.059          23.000  
C29  23993287.587      176763.665        2461.385          16.000                                                                                                                                  
C35  21607653.729      -69588.559        -135.056          31.000                                                                    21607651.825      -30931.976        -100.865          21.000  
> 2022  1 20  8 46 21.0000000  0 21                     
G 1  24776612.813     -612996.225       -3990.519          18.000                                                                  
G 4  23063918.118      362117.655           0.002          25.000    23063918.503      703990.507        1987.152          22.000  
G 7  22981551.680    -1521770.556       -3192.538          17.000                                                                  
G 8  20226423.407      -55047.842         -81.086          38.000    20226420.599      -20856.059         -60.387          28.000  
G 9  22884124.651      602792.641        1290.694          19.000    22884117.743      278378.771         964.288          21.000  
G21  21949865.754      -10029.877       -2989.536          38.000                                                                  
G27  20820428.001      913442.061        1952.167          30.000    20820424.355      265004.181        1457.950          22.000  
R 8  23913614.299                                          16.000  
R 9  19870257.823                                          32.000  
R20  20275944.918                                          23.000  
E 9  26823939.174      180744.254        2333.633          22.000    26823946.766      388177.653        1743.563          18.000  
E12  24344309.111     -429550.289       -2041.954          18.000    24344304.384     -111730.583       -1526.405          17.000  
E24  24520156.495     -520135.877       -1229.774          30.000    24520149.900     -105444.569        -916.825          21.000  
E31  24263182.868      121850.937         313.552          10.000                                                                  
J 3  37747504.750       65271.042         464.020          32.000    37747505.223      100351.544         345.538          20.000  
C 9  36497666.763      352563.489         870.065          33.000                                                                                                                                  
C10  37353119.984       -8418.628        -171.190          27.000                                                                                                                                  
C24  25325201.565     -671984.879       -2836.448          15.000                                                                                                                                  
C26  22115632.001     -210077.794       -1461.549          33.000                                                                    22115627.147     -300606.746       -1101.186          26.000  
C29  23993761.081      189582.412        2462.038          16.000                                                                                                                                  
C35  21607627.001      -70292.256        -134.990          31.000                                                                    21607625.742      -31332.524        -101.054          22.000  
> 2022  1 20  8 46 22.0000000  0 20                     
G 1  24775853.397     -633968.422       -3989.197          17.000                                                                  
G 4  23064425.291      376083.354        2658.895          24.000    23064424.071      711780.053        1985.764          22.000  
G 7  22980945.704    -1538542.111           0.011          17.000                                                                  
G 8  20226406.130      -55472.585         -79.270          31.000    20226405.224      -21093.491         -59.518          25.000  
G 9  22884373.352      609578.995        1292.556          24.000    22884364.681      282159.624         962.172          19.000  
G21  21949294.989      -25730.050       -2986.292          33.000                                                                  
G27  20820799.851      923695.052        1950.343          26.000    20820795.193      270724.583        1457.814          26.000  
R 9  19870050.165                                          24.000  
R20  20275354.752                                          29.000  
E 9  26824383.247      193007.814        2333.938          26.000    26824391.084      395015.334        1743.407          17.000  
E12  24343920.791     -440273.217       -2038.180          20.000    24343915.575     -117722.492       -1526.843          17.000  
E24  24519922.470     -526597.517       -1229.378          24.000    24519916.119     -109049.040        -918.756          20.000  
E31  24263242.548      123499.004         314.040          11.000                                                                  
J 3  37747593.871       67710.604         463.811          31.000    37747593.733      101712.537         346.752          25.000  
C 9  36497834.112      357111.213         872.423          29.000                                                                                                                                  
C10  37353087.212       -9307.455        -171.148          19.000                                                                                                                                  
C24  25324656.961     -686752.337       -2834.256          13.000                                                                                                                                  
C26  22115351.231     -217686.761       -1460.824          28.000                                                                    22115346.464     -304933.330       -1099.578          20.000  
C29  23994235.011      202397.466        2460.329          22.000                                                                                                                                  
C35  21607600.830      -71004.890        -135.589          32.000                                                                    21607599.850      -31730.692        -102.225          20.000  
> 2022  1 20  8 46 23.0000000  0 19                     
G 4  23064931.783      390060.875        2661.283          24.000    23064930.703      719572.819        1986.679          19.000  
G 7  22980338.506    -1555306.941       -3189.023          17.000                                                                  
G 8  20226394.193      -55887.666         -78.860          37.000    20226389.954      -21328.573         -58.677          24.000  
G 9  22884620.586      616369.387           0.001          20.000    22884610.135      285934.840         964.012          18.000  
G21  21948726.269       -5944.605       -2987.398          39.000                                                                  
G27  20821171.653      933953.834        1952.022          34.000    20821166.612      276440.228        1454.987          20.000  
R 9  19869844.619                                          26.000  
R20  20274769.469                                          21.000  
E 9  26824827.303      205272.111        2333.631          22.000    26824836.413      401858.944        1743.022          18.000  
E12  24343533.449     -450970.410       -2034.763          19.000    24343526.226     -123710.692       -1526.033          13.000  
E24  24519687.695     -533057.563       -1229.362          31.000    24519681.972     -112651.093        -917.056          17.000  
E31  24263302.437      125152.503         315.224          12.000                                                                  
J 3  37747681.840       70150.947         462.697          26.000    37747682.208      103075.295         347.841          22.000  
C 9  36498001.652      361649.850         871.186          33.000                                                                                                                                  
C10  37353054.179      -10196.387        -171.888          30.000                                                                                                                                  
C24  25324113.003     -701502.715       -2830.653          15.000                                                                                                                                  
C26  22115071.085     -225297.172       -1460.757          31.000                                                                    22115066.353     -309247.251       -1100.378          23.000  
C29  23994707.110      215206.649        2458.025          18.000                                                                                                                                  
C35  21607576.109      -71696.270        -132.772          34.000                                                                    21607574.466      -32121.901         -99.940          21.000  
> 2022  1 20  8 46 24.0000000  0 18                     
G 4  23065438.834      404033.772        2659.292          22.000    23065437.335      727372.523        1988.299          19.000  
G 7  22979735.853    -1572063.524       -3189.728          17.000                                                                  
G 8  20226376.725      -56308.849         -80.492          36.000    20226374.458      -21564.058         -59.953          24.000  
G 9  22884865.657      623150.735        1291.252          21.000    22884856.951      289724.553         968.271          18.000  
G21  21948162.365      -21642.041       -2986.743          39.000                                                                  
G27  20821544.743      944215.160        1951.230          34.000    20821537.345      282147.754        1455.867          19.000  
R 9  19869637.991                                          25.000  
E 9  26825271.882      217532.817        2332.084          19.000    26825281.185      408694.704        1741.091          19.000  
E12  24343145.496     -461671.386       -2036.212          17.000    24343137.679     -129698.402       -1525.258          14.000  
E24  24519452.867     -539519.655       -1229.616          31.000    24519447.825     -116255.185        -922.299          20.000  
E31  24263362.448      126808.945         315.027          11.000                                                                  
J 3  37747771.082       72587.057         464.661          24.000    37747770.683      104433.711         346.857          20.000  
C 9  36498169.298      366183.346         872.769          33.000                                                                                                                                  
C10  37353021.023      -11092.727        -172.545          32.000                                                                                                                                  
C24  25323567.526     -716247.308           0.002          14.000                                                                                                                                  
C26  22114790.294     -232905.574       -1462.246          31.000                                                                    22114785.178     -313566.441       -1098.754          24.000  
C29  23995179.243      228008.167        2458.011          14.000                                                                                                                                  
C35  21607551.787      -72398.798        -133.535          33.000                                                                    21607548.975      -32518.198        -100.145          21.000  
> 2022  1 20  8 46 25.0000000  0 18                     
G 4  23065945.309      418007.935        2658.250          20.000    23065943.409      735170.960        1988.344          19.000  
G 7  22979128.970    -1588824.366       -3189.943          18.000                                                                  
G 8  20226362.346      -56731.872         -79.009          36.000    20226358.979      -21796.859         -59.129          23.000  
G 9  22885111.967      629943.469        1293.554          23.000    22885103.715      293515.575         965.654          18.000  
G21  21947595.312      -37334.312       -2986.432          40.000                                                                  
G27  20821915.566      954477.987        1952.131          34.000    20821908.744      287866.900        1458.194          19.000  
R 9  19869429.653                                          25.000  
E 9  26825715.763      229790.519        2333.548          18.000    26825725.729      415527.053        1743.280          18.000  
E12  24342757.979     -472365.172       -2032.408          18.000    24342749.272     -135684.497       -1522.776          13.000  
E24  24519218.388     -545980.283       -1229.505          30.000    24519212.753     -119882.382        -924.089          19.000  
E31  24263422.425      128464.959         315.711          11.000                                                                  
J 3  37747858.877       75025.692         464.121          25.000    37747859.402      105794.227         347.194          22.000  
C 9  36498336.385      370724.221         870.328          32.000                                                                                                                                  
C10  37352987.973      -11983.691        -171.865          31.000                                                                                                                                  
C24  25323023.428     -731001.822           0.002          16.000                                                                                                                                  
C26  22114509.956     -240507.537       -1459.107          33.000                                                                    22114504.858     -317885.807       -1101.024          24.000  
C29  23995651.201      240804.663        2457.429          12.000                                                                                                                                  
C35  21607527.136      -73088.206        -134.151          33.000                                                                    21607523.416      -32911.406         -99.664          22.000  
> 2022  1 20  8 46 26.0000000  0 20                     
G 1  24772808.248     -717865.320          -0.015          15.000                                                                  
G 4  23066452.221      431978.855        2658.183          22.000    23066449.099      742969.189        1986.943          22.000  
G 7  22978524.389    -1605586.248       -3188.230          16.000                                                                  
G 8  20226345.907      -57147.226         -77.455          33.000    20226343.866      -22027.966         -59.013          23.000  
G 9  22885358.312      636743.293        1293.211          21.000    22885351.229      297308.465         968.914          17.000  
G21  21947026.261      -53027.525       -2985.645          35.000                                                                  
G27  20822285.307      964739.152        1953.927          32.000    20822281.033      293588.970        1459.129          24.000  
R 9  19869222.467                                          24.000  
R20  20273006.387                                          20.000  
E 9  26826159.906      242056.966        2334.555          23.000    26826170.099      422368.806        1744.252          16.000  
E12  24342371.247     -483047.233       -2034.061          17.000    24342361.372     -141659.083       -1523.564          16.000  
E24  24518985.659     -552428.525       -1224.384          20.000    24518977.947     -123502.377        -921.321          18.000  
E31  24263484.233      130124.882         316.204          10.000                                                                  
J 3  37747947.212       77467.530         464.273          35.000    37747947.964      107155.508         347.275          23.000  
C 9  36498503.262      375256.082         871.396          29.000                                                                                                                                  
C10  37352955.236      -12876.570        -171.829          19.000                                                                                                                                  
C24  25322468.878     -745768.700       -2834.942          19.000                                                                                                                                  
C26  22114229.269     -248115.959       -1460.765          21.000                                                                    22114224.625     -322204.464       -1106.512          19.000  
C29  23996127.819      253610.785        2460.033          19.000                                                                                                                                  
C35  21607500.914      -73776.151        -130.737          33.000                                                                    21607497.194      -33307.093         -97.607          21.000  
> 2022  1 20  8 46 27.0000000  0 20                     
G 1  24772048.588     -738844.651          -0.015          17.000                                                                  
G 4  23066959.027      445950.840           0.002          21.000    23066955.190      750764.876        1986.711          20.000  
G 7  22977917.942    -1622335.637       -3186.933          17.000                                                                  
G 8  20226328.088      -57554.973         -78.172          33.000    20226328.788      -22256.420         -58.571          23.000  
G 9  22885604.796      643549.541        1295.987          20.000    22885598.236      301111.354         968.008          17.000  
G21  21946456.088      -68707.413       -2984.661          35.000                                                                  
G27  20822656.933      975007.768        1954.348          35.000    20822652.955      299315.777        1459.910          23.000  
R 9  19869013.378                                          29.000  
R20  20272423.584                                          20.000  
E 9  26826603.107      254324.738        2334.079          25.000    26826612.741      429205.312        1741.540          17.000  
E12  24341984.480     -493728.516       -2035.263          19.000    24341972.546     -147635.644       -1522.379          17.000  
E24  24518751.756     -558876.337       -1229.121          21.000    24518743.678     -127111.674        -919.285          20.000  
E31  24263544.524      131789.810         317.294           9.000                                                                  
J 3  37748035.879       79911.402         465.734          34.000    37748036.666      108518.379         347.826          22.000  
C 9  36498669.582      379803.589         872.087          29.000                                                                                                                                  
C10  37352921.993      -13779.026           0.003          20.000                                                                                                                                  
C24  25321922.861     -760528.984       -2835.338          21.000                                                                                                                                  
C26  22113948.652     -255719.345       -1458.963          22.000                                                                    22113942.926     -326543.447       -1105.286          17.000  
C29  23996599.987      266413.344        2458.175          18.000                                                                                                                                  
C35  21607475.022      -74456.692        -130.627          31.000                                                                    21607471.512      -33699.450        -100.658          19.000  
> 2022  1 20  8 46 28.0000000  0 20                     
G 1  24771288.840     -759827.944          -0.015          17.000                                                                  
G 4                                                                  23125643.583      758558.174        1985.019          24.000  
G 7  22977313.945    -1639086.396       -3187.585          17.000                                                                  
G 8  20226314.877      -57961.956         -78.109          26.000    20226313.099      -22484.224         -59.112          25.000  
G 9  22885848.611      650360.165        1294.851          20.000    22885844.773      304911.696         967.892          18.000  
G21  21945888.223      -84395.452       -2985.538          34.000                                                                  
G27  20823027.090      985278.362        1954.070          31.000    20823024.823      305042.539        1458.652          23.000  
R 9  19868804.132                                          25.000  
R20  20271838.374                                          19.000  
E 9  26827045.261      266590.539        2333.984          25.000    26827053.010      436039.555        1740.802          17.000  
E12  24341594.328     -504428.764       -2034.518          19.000    24341591.555     -153612.634       -1523.800          18.000  
E24  24518517.347     -565349.820       -1235.822          16.000    24518510.229     -130712.718        -918.876          20.000  
E31  24410804.950      133457.993         317.684           7.000                                                                  
J 3  37748127.390       82352.688         465.459          34.000    37748124.949      109879.584         345.793          24.000  
C 9  36498836.722      384346.443         872.494          32.000                                                                                                                                  
C10  37352890.461      -14672.751        -171.267          20.000                                                                                                                                  
C24  25321377.541     -775295.234       -2836.023          20.000                                                                                                                                  
C26  22113668.471     -263316.124       -1461.111          18.000                                                                    22113659.482     -330869.133       -1099.379          19.000  
C29  23997072.260      279214.945        2458.197          19.000                                                                                                                                  
C35  21607449.219      -75140.109        -130.172          29.000                                                                    21607445.796      -34088.097         -99.622          21.000  
