     3.04           OBSERVATION DATA    M: Mixed            RINEX VERSION / TYPE
Higeo_Hi1105        Huawei CBG          20220123 112148 UTC PGM / RUN BY / DATE 
************************************************************COMMENT             
* If you have any problem,                                 *COMMENT             
*     please contact with LBS Technology Group, thanks.    *COMMENT             
*                                                          *COMMENT             
* Version Higeo2RinexV1.1 2020.07.21                       *COMMENT             
* Fuction:  Convert Higeo Log to Rinex file                *COMMENT             
*                                                          *COMMENT             
* Note that the verision support B1C B2A signal            *COMMENT             
*     BDS: C1D L1D D1D S1D indicate BDS B1C                *COMMENT             
*     BDS: C5D L5D D5D S5D indicate BDS B2A                *COMMENT             
*     Reference: RINEX V3.04                               *COMMENT             
*                                                          *COMMENT             
* Copyright(C) Huawei Technologies Co., Ltd. 2019 - 2020   *COMMENT             
*     All rights reserved.                                 *COMMENT             
************************************************************COMMENT             
                                                            MARKER NAME         
                                                            MARKER NUMBER       
                                                            MARKER TYPE         
                                                            OBSERVER / AGENCY   
                                                            REC # / TYPE / VERS 
                                                            ANT # / TYPE        
        0.0000        0.0000        0.0000                  APPROX POSITION XYZ 
        0.0000        0.0000        0.0000                  ANTENNA: DELTA H/E/N
G    8 C1C L1C D1C S1C C5I L5I D5I S5I                      SYS / # / OBS TYPES 
R    4 C1C L1C D1C S1C                                      SYS / # / OBS TYPES 
E    8 C1C L1C D1C S1C C5I L5I D5I S5I                      SYS / # / OBS TYPES 
J    8 C1C L1C D1C S1C C5I L5I D5I S5I                      SYS / # / OBS TYPES 
C   12 C2I L2I D2I S2I C1D L1D D1D S1D C5D L5D D5D S5D      SYS / # / OBS TYPES 
  2021    12     7     4    25   56.0000000     GPS         TIME OF FIRST OBS   
  2021    12     7     4    45   43.0000000     GPS         TIME OF LAST OBS    
G                                                           SYS / PHASE SHIFT   
R                                                           SYS / PHASE SHIFT   
E                                                           SYS / PHASE SHIFT   
J                                                           SYS / PHASE SHIFT   
C                                                           SYS / PHASE SHIFT   
  0                                                         GLONASS SLOT / FRQ #
 C1C    0.000 C1P    0.000 C2C    0.000 C2P    0.000        GLONASS COD/PHS/BIS 
                                                            END OF HEADER       
> 2021 12  7  4 25 56.0000000  0  7                     
G10                     18008.900         521.964          29.000                        4953.588         388.869          23.000  
G21                    -16880.545        -687.290          18.000                                                                  
G25                    -46573.444       -1848.626          30.000                                                                  
G31                   -107377.036       -2766.574          24.000                                                                  
G32                    -16061.603       -1027.138          21.000                                                                  
R 7                                                        22.000  
R 8                                                        23.000  
> 2021 12  7  4 25 57.0000000  0  7                     
G10                     20745.774         521.723          29.000                        6481.281         388.919          24.000  
G21                    -20493.259        -690.324          17.000                                                                  
G25                    -56288.682       -1848.479          34.000                                                                  
G31                   -121929.596       -2770.021          24.000                                                                  
G32                    -21459.103       -1025.698          32.000                                                                  
R 7                                                        21.000  
R 8                                                        29.000  
> 2021 12  7  4 25 58.0000000  0  7                     
G10                     23485.509         520.888          20.000                        8009.285         389.462          26.000  
G21                    -24120.821        -688.858          18.000                                                                  
G25                    -65997.411       -1846.967          30.000                                                                  
G31                   -136475.683       -2767.703          27.000                                                                  
G32                    -26849.529       -1026.465          24.000                                                                  
R 7                                                        20.000  
R 8                                                        17.000  
> 2021 12  7  4 25 59.0000000  0  7                     
G10                     26224.297         522.015          30.000                        9537.849         389.271          25.000  
G21                    -27741.394        -686.648          20.000                                                                  
G25                    -75710.722       -1846.923          32.000                                                                  
G31                   -151021.400       -2767.292          28.000                                                                  
G32                    -32247.290       -1027.137          30.000                                                                  
R 7                                                        19.000  
R 8                                                        18.000  
> 2021 12  7  4 26  0.0000000  0  7                     
G10                     28963.392         520.506          34.000                       11066.384         389.350          26.000  
G21                    -31363.206        -692.012          22.000                                                                  
G25                    -85415.629       -1846.228          18.000                                                                  
G31                   -165565.846       -2768.367          29.000                                                                  
G32                    -37627.782       -1025.642          21.000                                                                  
R 7                                                        18.000  
R 8                                                        25.000  
> 2021 12  7  4 26  1.0000000  0  7                     
G10                     31691.563         519.777          24.000                       12594.596         388.585          23.000  
G21                    -34990.441        -688.935          18.000                                                                  
G25                    -95128.094       -1849.647          29.000                                                                  
G31                   -180115.126       -2770.176          27.000                                                                  
G32                    -43028.481       -1029.471          28.000                                                                  
R 7                                                        17.000  
R 8                                                        23.000  
> 2021 12  7  4 26  3.0000000  0  7                     
G10                     35629.116         521.807          28.000                       14797.194         390.617          16.000  
G21                    -40194.477        -685.815          17.000                                                                  
G25                   -109117.200       -1848.679          23.000                                                                  
G31                   -201078.234       -2769.854          25.000                                                                  
G32                    -50821.704       -1025.590          28.000                                                                  
R 7                                                        18.000  
R 8                                                        24.000  
> 2021 12  7  4 26  4.0000000  0  9                     
G10                     38375.077         522.429          28.000                       16331.712         392.294          17.000  
G21                    -43812.995        -690.972          17.000                                                                  
G25                   -118825.106       -1847.541          24.000                                                                  
G31                   -215634.365       -2769.397          22.000                                                                  
G32                    -56223.717       -1028.703          34.000                                                                  
R 7                                                        19.000  
R 8                                                        22.000  
E 9                     -3810.924        -877.290          30.000                                                                  
E11                     19388.963        2859.901          18.000                                                                  
> 2021 12  7  4 26  5.0000000  0 10                     
G10                     41110.339         519.014          36.000                       17871.088         392.956          19.000  
G21                    -47443.516        -690.774          17.000                                                                  
G25                   -128543.709       -1850.377          24.000                                                                  
G31                   -230191.743       -2771.701          31.000                                                                  
G32                    -61630.474       -1028.402          30.000                                                                  
R 7                                                        22.000  
R 8                                                        23.000  
E 9                     -8426.134        -878.641          25.000                                                                  
E11                     34412.769        2856.841          27.000                                                                  
E36                      7649.155        1665.403          20.000                                                                  
> 2021 12  7  4 26  6.0000000  0  8                     
G10                     43846.285         520.181          30.000                       19401.367         390.000          20.000  
G21                    -51064.281        -687.124          17.000                                                                  
G25                   -138269.999       -1849.264          30.000                                                                  
G31                   -244750.898       -2770.566          22.000                                                                  
G32                    -67032.428       -1029.034          25.000                                                                  
R 7                                                        21.000  
R 8                                                        20.000  
E36                     16394.630        1663.273          23.000                                                                  
> 2021 12  7  4 26  7.0000000  0 13                     
G10                     46580.869         520.388          29.000                       20931.798         392.867          21.000  
G21                    -54671.957        -687.074          17.000                                                                  
G23                     89405.105        2748.921          17.000                                                                  
G25                   -147973.954       -1846.392          30.000                                                                  
G31                   -259308.557       -2770.638          20.000                                                                  
G32                    -72444.504       -1029.628          22.000                                                                  
R 7                                                        22.000  
R 8                                                        27.000  
R 9                                                        23.000  
E 9                     -4453.021        -876.566          19.000                                                                  
E11                                                                                     12637.081        2137.109          17.000  
E36                     25145.528        1667.045          17.000                                                                  
C 8                     10134.163        1862.129          27.000                                                                                                                                  
> 2021 12  7  4 26  8.0000000  0 17                     
G10                     49326.706         524.654          32.000                       22464.923         390.808          19.000  
G21                    -58280.277        -687.260          17.000                                                                  
G23                    103852.363        2748.158          15.000                                                                  
G25                   -157683.492       -1847.998          37.000                                                                  
G31                   -273865.063       -2768.178          35.000                                                                  
G32                    -77858.168       -1029.856          37.000                                                                  
R 7                                                        20.000  
R 8                                                        19.000  
R 9                                                        27.000  
E 9                     -9067.931        -878.632          30.000                                                                  
E11                     30559.401        2857.763          18.000                       21017.616        2134.164          17.000  
E36                     33888.414        1664.425          22.000                       10658.622        1244.567          21.000  
J 1                    -61694.017        -756.634          27.000                                                                  
J 2                     28607.411         304.440          25.000                       12339.765         230.157          19.000  
C 8                     19828.177        1861.929          28.000                                                                                                                                  
C21                       332.806         114.689          33.000                                                                                                                                  
C26                     -7790.982       -1960.092          33.000                                                                                                                                  
> 2021 12  7  4 26  9.0000000  0 20                     
G10                     52071.912         519.117          29.000                       23993.997         390.715          20.000  
G21                    -61891.274        -686.543          18.000                                                                  
G23                    118306.084        2749.713          17.000                                                                  
G25                   -167410.858       -1851.840          34.000                                                                  
G31                   -288412.230       -2768.610          30.000                                                                  
G32                    -83275.225       -1027.812          28.000                                                                  
R 7                                                        21.000  
R 8                                                        20.000  
R 9                                                        22.000  
E 9                    -13691.826        -879.310          22.000                                                                  
E11                     45576.327        2854.847          22.000                       29390.123        2134.198          16.000  
E24                    -15562.127       -3040.904          28.000                                                                  
E36                     42647.202        1666.943          23.000                       15542.257        1246.744          19.000  
J 1                    -65678.153        -759.937          31.000                                                                  
J 2                     30205.430         304.984          31.000                       13237.727         227.176          20.000  
C 3                       580.937         122.846          27.000                                                                                                                                  
C 8                     29509.078        1859.692          26.000                                                                                                                                  
C13                     11381.367        1700.582          29.000                                                                                                                                  
C21                       933.893         114.389          21.000                                                                                                                                  
C26                    -18004.336       -1964.108          30.000                                                                                                                                  
> 2021 12  7  4 26 10.0000000  0 20                     
G10                     54803.451         520.536          29.000                       25520.140         390.053          21.000  
G21                    -65503.859        -687.105          19.000                                                                  
G23                    132754.037        2749.315          17.000                                                                  
G25                   -177140.618       -1852.641          25.000                                                                  
G31                   -302963.143       -2771.884          30.000                                                                  
G32                    -88691.482       -1031.077          25.000                                                                  
R 7                                                        19.000  
R 8                                                        21.000  
R 9                                                        20.000  
E 9                    -18315.824        -879.732          20.000                                                                  
E11                     60573.213        2854.140          23.000                       37761.363        2133.920          20.000  
E24                    -31552.120       -3042.936          26.000                                                                  
E36                     51407.417        1666.515          24.000                       20427.024        1244.823          20.000  
J 1                    -69664.909        -760.785          20.000                                                                  
J 2                     31804.605         305.095          24.000                       14114.111         223.200          19.000  
C 3                      1226.563         116.364          26.000                                                                                                                                  
C 8                     39191.356        1858.040          24.000                                                                                                                                  
C13                     20230.368        1698.594          25.000                                                                                                                                  
C21                      1523.830         110.468          20.000                                                                                                                                  
C26                    -28223.158       -1961.190          34.000                                                                                                                                  
> 2021 12  7  4 26 11.0000000  0 19                     
G10                     57534.385         518.543          27.000                       27049.566         391.211          21.000  
G21                    -69110.554        -684.747          18.000                                                                  
G23                    147199.377        2749.245          17.000                                                                  
G25                   -186873.608       -1850.778          28.000                                                                  
G31                   -317522.261       -2768.238          32.000                                                                  
G32                    -94107.921       -1031.787          22.000                                                                  
R 7                                                        20.000  
R 8                                                        20.000  
R 9                                                        20.000  
E 9                    -22937.858        -880.057          19.000                                                                  
E11                     75573.615        2854.264          21.000                       46129.095        2132.819          22.000  
E36                     60171.250        1665.874          20.000                       25306.036        1242.873          19.000  
J 1                    -73656.484        -760.909          18.000                                                                  
J 2                     33397.824         302.322          20.000                       14987.788         222.314          19.000  
C 3                      1915.893         135.769          28.000                                                                                                                                  
C 8                     48868.939        1859.246          26.000                                                                                                                                  
C13                     29075.049        1700.377          28.000                                                                                                                                  
C21                      2104.952         113.804          21.000                                                                                                                                  
C26                    -38443.157       -1964.862          30.000                                                                                       -7593.060       -1479.816          26.000  
> 2021 12  7  4 26 12.0000000  0 20                     
G10                     60283.507         528.175          27.000                       28583.848         390.265          18.000  
G21                    -72711.879        -686.057          19.000                                                                  
G23                    161645.314        2748.395          18.000                                                                  
G25                   -196602.525       -1852.553          27.000                                                                  
G31                   -332080.135       -2767.051          30.000                                                                  
G32                    -99520.711       -1031.624          22.000                                                                  
R 7                                                        21.000  
R 8                                                        17.000  
R 9                                                        18.000  
E 9                    -27559.561        -878.117          18.000                                                                  
E11                     90568.273        2852.649          18.000                       54502.628        2134.303          18.000  
E36                     68916.465        1664.991          19.000                       30188.604        1243.766          17.000  
J 1                    -77661.304        -760.296          20.000                                                                  
J 2                     34981.258         300.945          23.000                       15844.273         218.091          17.000  
C 3                      2631.619         133.374          24.000                                                                                                                                  
C 6                      1203.553         166.663          14.000                                                                                                                                  
C 8                     58552.930        1859.305          26.000                                                                                                                                  
C13                     37931.973        1702.339          25.000                                                                                                                                  
C21                      2689.678         113.064          21.000                                                                                                                                  
C26                    -48647.758       -1956.848          28.000                                                                                      -13404.262       -1479.660          21.000  
> 2021 12  7  4 26 13.0000000  0 24                     
G10                     63028.130         518.013          28.000                       30112.352         390.705          21.000  
G21                    -76325.553        -688.326          17.000                                                                  
G23                    176079.449        2745.834          18.000                                                                  
G25                   -206341.509       -1856.006          27.000                                                                  
G31                   -346625.673       -2768.022          29.000                                                                  
G32                   -104951.026       -1034.019          23.000                                                                  
R 7                                                        27.000  
R 8                                                        24.000  
R 9                                                        26.000  
E 4                     24872.365         983.185          25.000                                                                  
E 9                    -32192.367        -881.914          18.000                                                                  
E11                    105575.229        2854.047          22.000                       62871.384        2132.155          19.000  
E24                     -4379.820       -3041.701          26.000                                                                  
E36                     77659.604        1662.382          19.000                       35073.821        1244.568          17.000  
J 1                    -81663.681        -763.519          23.000                                                                  
J 2                     36559.540         299.046          30.000                                                                  
C 3                      3249.772         118.564          28.000                                                                                                                                  
C 6                      2070.950         167.114          20.000                                                                                                                                  
C 8                     68238.516        1859.583          24.000                                                                                                                                  
C 9                      1952.833         131.686          17.000                                                                                                                                  
C10                     -6423.031       -1183.085          23.000                                                                                                                                  
C13                     46793.062        1700.017          21.000                                                                                                                                  
C21                      3282.614         112.966          23.000                                                                                                                                  
C26                    -58853.244       -1962.490          27.000                                                                                      -19206.515       -1478.012          17.000  
> 2021 12  7  4 26 14.0000000  0 25                     
G10                     65752.853         518.410          29.000                       31636.832         388.958          20.000  
G21                    -79936.817        -688.695          19.000                                                                  
G23                    190506.260        2745.417          19.000                                                                  
G25                   -216075.667       -1849.486          28.000                       -4380.019       -1381.290          24.000  
G31                   -361181.997       -2768.997          27.000                                                                  
G32                   -110383.980       -1031.767          30.000                                                                  
R 7                                                        22.000  
R 8                                                        24.000  
R 9                                                        28.000  
E 4                     30046.838         983.891          21.000                                                                  
E 9                    -36831.151        -881.855          26.000                                                                  
E11                    120570.101        2854.355          20.000                       71239.836        2134.087          19.000  
E24                    -20366.410       -3043.229          22.000                                                                  
E31                    -22212.091       -1833.037          15.000                                                                  
E36                     86404.823        1664.177          22.000                       39953.203        1245.005          17.000  
J 1                    -85673.247        -763.385          23.000                                                                  
J 2                     38137.869         302.319          31.000                                                                  
C 3                      3831.733         114.231          27.000                                                                                                                                  
C 6                      2937.447         164.054          19.000                                                                                                                                  
C 8                     77921.869        1859.833          28.000                                                                                                                                  
C 9                      2632.343         128.510          19.000                                                                                                                                  
C10                    -12586.231       -1184.951          19.000                                                                                                                                  
C13                     55640.413        1699.865          25.000                                                                                                                                  
C21                      3872.822         113.155          20.000                                                                                                                                  
C26                    -69084.415       -1965.425          29.000                                                                                      -25005.687       -1476.682          20.000  
> 2021 12  7  4 26 15.0000000  0 26                     
G10                     68503.456         526.448          21.000                       33156.009         387.115          18.000  
G21                    -83556.575        -689.350          19.000                                                                  
G23                    204934.495        2745.726          19.000                                                                  
G25                   -225799.501       -1851.873          23.000                       -9795.590       -1379.993          24.000  
G31                   -375728.150       -2770.785          30.000                                                                  
G32                   -115819.764       -1034.047          25.000                                                                  
R 7                                                        22.000  
R 8                                                        27.000  
R 9                                                        24.000  
E 1                     35174.199         955.230          12.000                                                                  
E 4                     35229.954         989.538          18.000                                                                  
E 9                    -41470.489        -884.431          18.000                       -8739.506        -659.156          14.000  
E11                    135579.315        2854.681          22.000                       79615.120        2134.228          17.000  
E24                    -36349.569       -3041.467          25.000                                                                  
E31                    -31839.920       -1831.455          16.000                                                                  
E36                     95152.025        1664.665          22.000                       44839.467        1245.313          15.000  
J 1                    -89682.229        -762.195          22.000                                                                  
J 2                     39725.264         299.823          23.000                       18444.553         225.466          19.000  
C 3                      4432.329         108.608          29.000                                                                                                                                  
C 6                      3774.160         162.957          17.000                                                                                                                                  
C 8                     87609.642        1859.106          22.000                                                                                                                                  
C 9                      3308.059         129.041          20.000                                                                                                                                  
C10                    -18756.831       -1184.277          19.000                                                                                                                                  
C13                     64489.997        1700.084          25.000                                                                                                                                  
C21                      4465.960         114.826          23.000                                                                                                                                  
C26                    -79307.885       -1962.311          24.000                                                                                      -30806.913       -1477.430          18.000  
> 2021 12  7  4 26 16.0000000  0 25                     
G10                     71257.454         523.255          35.000                       34680.631         389.209          21.000  
G21                    -87182.496        -690.711          17.000                                                                  
G23                    219372.066        2749.789          17.000                                                                  
G25                   -235529.317       -1850.214          20.000                      -15209.167       -1380.225          19.000  
G31                   -390281.767       -2768.234          26.000                                                                  
G32                   -121251.792       -1033.610          23.000                                                                  
R 7                                                        23.000  
R 8                                                        28.000  
R 9                                                        26.000  
E 1                     40192.416         954.283          11.000                                                                  
E 9                    -46104.670        -881.608          30.000                                                                  
E11                    150573.719        2852.963          22.000                       87990.767        2132.793          20.000  
E24                    -52332.992       -3041.840          31.000                                                                  
E36                    103902.171        1667.053          18.000                       49721.012        1243.315          17.000  
J 1                    -93684.933        -760.676          17.000                                                                  
J 2                     41318.140         301.890          20.000                       19332.210         228.053          20.000  
C 3                      5030.594         109.918          29.000                                                                                                                                  
C 6                      4618.100         160.396          17.000                                                                                                                                  
C 8                     97292.533        1858.899          26.000                                                                                                                                  
C 9                      3986.185         129.251          17.000                                                                                                                                  
C10                    -24930.647       -1188.066          16.000                                                                                                                                  
C13                     73342.543        1699.010          19.000                                                                                                                                  
C14                    -73809.990       -2674.737          17.000                                                                                                                                  
C21                      5060.222         113.650          30.000                                                                                                                                  
C26                    -89517.081       -1960.257          32.000                                                                                      -36605.832       -1479.785          20.000  
> 2021 12  7  4 26 17.0000000  0 26                     
G10                     74013.375         525.291          34.000                       36216.414         391.415          23.000  
G21                    -90814.211        -688.713          15.000                                                                  
G23                    233835.482        2750.957          20.000                                                                  
G25                   -245237.892       -1846.562          19.000                      -20637.586       -1381.131          17.000  
G31                   -404829.584       -2768.825          29.000                                                                  
G32                   -126682.149       -1033.270          30.000                                                                  
R 7                                                        18.000  
R 8                                                        27.000  
R 9                                                        25.000  
E 1                     45209.225         954.088           9.000                                                                  
E 4                     45656.055         996.052          19.000                                                                  
E 9                    -50739.277        -882.021          26.000                      -13920.615        -657.427          18.000  
E11                    165564.112        2852.107          24.000                       96349.349        2130.325          20.000  
E24                    -68320.706       -3042.396          31.000                                                                  
E36                    112646.906        1664.962          22.000                       54592.086        1242.568          17.000  
J 1                    -97676.447        -758.496          17.000                                                                  
J 2                     42895.407         302.688          16.000                       20213.500         223.883          18.000  
C 3                      5618.923         110.606          30.000                                                                                                                                  
C 6                      5459.191         162.608          16.000                                                                                                                                  
C 8                    106976.253        1859.190          25.000                                                                                                                                  
C 9                      4657.728         128.995          19.000                                                                                                                                  
C13                     82191.362           0.017          17.000                                                                                                                                  
C14                    -87742.776       -2676.826          17.000                                                                                                                                  
C21                      5652.983         114.942          24.000                                                                                                                                  
C22                     67679.836        2349.648          18.000                                                                                                                                  
C26                    -99724.556       -1960.319          24.000                                                                                      -42409.639       -1480.454          20.000  
> 2021 12  7  4 26 18.0000000  0 28                     
G10                     76767.591         523.562          31.000                       37753.029         391.784          24.000  
G21                    -94429.698        -687.804          17.000                                                                  
G23                    248291.911        2750.571          24.000                                                                  
G25                   -254936.176       -1844.693          24.000                      -26049.223       -1378.748          18.000  
G31                   -419385.337       -2770.094          26.000                                                                  
G32                   -132110.583       -1033.055          29.000                                                                  
R 7                                                        15.000  
R 8                                                        30.000  
R 9                                                        22.000  
R24                                                        17.000  
E 1                     50222.172         953.961           9.000                                                                  
E 4                     50873.517         991.197          21.000                                                                  
E 9                    -55368.509        -879.482          18.000                      -16505.780        -659.723          16.000  
E11                    180552.493        2851.788          24.000                      104702.911        2129.527          19.000  
E24                    -84310.088       -3043.023          27.000                                                                  
E36                    121394.431        1663.991          15.000                       59476.778        1246.634          19.000  
J 1                   -101669.250        -761.779          19.000                                                                  
J 2                     44479.566         299.334          17.000                       21090.424         224.149          18.000  
C 3                      6223.814         105.957          29.000                                                                                                                                  
C 6                      6303.859         161.831          17.000                                                                                                                                  
C 8                    116659.775        1861.377          18.000                                                                                                                                  
C 9                      5327.809         130.216          18.000                                                                                                                                  
C13                     91039.187           0.017          20.000                                                                                                                                  
C14                   -101683.570       -2675.695          16.000                                                                                                                                  
C21                      6230.687         107.677          18.000                                                                                                                                  
C22                     79908.851        2348.565          17.000                                                                                                                                  
C24                   -106120.964       -3237.867          15.000                                                                                                                                  
C26                   -109942.250       -1962.803          23.000                                                                                      -48211.806       -1477.566          19.000  
> 2021 12  7  4 26 19.0000000  0 28                     
G10                     79524.986         526.029          34.000                       39289.771         392.157          22.000  
G21                    -98039.067        -686.501          17.000                                                                  
G23                    262745.254        2750.758          24.000                                                                  
G25                   -264636.683       -1847.015          25.000                      -31471.075       -1381.650          16.000  
G31                   -433950.272       -2772.828          26.000                                                                  
G32                   -137548.419       -1033.350          29.000                                                                  
R 7                                                        19.000  
R 8                                                        28.000  
R 9                                                        24.000  
R24                                                        18.000  
E 1                     55234.223         953.361           8.000                                                                  
E 4                     56072.851         987.337          20.000                                                                  
E 9                    -59989.834        -880.732          27.000                      -19092.597        -658.105          17.000  
E11                    195542.313        2852.506          24.000                      113061.547        2132.021          19.000  
E24                   -100297.544       -3042.164          29.000                                                                  
E36                    130133.947        1663.134          20.000                       64367.348        1246.946          17.000  
J 1                   -105673.666        -763.506          19.000                                                                  
J 2                     46058.208         301.135          21.000                       21975.187         227.280          18.000  
C 3                      6893.560         152.661          30.000                                                                                                                                  
C 6                      7152.867         163.535          17.000                                                                                                                                  
C 8                    126358.311        1861.545          20.000                                                                                                                                  
C 9                      6002.282         129.883          17.000                                                                                                                                  
C13                     99878.006        1696.294          22.000                                                                                                                                  
C14                   -115621.175       -2675.708          16.000                                                                                                                                  
C21                      6806.449         112.874          23.000                                                                                                                                  
C22                     92139.598        2349.433          17.000                                                                                                                                  
C24                   -122980.866       -3236.677          15.000                                                                                                                                  
C26                   -120159.350       -1960.706          23.000                                                                                      -54008.170       -1476.211          17.000  
> 2021 12  7  4 26 20.0000000  0 30                     
G10                     82278.733          -0.015          19.000                       40830.571         392.988          18.000  
G21                   -101641.876        -686.140          15.000                                                                  
G23                    277201.166        2751.368          22.000                                                                  
G25                   -274345.991       -1846.766          23.000                      -36882.635       -1379.541          16.000  
G31                   -448514.445       -2769.666          33.000                                                                  
G32                   -142975.968       -1032.637          28.000                                                                  
R 7                                                        30.000  
R 8                                                        30.000  
R 9                                                        22.000  
R10                                                        29.000  
R24                                                        16.000  
E 1                     60241.824         952.804           7.000                                                                  
E 4                     61255.661         986.156          25.000                                                                  
E 9                    -64627.570        -882.953          27.000                      -21671.982        -657.318          14.000  
E11                    210529.703        2851.747          23.000                      121424.472        2131.620          18.000  
E24                   -116287.291       -3043.070          28.000                                                                  
E31                    -79881.952       -1825.452          19.000                                                                  
E36                    138877.567        1664.237          22.000                       69257.366        1246.723          18.000  
J 1                   -109674.959        -761.185          18.000                                                                  
J 2                     47643.599         302.947          20.000                       22863.922         225.710          20.000  
C 3                      7644.490         152.313          30.000                                                                                                                                  
C 6                      8004.640         163.864          22.000                                                                                                                                  
C 8                    136046.381        1860.193          31.000                                                                                                                                  
C 9                      6673.514         128.040          23.000                                                                                                                                  
C13                    108712.116        1696.319          17.000                                                                                                                                  
C14                   -129553.892       -2675.282          15.000                                                                                                                                  
C21                      7397.683         114.736          25.000                                                                                                                                  
C22                    104392.608        2355.091          16.000                                                                                                                                  
C24                   -139839.059       -3237.669          13.000                                                                                                                                  
C26                   -130371.358       -1962.664          33.000                                                                                                                                  
> 2021 12  7  4 26 21.0000000  0 30                     
G10                     85038.377         526.412          33.000                       42373.546         393.259          18.000  
G21                   -105251.540        -686.808          17.000                                                                  
G23                    291660.307        2751.277          21.000                                                                  
G25                   -284050.702       -1846.680          27.000                      -42295.143       -1378.669          17.000  
G31                   -463067.999       -2768.913          33.000                                                                  
G32                   -148403.564       -1031.933          26.000                                                                  
R 7                                                        27.000  
R 8                                                        30.000  
R 9                                                        23.000  
R10                                                        21.000  
R24                                                        12.000  
E 1                     65246.203         952.427           8.000                                                                  
E 4                     66436.741         986.072          26.000                                                                  
E 9                    -69267.307        -883.282          25.000                      -24261.195        -661.017          14.000  
E11                    225513.719        2851.152          25.000                      129779.233        2129.729          19.000  
E24                   -132280.672       -3043.672          25.000                                                                  
E31                    -89475.440       -1827.679          20.000                                                                  
E36                    147622.935        1664.148          25.000                       74141.510        1242.134          19.000  
J 1                   -113672.017        -759.380          18.000                                                                  
J 2                     49232.792         302.953          20.000                       23751.133         227.298          18.000  
C 3                      8336.450         111.660          30.000                                                                                                                                  
C 6                      8861.579         164.463          24.000                                                                                                                                  
C 8                    145729.098        1858.821          30.000                                                                                                                                  
C 9                      7340.179         128.524          23.000                                                                                                                                  
C13                    117544.717        1695.876          20.000                                                                                                                                  
C14                   -143500.869       -2681.819          16.000                                                                                                                                  
C21                      7993.459         111.729          28.000                                                                                                                                  
C22                    116657.114        2354.671          15.000                                                                                                                                  
C24                   -156705.281       -3240.858          14.000                                                                                                                                  
C26                   -140584.919       -1961.143          29.000                                                                                                                                  
> 2021 12  7  4 26 22.0000000  0 30                     
G10                     87802.726         526.252          37.000                       43912.426         390.565          18.000  
G21                   -108860.291        -686.447          17.000                                                                  
G23                    306114.190        2751.968          20.000                                                                  
G25                   -293744.199       -1845.439          19.000                      -47695.939       -1374.320          18.000  
G31                   -477629.460       -2771.827          27.000                                                                  
G32                   -153822.465       -1030.857          29.000                                                                  
R 7                                                        21.000  
R 8                                                        24.000  
R 9                                                        19.000  
R10                                                        25.000  
R24                                                        13.000  
E 1                     70252.746         952.622          11.000                                                                  
E 4                     71620.256         985.475          19.000                                                                  
E 9                    -73914.426        -885.339          29.000                      -26851.937        -659.108          17.000  
E11                    240494.747        2854.485          21.000                      138136.806        2128.897          20.000  
E24                   -148282.613       -3044.067          22.000                                                                  
E31                    -99080.795       -1827.038          17.000                                                                  
E36                    156369.209        1666.062          22.000                       79018.357        1243.026          20.000  
J 1                   -117679.829        -761.980          18.000                                                                  
J 2                     50830.476         303.950          22.000                       24631.731         223.865          17.000  
C 3                      8918.243         102.000          25.000                                                                                                                                  
C 6                      9708.078         162.137          30.000                                                                                                                                  
C 8                    155409.090        1860.535          24.000                                                                                                                                  
C 9                      8008.919         127.035          22.000                                                                                                                                  
C13                    126380.001        1697.974          32.000                                                                                                                                  
C14                   -157460.664       -2681.475          17.000                                                                                                                                  
C21                      8588.827         117.187          24.000                                                                                                                                  
C22                    128918.757        2355.360          15.000                                                                                                                                  
C24                   -173566.778       -3239.167          17.000                                                                                                                                  
C26                   -150794.294       -1959.272          32.000                                                                                      -71412.179       -1477.416          26.000  
> 2021 12  7  4 26 23.0000000  0 28                     
G10                     90564.387         526.794          32.000                       45448.984         389.753          22.000  
G21                   -112469.139        -687.200          17.000                                                                  
G23                    320567.032        2751.030          13.000                                                                  
G25                   -303443.337           0.005          20.000                      -53084.888       -1374.325          15.000  
G31                   -492189.266       -2769.291          27.000                                                                  
G32                   -159245.459       -1032.823          27.000                                                                  
R 7                                                        21.000  
R 8                                                        23.000  
R 9                                                        15.000  
R10                                                        20.000  
R24                                                        12.000  
E 1                     75257.849         952.241          10.000                                                                  
E 4                     76801.116         985.345          18.000                                                                  
E 9                    -78559.122        -883.797          27.000                      -29439.421        -659.909          20.000  
E11                    255476.372        2850.949          20.000                      146492.892        2127.495          18.000  
E31                   -108666.676       -1822.445          15.000                                                                  
E36                                                                                     83890.537        1242.105          17.000  
J 2                     52423.541         303.596          24.000                       25518.454         225.766          15.000  
C 3                      9508.580         122.205          25.000                                                                                                                                  
C 6                     10562.041         163.901          17.000                                                                                                                                  
C 8                    165093.736        1860.289          23.000                                                                                                                                  
C 9                      8669.420         127.732          31.000                                                                                                                                  
C13                    135220.426        1699.277          22.000                                                                                                                                  
C14                   -171415.684       -2678.565          15.000                                                                                                                                  
C21                      9183.047         113.395          24.000                                                                                                                                  
C22                    141174.119        2353.027          15.000                                                                                                                                  
C24                   -190421.875       -3240.109          17.000                                                                                                                                  
C26                   -161001.633       -1960.296          29.000                                                                                      -77207.981       -1478.989          20.000  
> 2021 12  7  4 26 24.0000000  0 28                     
G10                     93321.377         522.826          31.000                       46989.829         392.864          22.000  
G21                   -116084.862        -687.929          17.000                                                                  
G23                    335037.366        2755.243          12.000                                                                  
G25                   -313146.093       -1846.451          22.000                      -58487.613       -1378.614          16.000  
G31                   -506735.186       -2767.541          23.000                                                                  
G32                   -164671.107       -1034.161          30.000                                                                  
R 7                                                        24.000  
R 8                                                        20.000  
R 9                                                        16.000  
R10                                                        17.000  
R24                                                        12.000  
E 1                     80263.848         952.745          10.000                                                                  
E 4                     81991.053         987.673          21.000                                                                  
E 9                    -83203.914        -884.118          25.000                      -32025.810        -656.996          20.000  
E11                    270455.610        2848.806          15.000                      154844.715        2127.435          19.000  
E31                   -118240.307       -1827.510          16.000                                                                  
E36                                                                                     88769.519        1244.356          16.000  
J 2                     54012.589         300.090          20.000                       26413.132         228.232          17.000  
C 3                     10113.184         121.519          23.000                                                                                                                                  
C 6                     11421.758           0.091          16.000                                                                                                                                  
C 8                    174779.037        1859.701          24.000                                                                                                                                  
C 9                      9321.937         124.499          29.000                                                                                                                                  
C13                    144063.512        1696.473          28.000                                                                                                                                  
C14                   -185371.648       -2680.368          11.000                                                                                                                                  
C21                      9775.517         113.336          25.000                                                                                        1455.650          84.669          19.000  
C22                    153418.987        2350.557          13.000                                                                                                                                  
C24                   -207290.573       -3238.866          14.000                                                                                                                                  
C26                   -171213.212       -1959.989          21.000                                                                                      -83006.169       -1477.720          23.000  
> 2021 12  7  4 26 25.0000000  0 26                     
G10                     96080.836         525.325          34.000                       48531.067         392.447          22.000  
G21                   -119701.267        -688.235          18.000                                                                  
G23                    349520.097          -0.008          15.000                                                                  
G25                   -322851.951       -1847.258          20.000                      -63893.608       -1378.215          17.000  
G31                   -521282.388       -2768.438          21.000                                                                  
G32                   -170102.598       -1033.658          28.000                                                                  
R 7                                                        22.000  
R 8                                                        20.000  
R 9                                                        17.000  
R10                                                        20.000  
E 1                     85270.743         953.146           9.000                                                                  
E 4                     87168.730         984.462          23.000                                                                  
E 9                    -87851.264        -884.034          22.000                      -34612.788        -661.641          21.000  
E11                    285446.783        2851.512          18.000                      163198.519        2128.114          17.000  
E31                   -127840.804       -1827.070          15.000                                                                  
E36                    182606.493        1667.151          19.000                                                                  
J 2                     55602.025         302.043          25.000                       27301.716         223.300          19.000  
C 6                     12288.295         166.415          18.000                                                                                                                                  
C 8                    184460.894        1859.941          25.000                                                                                                                                  
C 9                      9980.396         126.182          28.000                                                                                                                                  
C13                    152896.113        1695.839          27.000                                                                                                                                  
C14                   -199327.823       -2681.127           7.000                                                                                                                                  
C21                     10366.359         113.640          28.000                                                                                        1791.786          86.114          18.000  
C22                    165665.265           0.006          12.000                                                                                                                                  
C24                   -224179.026       -3244.899          16.000                                                                                                                                  
C26                   -181397.116       -1955.953          17.000                                                                                      -88804.498       -1479.461          20.000  
> 2021 12  7  4 26 26.0000000  0 27                     
G10                     98847.817         528.013          31.000                       50073.812         393.121          24.000  
G21                   -123323.542        -688.619          16.000                                                                  
G23                    364000.837          -0.008          20.000                                                                  
G25                   -332562.473       -1847.325          19.000                      -69300.135       -1379.290          17.000  
G31                   -535835.210       -2770.027          28.000                                                                  
G32                   -175538.108       -1033.079          29.000                                                                  
R 7                                                        24.000  
R 8                                                        24.000  
R 9                                                        17.000  
R10                                                        22.000  
E 1                     90278.572         953.020          10.000                                                                  
E 4                     92339.512         983.107          28.000                                                                  
E 9                    -92496.510        -884.770          23.000                      -37203.389        -659.857          21.000  
E11                    300425.259        2850.236          20.000                      171555.255        2128.679          17.000  
E31                   -137441.973       -1827.180          15.000                                                                  
E36                    191362.332        1664.087          18.000                                                                  
J 2                     57191.841         301.645          25.000                       28182.447         225.496          18.000  
C 6                     13150.574         164.224          24.000                                                                                                                                  
C 8                    194143.066        1858.671          24.000                                                                                                                                  
C 9                     10639.094         126.644          21.000                                                                                                                                  
C10                    -16333.673       -1187.045          15.000                                                                                                                                  
C13                    161733.648        1698.833          24.000                                                                                                                                  
C14                   -213286.522          -0.022          13.000                                                                                                                                  
C21                     10957.626         114.107          24.000                                                                                        2125.746          83.830          17.000  
C22                    177908.558           0.006          14.000                                                                                                                                  
C24                   -241082.906           0.005          13.000                                                                                                                                  
C26                   -191594.384       -1958.396          25.000                                                                                      -94607.435       -1478.193          17.000  
> 2021 12  7  4 26 27.0000000  0 27                     
G10                    101620.523         526.790          36.000                       51616.813         393.858          24.000  
G21                   -126944.836        -689.920          17.000                                                                  
G23                    378472.508        2753.201          22.000                                                                  
G25                   -342268.680       -1846.423          20.000                      -74716.179       -1379.979          20.000  
G31                   -550391.045       -2766.303          30.000                                                                  
G32                   -180961.868       -1033.013          35.000                                                                  
R 7                                                        30.000  
R 8                                                        25.000  
R 9                                                        21.000  
R10                                                        21.000  
E 1                     95288.583         952.971          11.000                                                                  
E 4                     97500.967         981.519          29.000                                                                  
E 5                    -63977.330       -1868.194           8.000                                                                  
E 9                    -97141.174        -883.464          27.000                      -39787.759        -657.354          22.000  
E11                    315405.339        2851.047          21.000                      179913.062        2129.167          16.000  
E31                   -147045.425       -1827.472          17.000                                                                  
E36                    200120.335        1665.252          21.000                                                                  
J 2                     58766.434         296.863          29.000                       29068.686         223.133          20.000  
C 6                     14004.894         163.845          22.000                                                                                                                                  
C 8                    203817.268        1857.891          24.000                                                                                                                                  
C 9                     11299.398         127.692          24.000                                                                                                                                  
C13                    170576.107        1696.878          24.000                                                                                                                                  
C14                   -227237.547          -0.022          16.000                                                                                                                                  
C21                     11546.841         113.573          20.000                                                                                        2457.436          82.813          20.000  
C22                    190154.071           0.006          15.000                                                                                                                                  
C24                   -257977.192           0.005          14.000                                                                                                                                  
C26                   -201799.376       -1960.370          27.000                                                                                     -100406.955       -1477.564          17.000  
> 2021 12  7  4 26 28.0000000  0 28                     
G10                    104389.364         527.568          33.000                       53158.703         392.887          22.000  
G21                   -130572.425        -690.744          17.000                                                                  
G23                    392928.422        2750.112          25.000                                                                  
G25                   -351977.676       -1847.685          26.000                      -80133.906       -1380.129          19.000  
G31                   -564933.745       -2768.210          24.000                                                                  
G32                   -186390.919       -1032.005          23.000                                                                  
R 7                                                        24.000  
R 8                                                        26.000  
R 9                                                        23.000  
R10                                                        21.000  
E 1                    100295.553         952.297          12.000                                                                  
E 4                    102658.236         980.776          28.000                                                                  
E 5                    -73796.704       -1868.278           6.000                                                                  
E 9                   -101790.237        -884.383          27.000                      -42379.043        -661.232          18.000  
E11                    330371.151        2845.715          17.000                      188268.369        2128.561          13.000  
E31                   -156648.983       -1827.872          19.000                                                                  
E36                    208870.291        1666.745          21.000                      108285.290        1243.764          17.000  
J 1                   -141809.791        -765.684          22.000                                                                  
J 2                     60324.260         295.205          25.000                       29936.855         221.203          18.000  
C 6                     14858.351         163.345          23.000                                                                                                                                  
C 8                    213489.936        1857.159          21.000                                                                                                                                  
C 9                     11960.937         127.231          20.000                                                                                                                                  
C13                    179412.816        1697.194          23.000                                                                                                                                  
C14                   -241191.197          -0.022          16.000                                                                                                                                  
C21                     12134.500         112.042          22.000                                                                                        2788.490          85.286          17.000  
C22                    202386.809           0.006          13.000                                                                                                                                  
C24                   -274869.990           0.005          16.000                                                                                                                                  
C26                   -212013.294       -1959.298          28.000                                                                                     -106211.104       -1480.689          17.000  
> 2021 12  7  4 26 29.0000000  0 29                     
G10                    107160.038         526.917          30.000                       54702.325         393.062          21.000  
G21                   -134196.046        -686.719          19.000                                                                  
G23                    407375.817        2748.978          20.000                                                                  
G25                   -361687.886       -1848.946          25.000                      -85548.453       -1381.492          17.000  
G31                   -579475.847       -2766.685          28.000                                                                  
G32                   -191827.917       -1034.377          25.000                                                                  
R 7                                                        23.000  
R 8                                                        21.000  
R 9                                                        20.000  
R10                                                        23.000  
E 1                    105300.808         952.407          11.000                                                                  
E 4                    107811.762         980.174          27.000                                                                  
E 5                    -83616.379       -1869.117           6.000                                                                  
E 9                   -106423.045        -881.448          20.000                      -44971.129        -659.380          17.000  
E11                    345338.896        2853.395          19.000                      196616.396        2125.881          12.000  
E24                   -260317.111       -3045.936          18.000                                                                  
E31                   -166255.394       -1826.679          19.000                                                                  
E36                    217626.716        1667.703          23.000                      113173.179        1246.024          16.000  
J 1                   -145839.361        -768.161          24.000                                                                  
J 2                     61878.976         295.486          28.000                       30804.773         219.935          17.000  
C 6                     15709.228         163.563          24.000                                                                                                                                  
C 8                    223156.019        1855.004          21.000                                                                                                                                  
C 9                     12625.907         127.061          20.000                                                                                                                                  
C13                    188246.121        1696.343          23.000                                                                                                                                  
C14                   -255150.336       -2680.032          17.000                                                                                                                                  
C21                     12720.185         114.852          25.000                                                                                        3121.099          84.573          19.000  
C22                    214611.002           0.006          13.000                                                                                                                                  
C24                   -291757.907           0.005          14.000                                                                                                                                  
C26                   -222210.248       -1958.368          29.000                                                                                     -112015.948       -1478.532          16.000  
> 2021 12  7  4 26 30.0000000  0 29                     
G10                    109929.990         526.939          29.000                       56246.770         393.220          22.000  
G21                   -137803.772        -685.155          18.000                                                                  
G23                    421820.689        2748.464          21.000                                                                  
G25                   -371405.457       -1848.934          24.000                      -90961.096       -1378.882          19.000  
G31                   -594000.952       -2762.310          24.000                                                                  
G32                   -197281.586       -1034.972          27.000                                                                  
R 7                                                        22.000  
R 8                                                        25.000  
R 9                                                        18.000  
R10                                                        23.000  
E 1                    110306.299         952.650           9.000                                                                  
E 4                    112958.080         978.849          29.000                                                                  
E 5                    -93441.148       -1869.627           7.000                                                                  
E 9                   -111066.521        -883.464          23.000                      -47560.517        -659.238          17.000  
E11                    360331.619        2853.014          18.000                      204962.009        2127.278          15.000  
E24                   -276315.708       -3043.957          19.000                                                                  
E31                   -175858.365       -1827.793          18.000                                                                  
E36                    226397.322        1668.035          20.000                      118058.383        1242.913          16.000  
J 1                   -149883.737        -769.716          24.000                                                                  
J 2                     63430.812         295.593          25.000                       31671.357         221.404          17.000  
C 6                     16567.419         164.977          25.000                                                                                                                                  
C 8                    232819.652        1858.059          18.000                                                                                                                                  
C 9                     13289.279         127.751          22.000                                                                                                                                  
C13                    197073.705        1694.992          23.000                                                                                                                                  
C14                   -269104.854       -2679.502          19.000                                                                                                                                  
C21                     13316.637         114.328          23.000                                                                                        3454.632          84.629          19.000  
C22                    226836.951           0.006          14.000                                                                                                                                  
C24                   -308647.160           0.005          14.000                                                                                                                                  
C26                   -232412.001       -1959.028          29.000                                                                                     -117815.388       -1476.434          18.000  
> 2021 12  7  4 26 31.0000000  0 30                     
G10                    112692.171         528.496          30.000                       57789.230         393.555          24.000  
G21                   -141405.546        -685.469          19.000                                                                  
G23                    436269.151        2749.658          19.000                                                                  
G25                   -381122.118       -1846.550          28.000                      -96383.773       -1383.362          18.000  
G31                   -608527.006       -2767.685          26.000                                                                  
G32                   -202717.177       -1030.527          31.000                                                                  
R 7                                                        26.000  
R 8                                                        23.000  
R 9                                                        17.000  
R10                                                        23.000  
E 1                    115314.137         953.377          10.000                                                                  
E 4                    118107.796         980.324          29.000                                                                  
E 5                   -103265.771       -1870.105           5.000                                                                  
E 9                   -115714.126        -884.819          25.000                      -50149.498        -661.301          15.000  
E11                    375308.762        2845.311          16.000                                                                  
E24                   -292320.807       -3046.773          23.000                                                                  
E31                   -185465.582       -1829.411          18.000                                                                  
E36                    235159.936        1667.651          22.000                      122938.567        1243.764          15.000  
J 1                   -153927.920        -769.645          20.000                                                                  
J 2                     64985.902         295.621          24.000                       32538.641         220.628          14.000  
C 6                     17418.547         163.728          24.000                                                                                                                                  
C 8                    242502.260        1859.233          22.000                                                                                                                                  
C 9                     13947.696         125.745          22.000                                                                                                                                  
C10                    -27681.499       -1193.765          17.000                                                                                                                                  
C13                    205904.061        1697.871          26.000                                                                                                                                  
C14                   -283059.019       -2680.383          17.000                                                                                                                                  
C21                     13904.185         112.271          26.000                                                                                        3783.027          82.340          15.000  
C22                    239060.124           0.006          15.000                                                                                                                                  
C24                   -325533.754           0.005          14.000                                                                                                                                  
C26                   -242611.749       -1956.924          33.000                                                                                     -123612.495       -1478.525          17.000  
> 2021 12  7  4 26 32.0000000  0 30                     
G10                    115465.984         527.758          26.000                                                                  
G21                   -145012.398        -686.799          17.000                                                                  
G23                    450718.297        2749.644          21.000                                                                  
G25                   -390819.528       -1846.349          24.000                     -101802.853       -1380.941          20.000  
G31                   -623067.390       -2769.723          25.000                                                                  
G32                   -208142.128       -1034.522          28.000                                                                  
R 7                                                        21.000  
R 8                                                        25.000  
R 9                                                        17.000  
R10                                                        18.000  
E 1                    120321.696         952.410          11.000                                                                  
E 4                    123252.139         978.821          22.000                        4917.187         733.656          20.000  
E 5                   -113092.835       -1870.501           6.000                                                                  
E 9                   -120361.608        -883.356          20.000                      -52743.272        -661.860          19.000  
E11                    390278.957        2849.690          17.000                      221665.012        2125.624          20.000  
E24                   -308334.020       -3049.155          16.000                                                                  
E31                   -195074.994       -1828.906          18.000                                                                  
E36                    243930.352        1671.454          21.000                      127821.900        1243.417          17.000  
J 1                   -157976.665        -771.722          18.000                                                                  
J 2                     66545.909         296.167          27.000                       33405.505         221.135          17.000  
C 6                     18256.979         160.436          22.000                                                                                                                                  
C 8                    252177.016        1855.344          18.000                                                                                                                                  
C 9                     14597.579         123.969          25.000                                                                                                                                  
C10                    -33897.095       -1196.011          15.000                                                                                                                                  
C13                    214736.586        1694.404          20.000                                                                                                                                  
C14                   -297014.033       -2679.033          17.000                                                                                                                                  
C21                     14494.373         115.020          21.000                                                                                        4110.236          84.029          17.000  
C22                    251289.346           0.006          15.000                                                                                                                                  
C24                   -342418.420           0.005          14.000                                                                                                                                  
C26                   -252806.083       -1958.686          31.000                                                                                     -129406.656       -1477.716          20.000  
> 2021 12  7  4 26 33.0000000  0 29                     
G10                    118240.684         526.488          25.000                       60888.188         393.761          20.000  
G21                   -148618.915        -685.479          16.000                                                                  
G25                   -400517.605       -1846.716          25.000                     -107203.980       -1376.689          19.000  
G31                   -637615.781       -2768.765          22.000                                                                  
G32                   -213584.814       -1035.406          23.000                                                                  
R 7                                                        25.000  
R 8                                                        25.000  
R 9                                                        16.000  
R10                                                        20.000  
E 1                    125326.011         952.492           8.000                                                                  
E 4                    128401.974         979.752          18.000                        7786.758         732.089          19.000  
E 5                   -122923.215       -1871.027           5.000                                                                  
E 9                   -125008.400        -883.363          21.000                      -55339.129        -663.065          17.000  
E11                    405259.654        2849.755          12.000                                                                  
E24                   -324367.694       -3054.184          12.000                                                                  
E31                   -204678.466       -1827.984          16.000                                                                  
E36                    252696.945        1667.234          16.000                      132704.896        1243.224          15.000  
J 1                   -162025.909        -768.887          17.000                                                                  
J 2                     68098.982         295.551          25.000                       34273.956         219.414          16.000  
C 6                     19090.537         160.540          22.000                                                                                                                                  
C 8                    261844.389        1857.903          18.000                                                                                                                                  
C 9                     15249.174         125.420          22.000                                                                                                                                  
C10                    -40122.089           0.002          13.000                                                                                                                                  
C13                    223556.962        1693.961          18.000                                                                                                                                  
C14                   -310964.118       -2678.168          16.000                                                                                                                                  
C21                     15086.148         113.236          25.000                                                                                        4445.739          84.961          17.000  
C22                    263513.831           0.006          14.000                                                                                                                                  
C24                   -359295.947           0.005          14.000                                                                                                                                  
C26                   -262993.517       -1958.389          25.000                                                                                     -135217.514       -1480.540          17.000  
> 2021 12  7  4 26 34.0000000  0 30                     
G10                    121019.483         530.609          31.000                       62437.294         394.569          24.000  
G21                   -152222.149        -685.837          17.000                                                                  
G23                    479618.594        2750.055          20.000                                                                  
G25                   -410219.199       -1842.914          20.000                     -112605.014       -1377.950          18.000  
G31                   -652161.150       -2769.325          24.000                                                                  
G32                   -219015.269       -1030.372          28.000                                                                  
R 7                                                        33.000  
R 8                                                        21.000  
R 9                                                        16.000  
R10                                                        20.000  
E 1                    130333.169         952.807           8.000                                                                  
E 4                    133543.333         977.559          25.000                       10669.812         733.992          18.000  
E 5                   -132755.796       -1870.931           4.000                                                                  
E 9                   -129660.044        -887.353          22.000                      -57940.645        -664.780          16.000  
E11                    420245.413        2851.625          15.000                                                                  
E24                   -340407.733       -3050.231          16.000                                                                  
E31                   -214288.129       -1827.061          20.000                                                                  
E36                    261472.725        1672.946          18.000                      137585.089        1243.887          16.000  
J 1                   -166064.360        -770.650          19.000                                                                  
J 2                     69643.619         293.030          27.000                       35134.721         218.268          17.000  
C 6                     19933.930         163.285          19.000                                                                                                                                  
C 8                    271509.587        1854.981          16.000                                                                                                                                  
C 9                     15900.481         123.883          20.000                                                                                                                                  
C10                    -46344.458           0.002          15.000                                                                                                                                  
C13                    232380.548        1694.464          19.000                                                                                                                                  
C14                   -324916.470       -2678.842          15.000                                                                                                                                  
C21                     15669.192         112.606          26.000                                                                                        4776.328          84.363          16.000  
C22                    275723.838           0.006          14.000                                                                                                                                  
C24                   -376183.436           0.005          15.000                                                                                                                                  
C26                   -273191.819       -1958.132          29.000                                                                                     -141024.658       -1479.827          14.000  
> 2021 12  7  4 26 35.0000000  0 29                     
G10                    123797.981         527.667          34.000                       63987.621         395.951          19.000  
G21                   -155834.789        -689.481          17.000                                                                  
G23                    494058.404        2745.835          24.000                                                                  
G25                   -419918.800       -1849.095          29.000                     -118014.463       -1379.499          19.000  
G31                   -666709.535       -2766.795          25.000                                                                  
G32                   -224437.258       -1031.712          28.000                                                                  
R 7                                                        27.000  
R 8                                                        24.000  
R 9                                                        17.000  
R10                                                        23.000  
E 1                    135339.576         952.641           8.000                                                                  
E 4                    138685.309         979.637          22.000                       13551.334         733.012          17.000  
E 9                   -134308.416        -885.829          23.000                      -60543.666        -662.517          16.000  
E11                    435227.695        2849.884          15.000                                                                  
E24                   -356435.474       -3050.158          18.000                                                                  
E31                   -223899.779       -1829.838          21.000                                                                  
E36                    270254.352        1671.003          20.000                      142467.584        1245.085          17.000  
J 1                   -170115.609        -770.218          24.000                                                                  
J 2                     71183.012         293.078          30.000                       36001.676         222.020          16.000  
C 6                     20781.460         162.280          23.000                                                                                                                                  
C 8                    281167.232        1853.355          17.000                                                                                                                                  
C 9                     16544.272         124.809          21.000                                                                                                                                  
C10                    -52550.511           0.002          15.000                                                                                                                                  
C13                    241212.810        1697.634          19.000                                                                                                                                  
C14                   -338877.364       -2682.614          16.000                                                                                                                                  
C21                     16255.326         112.359          26.000                                                                                        5110.302          83.837          16.000  
C22                    287928.329           0.006          16.000                                                                                                                                  
C24                   -393069.502           0.005          16.000                                                                                                                                  
C26                   -283388.524       -1956.657          26.000                                                                                     -146829.013       -1480.042          18.000  
> 2021 12  7  4 26 36.0000000  0 29                     
G10                    126587.096         531.147          27.000                       65542.424         398.905          19.000  
G21                   -159448.799        -685.652          17.000                                                                  
G23                    508490.399        2744.798          24.000                                                                  
G25                   -429625.181       -1846.616          32.000                     -123427.406       -1376.135          22.000  
G31                   -681249.437       -2766.707          24.000                                                                  
G32                   -229871.536       -1032.818          29.000                                                                  
R 7                                                        28.000  
R 8                                                        24.000  
R 9                                                        15.000  
R10                                                        23.000  
E 1                    140344.119         952.266           9.000                                                                  
E 4                    143827.653         978.897          20.000                       16426.044         731.447          17.000  
E 9                   -138959.188        -884.912          25.000                      -63144.233        -663.921          17.000  
E11                    450201.523        2848.605          15.000                                                                  
E24                   -372462.717       -3049.217          20.000                                                                  
E31                   -233511.851       -1829.883          23.000                                                                  
E36                    279036.411        1670.225          20.000                      147357.944        1245.845          17.000  
J 1                   -174168.960        -772.957          24.000                                                                  
J 2                     72725.518         294.411          35.000                       36866.761         216.691          19.000  
C 6                     21623.414         161.754          24.000                                                                                                                                  
C 8                    290821.460        1853.005          16.000                                                                                                                                  
C 9                     17194.504         125.374          25.000                                                                                                                                  
C10                    -58749.822           0.002          13.000                                                                                                                                  
C13                    250043.682        1696.725          20.000                                                                                                                                  
C14                   -352842.745       -2682.493          15.000                                                                                                                                  
C21                     16854.021         114.336          26.000                                                                                        5438.197          83.086          19.000  
C22                    300131.416           0.006          13.000                                                                                                                                  
C24                   -409956.236           0.005          13.000                                                                                                                                  
C26                   -293587.252       -1957.625          30.000                                                                                     -152629.255       -1477.014          19.000  
> 2021 12  7  4 26 37.0000000  0 29                     
G10                    129380.794         529.124          32.000                       67099.483         392.960          20.000  
G21                   -163054.026        -686.153          18.000                                                                  
G23                    522916.664        2747.672          27.000                                                                  
G25                   -439336.801       -1845.999          32.000                     -128841.247       -1379.153          22.000  
G31                   -695800.238       -2769.167          24.000                                                                  
G32                   -235305.515       -1030.738          24.000                                                                  
R 7                                                        27.000  
R 8                                                        25.000  
R 9                                                        17.000  
R10                                                        28.000  
E 1                    145349.455         952.645          11.000                                                                  
E 4                    148972.165         979.196          20.000                       19296.047         731.536          17.000  
E 9                   -143603.765        -884.407          24.000                      -65752.447        -664.648          17.000  
E11                    465167.610        2847.166          14.000                                                                  
E24                   -388482.815       -3047.941          17.000                                                                  
E31                   -243126.689       -1828.813          24.000                                                                  
E36                    287811.275        1667.142          19.000                      152244.433        1243.826          17.000  
J 1                   -178226.511        -770.995          24.000                                                                  
J 2                     74268.689         294.311          30.000                       37724.046         219.128          19.000  
C 6                     22454.685         159.055          23.000                                                                                                                                  
C 8                    300471.624        1853.920          18.000                                                                                                                                  
C 9                     17849.930         125.453          20.000                                                                                                                                  
C10                    -64935.915           0.002          14.000                                                                                                                                  
C13                    258867.559        1693.717          19.000                                                                                                                                  
C14                   -366811.687       -2683.233          16.000                                                                                                                                  
C21                     17446.320         115.618          23.000                                                                                        5765.663          83.095          20.000  
C22                    312326.542           0.006          13.000                                                                                                                                  
C24                   -426839.053           0.005          16.000                                                                                                                                  
C26                   -303784.165       -1957.819          26.000                                                                                     -158422.567       -1476.202          19.000  
> 2021 12  7  4 26 38.0000000  0 29                     
G10                    132165.236         529.821          35.000                       68648.002         393.556          22.000  
G21                   -166660.655        -686.698          19.000                                                                  
G23                    537364.505        2747.877          26.000                                                                  
G25                   -449053.220       -1849.487          24.000                     -134246.029       -1377.347          20.000  
G31                   -710360.529       -2771.314          25.000                                                                  
G32                   -240736.599       -1036.758          31.000                                                                  
R 7                                                        23.000  
R 8                                                        24.000  
R 9                                                        17.000  
R10                                                        24.000  
E 1                    150355.562         952.564           9.000                                                                  
E 4                    154122.213         981.384          17.000                       22167.694         731.042          16.000  
E 9                                                                                    -68356.830        -662.738          16.000  
E11                    480130.359        2847.582          13.000                                                                  
E24                   -404495.444       -3045.887          18.000                                                                  
E31                   -252740.106       -1829.350          21.000                                                                  
E36                    296571.310        1669.051          18.000                      157119.565        1241.378          15.000  
J 1                   -182275.265        -770.806          22.000                                                                  
J 2                     75811.363         295.759          32.000                       38586.885         222.798          20.000  
C 6                     23279.106         158.469          22.000                                                                                                                                  
C 8                    310133.343        1856.619          20.000                                                                                                                                  
C 9                     18493.124         122.822          20.000                                                                                                                                  
C10                    -71120.197           0.002           9.000                                                                                                                                  
C13                    267698.622        1696.173          23.000                                                                                                                                  
C14                   -380786.191       -2683.674          17.000                                                                                                                                  
C21                     18043.845         114.034          26.000                                                                                        6096.340          82.529          19.000  
C22                    324526.080           0.006          15.000                                                                                                                                  
C24                   -443726.759           0.005          15.000                                                                                                                                  
C26                   -313974.048       -1957.259          28.000                                                                                     -164212.455       -1474.365          19.000  
> 2021 12  7  4 26 39.0000000  0 29                     
G10                    134946.626         529.520          37.000                       70202.808         395.969          23.000  
G21                   -170268.131        -687.169          17.000                                                                  
G23                    551810.125        2748.794          20.000                                                                  
G25                   -458759.311       -1845.524          30.000                     -139646.301       -1375.499          18.000  
G31                   -724914.800       -2771.052          25.000                                                                  
G32                   -246179.901       -1033.580          30.000                                                                  
R 7                                                        29.000  
R 8                                                        28.000  
R 9                                                        16.000  
R10                                                        24.000  
E 1                    155361.226         952.769          10.000                                                                  
E 4                    159287.298         982.067          19.000                       25045.842         735.389          15.000  
E 9                   -152895.684        -885.148          22.000                      -70948.101        -659.191          18.000  
E11                    495092.045        2846.072          12.000                                                                  
E24                   -420501.910       -3045.675          16.000                                                                  
E31                   -262357.871       -1830.249          26.000                                                                  
E36                    305343.742        1666.759          21.000                      161994.345        1242.518          14.000  
J 1                   -186329.072        -773.552          22.000                                                                  
J 2                     77348.139         293.676          32.000                       39448.913         220.226          19.000  
C 6                     24109.177         159.844          21.000                                                                                                                                  
C 8                    319799.994        1854.797          20.000                                                                                                                                  
C 9                     19128.696         120.842          20.000                                                                                                                                  
C10                    -77309.073           0.002          12.000                                                                                                                                  
C13                    276536.779        1698.162          20.000                                                                                                                                  
C14                   -394759.942       -2681.271          16.000                                                                                                                                  
C21                     18634.189         113.908          26.000                                                                                        6420.303          81.725          16.000  
C22                    336718.347           0.006          13.000                                                                                                                                  
C24                   -460607.770           0.005          14.000                                                                                                                                  
C26                   -324158.848       -1955.914          27.000                                                                                     -169997.365       -1474.315          17.000  
> 2021 12  7  4 26 40.0000000  0 29                     
G10                    137743.748         530.508          30.000                       71756.573         396.776          21.000  
G21                   -173869.160        -685.355          20.000                                                                  
G23                    566281.319        2752.505          29.000                                                                  
G25                   -468458.025       -1845.093          26.000                     -145046.238       -1374.848          20.000  
G31                   -739456.108       -2762.038          25.000                                                                  
G32                   -251615.411       -1034.844          28.000                                                                  
R 7                                                        26.000  
R 8                                                        24.000  
R 9                                                        15.000  
R10                                                        21.000  
E 1                    160367.747         952.630          10.000                                                                  
E 4                    164436.030         977.947          17.000                       27932.570         736.301          15.000  
E 9                   -157555.370        -885.620          26.000                      -73537.223        -664.550          20.000  
E11                    510050.650        2847.089          14.000                                                                  
E24                   -436517.635       -3048.894          13.000                                                                  
E31                   -271968.750       -1827.858          24.000                                                                  
E36                    314118.538        1670.789          20.000                      166869.941        1242.879          16.000  
J 1                   -190393.109        -771.192          21.000                                                                  
J 2                     78890.336         294.330          30.000                       40309.491         220.269          19.000  
C 6                     24938.123         158.451          21.000                                                                                                                                  
C 8                    329464.066        1855.551          21.000                                                                                                                                  
C 9                     19760.301         121.937          23.000                                                                                                                                  
C10                    -83499.676           0.002          10.000                                                                                                                                  
C13                    285355.777        1693.744          22.000                                                                                                                                  
C14                   -408728.013       -2684.162          19.000                                                                                                                                  
C21                     19237.159         113.819          27.000                                                                                        6745.530          83.455          17.000  
C22                    348905.474           0.006          14.000                                                                                                                                  
C24                   -477491.163           0.005          14.000                                                                                                                                  
C26                   -334349.801       -1957.467          31.000                                                                                     -175782.239       -1475.272          19.000  
> 2021 12  7  4 26 41.0000000  0 28                     
G10                    140528.365         531.505          30.000                       73313.580         396.312          25.000  
G21                   -177470.995        -685.399          18.000                                                                  
G23                    580739.655        2752.716          33.000                                                                  
G25                   -478155.062       -1845.066          29.000                     -150457.397       -1379.370          20.000  
G31                   -753980.622       -2764.815          24.000                                                                  
G32                   -257064.353       -1029.620          30.000                                                                  
R 7                                                        26.000  
R 8                                                        23.000  
R 9                                                        16.000  
R10                                                        25.000  
E 1                    165374.377         953.137          10.000                                                                  
E 4                    169565.705         977.133          16.000                       30823.411         735.990          13.000  
E 9                   -162202.386        -884.096          20.000                      -76139.073        -663.029          19.000  
E11                    525012.975        2847.551          14.000                                                                  
E24                   -452539.440       -3048.745          13.000                                                                  
E31                   -281575.346       -1827.568          25.000                                                                  
E36                    322894.737        1669.443          19.000                      171750.606        1242.046          16.000  
J 1                   -194439.312        -769.289          21.000                                                                  
J 2                     80429.968         291.806          29.000                       41182.360         222.647          17.000  
C 6                     25771.849         160.450          25.000                                                                                                                                  
C 8                    339129.235        1855.613          19.000                                                                                                                                  
C 9                     20396.552         123.804          20.000                                                                                                                                  
C13                    294179.999        1696.116          19.000                                                                                                                                  
C14                   -422697.271       -2682.237          20.000                                                                                                                                  
C21                     19832.045         113.036          24.000                                                                                        7076.904          85.694          17.000  
C22                    361087.909           0.006          15.000                                                                                                                                  
C24                   -494383.871           0.005          12.000                                                                                                                                  
C26                   -344548.588       -1956.147          25.000                                                                                     -181573.341       -1475.017          17.000  
> 2021 12  7  4 26 42.0000000  0 28                     
G10                    143320.286         532.308          30.000                       74871.225         395.284          22.000  
G21                   -181076.548        -687.101          20.000                                                                  
G23                    595194.993        2750.359          28.000                                                                  
G25                   -487847.490       -1843.455          30.000                     -155862.524       -1376.415          19.000  
G31                   -768500.816       -2761.396          28.000                                                                  
G32                   -262479.953       -1032.507          29.000                                                                  
R 7                                                        28.000  
R 8                                                        22.000  
R 9                                                        15.000  
R10                                                        25.000  
E 1                    170382.756         953.004          10.000                                                                  
E 4                    174704.039         978.002          15.000                       33703.215         734.315          13.000  
E 9                   -166862.299        -885.904          25.000                      -78740.009        -662.512          16.000  
E11                    539975.923        2847.187          15.000                                                                  
E24                   -468563.528       -3049.212          12.000                                                                  
E31                   -291180.818       -1828.250          27.000                                                                  
E36                    331663.942        1667.769          18.000                      176620.614        1240.403          16.000  
J 1                   -198495.608        -772.313          21.000                                                                  
J 2                     81962.997         290.533          33.000                       42055.257         221.277          18.000  
C 6                     26596.498         158.629          21.000                                                                                                                                  
C 8                    348803.118        1856.964          22.000                                                                                                                                  
C 9                     21034.883         122.330          20.000                                                                                                                                  
C13                    303004.703        1694.391          18.000                                                                                                                                  
C14                   -436669.178       -2683.261          20.000                                                                                                                                  
C21                     20425.943         114.407          27.000                                                                                        7413.161          83.752          18.000  
C22                    373283.588           0.006          16.000                                                                                                                                  
C24                   -511279.991           0.005          14.000                                                                                                                                  
C26                   -354729.060       -1953.001          25.000                                                                                     -187359.466       -1475.081          14.000  
> 2021 12  7  4 26 43.0000000  0 28                     
G10                    146113.420         528.658          29.000                       76404.629         392.150          21.000  
G21                   -184690.922        -687.244          21.000                                                                  
G23                    609648.321        2751.755          29.000                                                                  
G25                   -497527.671       -1842.096          24.000                     -161259.288       -1375.120          17.000  
G31                   -783064.722       -2773.343          24.000                                                                  
G32                   -267913.500       -1031.304          24.000                                                                  
R 7                                                        30.000  
R 8                                                        23.000  
R 9                                                        15.000  
R10                                                        24.000  
E 1                    175390.387         952.782          11.000                                                                  
E 4                    179850.028         979.680          15.000                                                                  
E 9                   -171511.131        -884.246          19.000                      -81338.306        -662.292          17.000  
E11                    554941.496        2848.277          15.000                                                                  
E24                   -484587.449       -3049.617          12.000                                                                  
E31                   -300780.048       -1823.959          21.000                                                                  
E36                    340437.798        1668.826          18.000                      181493.818        1245.008          14.000  
J 1                   -202562.593        -774.592          23.000                                                                  
J 2                     83500.023         292.069          35.000                       42920.388         218.938          20.000  
C 6                     27425.730         158.141          20.000                                                                                                                                  
C 8                    358474.005        1858.565          17.000                                                                                                                                  
C 9                     21670.878         122.125          19.000                                                                                                                                  
C13                    311831.938        1696.107          20.000                                                                                                                                  
C14                   -450645.813       -2683.416          20.000                                                                                                                                  
C21                     21014.172         111.296          30.000                                                                                        7738.221          80.639          16.000  
C22                    385484.781        2343.385          14.000                                                                                                                                  
C24                   -528177.166           0.005          15.000                                                                                                                                  
C26                   -364912.729       -1956.804          33.000                                                                                     -193155.497       -1479.325          19.000  
> 2021 12  7  4 26 44.0000000  0 28                     
G10                    148911.579         533.123          34.000                       77961.512         397.241          23.000  
G21                   -188295.602        -685.244          23.000                                                                  
G23                    624103.660        2750.182          27.000                                                                  
G25                   -507206.838       -1838.420          24.000                     -166658.510       -1375.620          17.000  
G31                   -797625.597       -2770.455          25.000                                                                  
G32                   -273328.197       -1029.767          23.000                                                                  
R 7                                                        30.000  
R 8                                                        19.000  
R 9                                                        15.000  
R10                                                        20.000  
E 1                    180399.232         953.245          10.000                                                                  
E 4                    184984.606         976.826          15.000                                                                  
E 9                   -176177.043        -891.499          20.000                      -83937.317        -662.121          17.000  
E11                    569905.049        2846.315          16.000                                                                  
E24                   -500607.949       -3047.577          13.000                                                                  
E31                   -310382.509       -1830.099          27.000                                                                  
E36                    349209.527        1667.579          18.000                      186377.670        1242.718          15.000  
J 1                   -206639.383        -777.281          24.000                                                                  
J 2                     85027.077         292.083          32.000                       43771.997         217.601          19.000  
C 6                     28247.476         159.989          21.000                                                                                                                                  
C 8                    368139.024        1855.796          19.000                                                                                                                                  
C 9                     22313.280         123.765          17.000                                                                                                                                  
C13                    320663.056        1694.593          19.000                                                                                                                                  
C14                   -464623.163       -2688.580          18.000                                                                                                                                  
C21                     21609.811         114.497          27.000                                                                                        8063.015          84.046          17.000  
C22                    397688.690        2343.309          12.000                                                                                                                                  
C24                   -545076.367           0.005          14.000                                                                                                                                  
C26                   -375092.014       -1954.089          30.000                                                                                     -198943.370       -1472.275          19.000  
> 2021 12  7  4 26 45.0000000  0 28                     
G10                    151698.542         531.376          33.000                       79523.792         398.816          24.000  
G21                   -191888.342        -685.246          21.000                                                                  
G23                    638559.675        2751.032          25.000                                                                  
G25                   -516879.943       -1845.318          20.000                     -172057.771       -1375.334          16.000  
G31                   -812175.157       -2768.485          24.000                                                                  
G32                   -278750.910       -1033.128          25.000                                                                  
R 7                                                        27.000  
R 8                                                        22.000  
R 9                                                        13.000  
R10                                                        26.000  
E 1                    185407.376         952.975          11.000                                                                  
E 4                    190120.211         977.410          15.000                                                                  
E 9                   -180849.588        -887.845          22.000                      -86529.816        -659.847          16.000  
E11                    584860.065        2845.156          16.000                                                                  
E24                   -516620.478       -3046.256          10.000                                                                  
E31                   -319988.270       -1827.122          28.000                                                                  
E36                    357968.469        1665.724          17.000                      191250.538        1241.316          15.000  
J 1                   -210713.762        -773.477          24.000                                                                  
J 2                     86561.922         292.100          25.000                       44629.160         220.900          18.000  
C 6                     29068.911         157.148          20.000                                                                                                                                  
C 8                    377802.183        1854.440          18.000                                                                                                                                  
C 9                     22947.038         121.310          23.000                                                                                                                                  
C13                    329487.780        1695.534          20.000                                                                                                                                  
C14                   -478619.228       -2687.671          20.000                                                                                                                                  
C21                     22203.274         115.665          33.000                                                                                        8389.929          81.895          18.000  
C22                    409903.691        2346.511          14.000                                                                                                                                  
C24                   -561966.936           0.005          14.000                                                                                                                                  
C26                   -385276.003          -0.009          24.000                                                                                     -204725.278       -1473.889          17.000  
> 2021 12  7  4 26 46.0000000  0 27                     
G10                    154501.634         534.582          31.000                       81082.050         399.617          20.000  
G21                   -195482.118        -684.176          20.000                                                                  
G23                    653020.293        2751.821          27.000                                                                  
G25                   -526565.742       -1842.073          20.000                     -177452.964       -1375.410          15.000  
G31                   -826716.625       -2765.808          24.000                                                                  
G32                   -284181.386       -1030.286          26.000                                                                  
R 7                                                        22.000  
R 8                                                        22.000  
R 9                                                        15.000  
R10                                                        27.000  
E 1                    190415.260         953.328          11.000                                                                  
E 4                    195258.995         978.426          15.000                                                                  
E 9                   -185505.818        -885.747          28.000                      -89112.816        -656.367          14.000  
E11                    599815.435        2846.373          15.000                                                                  
E24                   -532624.347       -3044.877           9.000                                                                  
E31                   -329592.066       -1827.692          28.000                                                                  
E36                    366719.534        1667.505          16.000                      196127.038        1241.395          12.000  
J 2                     88099.538         292.233          25.000                       45493.032         218.597          17.000  
C 6                     29891.942         158.981          22.000                                                                                                                                  
C 8                    387461.174        1855.294          17.000                                                                                                                                  
C 9                     23578.919         121.172          24.000                                                                                                                                  
C13                    338315.682        1696.234          24.000                                                                                                                                  
C14                   -492612.891       -2685.642          17.000                                                                                                                                  
C21                     22811.457         116.404          24.000                                                                                        8717.189          84.002          17.000  
C22                    422132.617           0.006          13.000                                                                                                                                  
C24                   -578844.824           0.005          17.000                                                                                                                                  
C26                   -395462.348       -1953.207          24.000                                                                                     -210503.702       -1471.443          15.000  
> 2021 12  7  4 26 47.0000000  0 27                     
G10                    157303.976         531.336          28.000                       82648.314         395.778          20.000  
G21                   -199076.485        -681.389          20.000                                                                  
G23                    667476.446        2753.656          28.000                                                                  
G25                   -536250.258       -1842.011          19.000                     -182842.714       -1372.955          16.000  
G31                   -841251.898       -2765.684          24.000                                                                  
G32                   -289611.203       -1036.884          29.000                                                                  
R 7                                                        22.000  
R 8                                                        25.000  
R 9                                                        16.000  
R10                                                        22.000  
E 1                    195423.461         952.938          11.000                                                                  
E 4                    200402.208         979.317          15.000                                                                  
E 9                   -190164.221        -887.493          24.000                      -91700.430        -660.724          21.000  
E11                    614772.336        2845.878          16.000                                                                  
E24                   -548620.579       -3043.817           8.000                                                                  
E31                   -339196.103       -1828.148          25.000                                                                  
E36                    375495.391        1670.308          16.000                      201007.808        1244.418          14.000  
J 2                     89631.037         293.502          29.000                       46354.107         220.357          15.000  
C 6                     30719.775         159.349          23.000                                                                                                                                  
C 8                    397127.960        1856.433          16.000                                                                                                                                  
C 9                     24210.159         120.170          20.000                                                                                                                                  
C13                    347149.577        1696.586          23.000                                                                                                                                  
C14                   -506595.989       -2683.445          20.000                                                                                                                                  
C21                     23425.604         114.548          28.000                                                                                        9049.783          85.801          18.000  
C22                    434364.877           0.006          13.000                                                                                                                                  
C24                   -595719.216           0.005          15.000                                                                                                                                  
C26                   -405641.666       -1956.482          27.000                                                                                     -216281.387       -1473.334          15.000  
> 2021 12  7  4 26 48.0000000  0 27                     
G10                    160096.841         534.719          30.000                       84213.523         398.444          19.000  
G21                   -202653.633        -679.298          23.000                                                                  
G23                    681947.462        2753.836          31.000                                                                  
G25                   -545934.990       -1842.164          17.000                     -188220.333       -1367.981          15.000  
G31                   -855790.387       -2769.321          24.000                                                                  
G32                   -295051.318       -1032.560          34.000                                                                  
R 7                                                        23.000  
R 8                                                        22.000  
R 9                                                        17.000  
R10                                                        19.000  
E 1                    200433.094         954.074          10.000                                                                  
E 4                    205548.825         979.099          14.000                                                                  
E 9                   -194825.889        -888.413          18.000                      -94291.990        -662.735          18.000  
E11                    629731.643        2846.893          16.000                                                                  
E24                   -564612.993       -3042.937           9.000                                                                  
E31                   -348802.130       -1827.415          29.000                                                                  
E36                    384270.419        1669.757          17.000                      205890.026        1243.112          12.000  
J 2                     91171.451         293.823          27.000                                                                  
C 6                     31551.712         159.801          21.000                                                                                                                                  
C 8                    406798.075        1858.703          19.000                                                                                                                                  
C 9                     24838.138         121.307          22.000                                                                                                                                  
C13                    355981.973        1695.886          26.000                                                                                                                                  
C14                   -520565.524       -2683.493          20.000                                                                                                                                  
C21                     24019.936         113.730          30.000                                                                                        9384.158          84.583          16.000  
C22                    446601.256           0.006          10.000                                                                                                                                  
C24                   -612594.064           0.005          14.000                                                                                                                                  
C26                   -415831.207       -1959.354          23.000                                                                                     -222059.230       -1472.933          15.000  
> 2021 12  7  4 26 49.0000000  0 28                     
G10                    162907.421         533.949          30.000                       85779.743         399.286          19.000  
G21                   -206221.923        -679.134          20.000                                                                  
G23                    696410.201        2752.330          28.000                                                                  
G25                   -555622.192       -1842.848          17.000                     -193583.041       -1366.408          12.000  
G31                   -870328.129       -2766.684          27.000                                                                  
G32                   -300476.869       -1033.116          27.000                                                                  
R 7                                                        20.000  
R 8                                                        23.000  
R 9                                                        17.000  
R10                                                        23.000  
E 1                    205447.086         953.806          10.000                                                                  
E 4                    210696.926         980.142          13.000                                                                  
E 9                   -199488.385        -886.377          16.000                      -96887.922        -659.856          15.000  
E11                    644691.850        2845.991          15.000                                                                  
E24                   -580602.887       -3042.591           9.000                                                                  
E31                   -358400.688       -1826.498          23.000                                                                  
E36                    393043.866        1671.186          17.000                      210772.588        1244.142          11.000  
J 1                   -226988.263        -774.141          24.000                                                                  
J 2                     92705.634         289.596          26.000                                                                  
C 6                     32382.163         159.357          20.000                                                                                                                                  
C 8                    416474.160        1857.347          18.000                                                                                                                                  
C 9                     25471.660         121.593          20.000                                                                                                                                  
C13                    364814.887        1695.926          20.000                                                                                                                                  
C14                   -534544.040       -2686.036          18.000                                                                                                                                  
C21                     24611.762         111.041          25.000                                                                                        9711.321          83.387          15.000  
C22                    458833.423           0.006          10.000                                                                                                                                  
C24                   -629469.398       -3240.573          15.000                                                                                                                                  
C26                   -426031.510          -0.009          21.000                                                                                     -227841.425       -1473.965          14.000  
> 2021 12  7  4 26 50.0000000  0 28                     
G10                    165719.783         534.742          34.000                       87345.857         398.993          22.000  
G21                   -209799.018        -680.947          21.000                                                                  
G23                    710867.727        2755.200          28.000                                                                  
G25                   -565303.062       -1841.453          17.000                     -198948.059       -1368.513          14.000  
G31                   -884856.653       -2761.304          26.000                                                                  
G32                   -305916.647       -1035.402          23.000                                                                  
R 7                                                        20.000  
R 8                                                        24.000  
R 9                                                        20.000  
R10                                                        28.000  
E 1                    210460.370         954.411          11.000                                                                  
E 4                    215846.241         980.243          14.000                                                                  
E 9                   -204142.921        -886.693          19.000                      -99487.876        -663.476          13.000  
E11                    659648.691        2845.956          15.000                                                                  
E24                   -596596.751       -3044.435           9.000                                                                  
E31                   -368004.166       -1829.082          23.000                                                                  
E36                    401831.640        1669.476          16.000                      215660.844        1246.375          13.000  
J 1                   -231054.116        -773.691          20.000                                                                  
J 2                     94235.394         294.691          29.000                                                                  
C 6                     33212.659         160.329          18.000                                                                                                                                  
C 8                    426155.624           0.050          17.000                                                                                                                                  
C 9                     26100.250         120.683          21.000                                                                                                                                  
C13                    373649.389           0.017          22.000                                                                                                                                  
C14                   -548527.257       -2684.715          20.000                                                                                                                                  
C21                     25203.101         114.705          28.000                                                                                       10043.118          83.888          15.000  
C22                    471054.654           0.006          12.000                                                                                                                                  
C24                   -646340.448       -3241.546          16.000                                                                                                                                  
C26                   -436222.987       -1957.430          25.000                                                                                     -233619.254       -1472.630          14.000  
> 2021 12  7  4 26 51.0000000  0 28                     
G10                    168520.696         531.965          28.000                       88927.932         404.854          19.000  
G21                   -213369.493        -677.750          23.000                                                                  
G23                    725338.695        2753.188          25.000                                                                  
G25                   -574968.277       -1838.842          16.000                     -204318.754       -1368.670          14.000  
G31                   -899371.626       -2763.323          28.000                                                                  
G32                   -311356.658       -1032.706          29.000                      -12154.033        -768.348          14.000  
R 7                                                        21.000  
R 8                                                        22.000  
R 9                                                        25.000  
R10                                                        22.000  
E 1                    215477.359         955.424          11.000                                                                  
E 4                    220996.993         979.408          14.000                                                                  
E 9                   -208802.744        -886.181          19.000                     -102093.850        -664.396          12.000  
E11                    674602.292        2845.100          15.000                                                                  
E24                   -612594.668       -3044.407           9.000                                                                  
E31                   -377605.108       -1826.929          24.000                                                                  
E36                    410597.398        1671.091          18.000                                                                  
J 1                   -235118.411        -772.420          21.000                                                                  
J 2                     95779.663         291.107          29.000                                                                  
C 6                     34044.976         160.890          20.000                                                                                                                                  
C 8                    435841.967           0.050          16.000                                                                                                                                  
C 9                     26725.180         120.255          21.000                                                                                                                                  
C13                    382474.975           0.017          18.000                                                                                                                                  
C14                   -562504.749       -2683.195          19.000                                                                                                                                  
C21                     25800.014         114.259          25.000                                                                                       10377.615          85.914          15.000  
C22                    483263.746           0.006          13.000                                                                                                                                  
C24                   -663223.894       -3243.015          17.000                                                                                                                                  
C26                   -446410.975       -1955.720          21.000                                                                                     -239407.160       -1475.398          16.000  
> 2021 12  7  4 26 52.0000000  0 28                     
G10                    171329.630         535.871          25.000                       90503.330         400.289          23.000  
G21                   -216920.150        -673.055          23.000                                                                  
G23                    739815.245        2755.140          26.000                                                                  
G25                   -584634.823       -1838.341          18.000                     -209688.789       -1369.891          14.000  
G31                   -913887.828       -2761.647          24.000                                                                  
G32                   -316775.867       -1033.844          25.000                      -15175.409        -771.118          16.000  
R 7                                                        20.000  
R 8                                                        23.000  
R 9                                                        25.000  
R10                                                        24.000  
E 1                    220499.500         955.966          11.000                                                                  
E 4                    226140.230         978.526          15.000                                                                  
E 9                   -213457.854        -886.063          19.000                     -104700.242        -664.974          12.000  
E11                    689552.396        2844.668          15.000                                                                  
E24                   -628592.893       -3043.991           9.000                                                                  
E31                   -387202.164       -1824.794          25.000                                                                  
E36                    419382.939        1672.897          19.000                                                                  
J 1                   -239187.468        -773.015          20.000                                                                  
J 2                     97313.823         290.004          25.000                       50710.880         218.449          17.000  
C 6                     34883.742         158.834          18.000                                                                                                                                  
C 8                    445515.042        1856.708          15.000                                                                                                                                  
C 9                     27351.182         119.825          18.000                                                                                                                                  
C13                    391300.843           0.017          18.000                                                                                                                                  
C14                   -576479.241       -2682.564          21.000                                                                                                                                  
C21                     26409.441         116.011          29.000                                                                                       10709.209          83.377          15.000  
C22                    495458.409           0.006          13.000                                                                                                                                  
C24                   -680112.195       -3244.147          17.000                                                                                                                                  
C26                   -456594.993       -1955.559          23.000                                                                                     -245195.039       -1474.300          15.000  
> 2021 12  7  4 26 53.0000000  0 28                     
G10                    174150.289         538.507          29.000                       92074.785         400.635          24.000  
G21                   -220461.265        -675.112          19.000                                                                  
G23                    754285.867        2752.184          27.000                                                                  
G25                   -594298.175       -1839.773          17.000                     -215072.462       -1374.849          15.000  
G31                   -928388.206       -2759.072          25.000                                                                  
G32                   -322204.398       -1034.646          28.000                      -18194.167        -767.986          14.000  
R 7                                                        19.000  
R 8                                                        20.000  
R 9                                                        23.000  
R10                                                        27.000  
E 1                    225525.761         956.599          12.000                                                                  
E 4                    231283.677         979.021          14.000                                                                  
E 9                   -218109.725        -883.112          19.000                     -107309.260        -665.164          13.000  
E11                    704504.523        2845.269          14.000                                                                  
E24                   -644591.032       -3044.589           7.000                                                                  
E31                   -396797.563       -1826.902          26.000                                                                  
E36                    428168.664        1670.421          18.000                                                                  
J 1                   -243247.651        -771.928          22.000                                                                  
J 2                     98844.317         290.634          29.000                       51569.327         219.895          17.000  
C 6                     35700.075         157.596          18.000                                                                                                                                  
C 8                    455187.193        1856.936          14.000                                                                                                                                  
C 9                     27979.606         123.355          20.000                                                                                                                                  
C13                    400129.318           0.017          17.000                                                                                                                                  
C14                   -590455.182       -2686.190          17.000                                                                                                                                  
C21                     27009.564         117.365          27.000                                                                                       11033.408          83.858          17.000  
C22                    507652.447           0.006          13.000                                                                                                                                  
C24                   -697005.565       -3244.878          14.000                                                                                                                                  
C26                   -466782.028       -1957.731          21.000                                                                                     -250978.069       -1472.567          18.000  
> 2021 12  7  4 26 54.0000000  0 28                     
G10                    176966.726         537.239          35.000                       93642.973         396.297          20.000  
G21                   -224018.719        -676.022          18.000                                                                  
G23                    768752.693        2753.873          23.000                                                                  
G25                   -603967.063       -1840.965          18.000                     -220472.603       -1373.609          15.000  
G31                   -942901.061       -2763.222          27.000                                                                  
G32                   -327627.391       -1031.551          22.000                      -21203.108        -765.632          13.000  
R 7                                                        20.000  
R 8                                                        28.000  
R 9                                                        25.000  
R10                                                        25.000  
E 1                    230553.004         957.115          11.000                                                                  
E 4                    236429.581         979.278          15.000                                                                  
E 9                   -222763.344        -886.136          20.000                     -109913.457        -663.122          13.000  
E11                    719456.366        2844.988          14.000                                                                  
E24                   -660591.728       -3044.788           7.000                                                                  
E31                   -406401.461       -1828.827          22.000                                                                  
E36                    436959.795        1673.997          19.000                                                                  
J 1                   -247320.744        -777.742          23.000                                                                  
J 2                    100365.648         291.106          24.000                       52431.022         219.804          17.000  
C 6                     36515.071         156.117          18.000                                                                                                                                  
C 8                    464857.107        1857.154          15.000                                                                                                                                  
C 9                     28610.123         119.616          22.000                                                                                                                                  
C13                    408957.261           0.017          18.000                                                                                                                                  
C14                   -604448.330       -2687.812          16.000                                                                                                                                  
C21                     27613.932         115.804          23.000                                                                                       11362.930          84.560          17.000  
C22                    519858.523           0.006          12.000                                                                                                                                  
C24                   -713902.278       -3244.582          17.000                                                                                                                                  
C26                   -476974.962       -1957.002          24.000                                                                                     -256756.238       -1472.510          18.000  
> 2021 12  7  4 26 55.0000000  0 22                     
G10                    179803.848         537.254          27.000                       95203.502         398.606          20.000  
G21                   -227573.178        -675.680          23.000                                                                  
G23                    783230.848        2757.550          21.000                                                                  
G25                   -613643.221       -1840.427          16.000                     -225867.066       -1374.809          11.000  
G31                   -957429.015       -2764.867          25.000                                                                  
G32                   -333061.650       -1037.974          25.000                                                                  
R 7                                                        20.000  
R 8                                                        23.000  
R 9                                                        20.000  
R10                                                        20.000  
E 1                    235584.542         957.568          11.000                                                                  
E 4                    241576.217         979.233          15.000                                                                  
E 9                   -227422.120        -887.340          22.000                                                                  
E11                    734405.177        2844.259          15.000                                                                  
E31                   -416002.776       -1827.538          23.000                                                                  
E36                    445746.832        1670.440          18.000                                                                  
J 1                   -251408.199        -776.518          24.000                                                                  
J 2                    101900.764         293.035          27.000                       53290.066         220.048          18.000  
C21                     28209.356         113.269          21.000                                                                                       11700.103          87.840          17.000  
C22                    532070.269           0.006          12.000                                                                                                                                  
C24                   -730790.496       -3242.389          15.000                                                                                                                                  
C26                   -487160.383       -1954.495          20.000                                                                                     -262536.751       -1471.178          15.000  
> 2021 12  7  4 26 56.0000000  0 20                     
G10                    182623.271         537.437          33.000                       96778.596         400.851          23.000  
G21                   -231126.724        -678.901          19.000                                                                  
G23                    797719.984        2757.354          25.000                                                                  
G25                   -623310.209       -1838.831          17.000                     -231259.167       -1373.421          14.000  
G31                   -971943.105       -2763.209          27.000                                                                  
G32                   -338503.436       -1034.470          27.000                                                                  
R 7                                                        23.000  
R 8                                                        23.000  
R 9                                                        20.000  
R10                                                        23.000  
E 1                    240615.215         957.661          11.000                                                                  
E 4                    246723.635         979.046          15.000                                                                  
E 9                   -232092.506        -889.854          19.000                                                                  
E11                    749351.313        2843.750          15.000                                                                  
E31                   -425597.091       -1824.499          24.000                                                                  
E36                    454526.652        1667.992          19.000                                                                  
J 2                    103441.683         294.603          29.000                       54153.745         220.457          17.000  
C21                     28803.714         114.844          27.000                                                                                       12036.890          84.023          17.000  
C22                    544292.376           0.006          11.000                                                                                                                                  
C26                   -497332.664       -1953.289          19.000                                                                                     -268304.894       -1470.147          15.000  
> 2021 12  7  4 26 57.0000000  0 20                     
G10                    185455.513         539.734          30.000                       98356.163         401.478          22.000  
G21                   -234700.142        -680.626          17.000                                                                  
G23                    812210.389        2756.847          27.000                       33652.952        2057.888          18.000  
G25                   -632972.471       -1838.728          20.000                     -236648.092       -1372.470          15.000  
G31                   -986460.563       -2762.406          24.000                                                                  
G32                   -343933.855       -1032.696          22.000                                                                  
R 7                                                        25.000  
R 8                                                        20.000  
R 9                                                        19.000  
R10                                                        23.000  
E 1                    245649.089         958.254          11.000                                                                  
E 4                    251869.413         978.725          15.000                                                                  
E 9                   -236770.935        -891.359          18.000                                                                  
E11                    764294.077        2842.545          11.000                                                                  
E31                   -435181.013       -1824.720          27.000                                                                  
E36                    463300.860        1668.630          16.000                                                                  
J 2                    104985.636         292.046          29.000                       55015.849         218.213          18.000  
C21                     29419.390         118.322          25.000                                                                                       12367.524          86.168          17.000  
C22                    556521.874           0.006          11.000                                                                                                                                  
C26                   -507507.941       -1955.540          20.000                                                                                     -274072.262       -1470.912          17.000  
> 2021 12  7  4 26 58.0000000  0 19                     
G10                    188291.768         538.349          28.000                       99931.380         399.529          21.000  
G21                   -238271.933        -679.140          15.000                                                                  
G23                    826693.309        2756.755          23.000                       41733.356        2057.450          17.000  
G25                   -642640.856       -1839.998          19.000                     -242031.559       -1371.876          17.000  
G31                  -1000974.170          -0.008          25.000                                                                  
G32                   -349364.908       -1035.610          25.000                                                                  
R 7                                                        24.000  
R 8                                                        25.000  
R 9                                                        17.000  
R10                                                        21.000  
E 1                    250687.513         958.923          11.000                                                                  
E 4                    257011.851         977.969          16.000                                                                  
E 9                   -241434.620        -886.942          19.000                                                                  
E11                    779225.718        2840.298          13.000                                                                  
E31                   -444761.617       -1824.811          22.000                                                                  
E36                    472076.237        1669.786          16.000                                                                  
J 2                    106521.043         289.668          34.000                       55872.848         220.157          21.000  
C21                     30034.677         118.813          26.000                                                                                       12708.250          86.332          20.000  
C26                   -517694.430          -0.009          19.000                                                                                     -279847.878       -1473.599          17.000  
> 2021 12  7  4 26 59.0000000  0 21                     
G10                    191123.429         539.617          33.000                      101508.088         401.185          22.000  
G21                   -241841.196        -679.336          16.000                                                                  
G23                    841182.187        2756.267          19.000                       49802.375        2058.001          16.000  
G25                   -652320.164       -1840.531          18.000                     -247414.180       -1371.891          14.000  
G31                  -1015499.749       -2762.508          24.000                                                                  
G32                   -354795.274       -1031.350          27.000                                                                  
R 7                                                        25.000  
R 8                                                        25.000  
R 9                                                        18.000  
R10                                                        25.000  
E 1                    255728.113         959.447          10.000                                                                  
E 4                    262148.286         977.140          16.000                                                                  
E 5                    -47790.469       -1875.413          14.000                                                                  
E 9                   -246098.735        -885.375          19.000                                                                  
E11                    794149.234        2839.243          13.000                                                                  
E31                   -454347.099       -1821.525          21.000                                                                  
E36                    480856.546        1670.723          18.000                                                                  
J 1                   -267714.735        -776.616          24.000                                                                  
J 2                    108040.353         288.952          27.000                       56724.367         218.247          18.000  
C21                     30641.484         115.626          26.000                                                                                       13041.630          85.163          18.000  
C26                   -527871.395       -1955.370          20.000                                                                                     -285632.267       -1473.972          17.000  
> 2021 12  7  4 27  0.0000000  0 21                     
G10                    193956.608         536.809          34.000                      103089.205         402.063          23.000  
G21                   -245404.673        -677.645          15.000                                                                  
G23                    855667.096        2754.830          20.000                       57876.783        2055.902          13.000  
G25                   -661993.084       -1838.977          17.000                     -252792.713       -1371.812          12.000  
G31                  -1030019.250       -2761.323          29.000                                                                  
G32                   -360221.643       -1031.816          20.000                                                                  
R 7                                                        25.000  
R 8                                                        24.000  
R 9                                                        17.000  
R10                                                        26.000  
E 1                    260770.243         959.834          11.000                                                                  
E 4                    267285.091         978.436          19.000                                                                  
E 5                    -57646.670       -1875.477          13.000                                                                  
E 9                   -250757.892        -887.810          20.000                                                                  
E11                    809064.300        2837.608          10.000                                                                  
E31                   -463918.758       -1820.379          20.000                                                                  
E36                    489633.329        1669.427          17.000                                                                  
J 1                   -271785.921        -771.823          20.000                                                                  
J 2                    109570.212         291.144          28.000                       57579.238         219.104          17.000  
C21                     31240.131         115.544          28.000                                                                                       13383.028          90.225          18.000  
C26                   -538047.862       -1953.915          24.000                                                                                     -291420.360       -1474.700          13.000  
> 2021 12  7  4 27  1.0000000  0 21                     
G10                    196794.065         540.296          36.000                      104672.388         404.507          21.000  
G21                   -248970.240        -679.647          15.000                                                                  
G23                    870148.176        2754.815          20.000                       65939.356        2053.629          13.000  
G25                   -671657.564       -1838.472          15.000                     -258176.312       -1370.385          13.000  
G31                  -1044535.819       -2760.595          25.000                                                                  
G32                   -365652.496       -1035.543          20.000                                                                  
R 7                                                        32.000  
R 8                                                        21.000  
R 9                                                        17.000  
R10                                                        27.000  
E 1                    265814.555         960.063          11.000                                                                  
E 4                    272422.014         977.339          20.000                                                                  
E 5                    -67502.001       -1875.653          11.000                                                                  
E 9                   -255411.111        -886.708          22.000                                                                  
E11                    823971.465        2835.067          11.000                                                                  
E31                   -473504.943       -1823.114          19.000                                                                  
E36                    498407.979        1671.550          17.000                                                                  
J 1                   -275838.046        -772.302          23.000                                                                  
J 2                    111111.234         293.968          27.000                       58435.821         219.008          17.000  
C21                     31847.739         115.979          28.000                                                                                       13732.736          88.224          19.000  
C26                   -548224.144          -0.009          20.000                                                                                     -297212.243       -1475.836          11.000  
> 2021 12  7  4 27  2.0000000  0 21                     
G10                    199634.671         540.149          35.000                      106257.869         407.245          22.000  
G21                   -252537.398        -678.428          15.000                                                                  
G23                    884640.263        2759.336          20.000                       73994.496        2052.774          12.000  
G25                   -681308.274       -1835.575          17.000                     -263563.514       -1374.912          14.000  
G31                  -1059037.584       -2760.546          25.000                                                                  
G32                   -371098.172       -1036.133          23.000                                                                  
R 7                                                        27.000  
R 8                                                        21.000  
R 9                                                        13.000  
R10                                                        27.000  
E 1                    270859.046         959.806          11.000                                                                  
E 4                    277553.791         975.792          23.000                                                                  
E 5                    -77360.557       -1875.143          12.000                                                                  
E 9                   -260075.028        -888.686          19.000                                                                  
E11                    838867.657        2834.447          11.000                                                                  
E31                   -483080.259       -1823.201          18.000                                                                  
E36                    507179.948        1672.787          18.000                                                                  
J 1                   -279899.246        -774.163          24.000                                                                  
J 2                    112643.359         290.398          30.000                       59299.764         220.765          19.000  
C21                     32459.944         117.985          28.000                                                                                       14079.389          90.177          20.000  
C26                   -558392.177       -1951.350          20.000                                                                                     -303003.078       -1473.536          16.000  
> 2021 12  7  4 27  3.0000000  0 22                     
G10                    202473.411         538.313          25.000                      107842.712         403.917          17.000  
G21                   -256109.040        -678.617          15.000                                                                  
G23                    899140.032        2757.799          18.000                       82051.514        2054.796          14.000  
G25                   -690958.258       -1836.275          17.000                     -268956.475       -1374.371          13.000  
G31                  -1073558.575       -2763.209          24.000                                                                  
G32                   -376529.912       -1030.277          24.000                                                                  
R 7                                                        31.000  
R 8                                                        23.000  
R 9                                                        15.000  
R10                                                        29.000  
E 1                    275903.762         960.047          12.000                                                                  
E 4                    282686.908         978.265          21.000                                                                  
E 5                    -87215.568       -1875.486          10.000                                                                  
E 9                   -264737.796        -887.063          24.000                                                                  
E11                    853761.585        2833.559           6.000                                                                  
E24                   -142018.535       -3057.444          24.000                                                                  
E31                   -492664.723       -1822.330          18.000                                                                  
E36                    515969.956        1672.373          16.000                                                                  
J 1                   -283960.936        -773.122          25.000                                                                  
J 2                    114174.736         292.148          33.000                       60167.145         219.586          19.000  
C21                     33075.679         117.376          25.000                                                                                       14435.835          91.230          17.000  
C26                   -568562.384       -1953.591          25.000                                                                                     -308778.988       -1471.691          16.000  
> 2021 12  7  4 27  4.0000000  0 24                     
G10                    205323.308         544.368          30.000                      109426.605         403.260          17.000  
G12                      1953.346          69.243          18.000                                                                  
G21                   -259670.054        -677.233          15.000                                                                  
G23                    913635.013        2759.418          18.000                                                                  
G25                   -700607.893       -1835.618          17.000                     -274356.807       -1378.260          13.000  
G31                  -1088075.286       -2760.866          21.000                                                                  
G32                   -381951.861       -1034.016          27.000                                                                  
R 7                                                        29.000  
R 8                                                        20.000  
R 9                                                        16.000  
R10                                                        27.000  
R24                                                        17.000  
E 1                    280948.712         960.211          14.000                                                                  
E 4                    287819.577         976.550          21.000                                                                  
E 5                    -97068.750       -1874.674          11.000                                                                  
E 9                   -269405.349        -890.836          20.000                                                                  
E11                    868651.732        2832.707           5.000                                                                  
E24                   -158088.935       -3059.119          27.000                                                                  
E31                   -502248.132       -1824.058          16.000                                                                  
E36                    524752.371        1672.302          14.000                                                                  
J 1                   -288033.278        -777.553          25.000                                                                  
J 2                    115705.943         291.221          25.000                       61021.370         218.493          20.000  
C21                     33693.696         118.974          27.000                                                                                       14796.823          92.614          19.000  
C26                   -578726.269       -1951.849          23.000                                                                                     -314545.834       -1468.047          15.000  
> 2021 12  7  4 27  5.0000000  0 24                     
G10                    208177.445         542.224          35.000                      111018.303         407.080          17.000  
G12                      2317.805          69.435          17.000                                                                  
G21                   -263227.021        -675.822          16.000                                                                  
G23                    928144.827        2761.802          17.000                                                                  
G25                   -710257.790       -1836.499          20.000                                                                  
G31                  -1102580.743       -2759.645          22.000                                                                  
G32                   -387381.304       -1032.814          24.000                                                                  
R 7                                                        29.000  
R 8                                                        19.000  
R 9                                                        17.000  
R10                                                        25.000  
R24                                                        17.000  
E 1                    285995.223         960.172          14.000                                                                  
E 4                    292956.808         976.769          20.000                                                                  
E 5                   -106918.012       -1873.974          11.000                                                                  
E 9                   -274067.256        -885.310          22.000                                                                  
E11                    883539.557        2833.333           6.000                                                                  
E24                   -174169.456       -3060.825          23.000                                                                  
E31                   -511818.571       -1821.092          17.000                                                                  
E36                    533523.536        1665.879          14.000                                                                  
J 1                   -292114.322        -775.893          24.000                                                                  
J 2                    117247.931         293.930          26.000                       61883.531         216.434          20.000  
C21                     34312.645         119.525          23.000                                                                                       15158.420          92.150          18.000  
C26                   -588885.763       -1951.577          29.000                                                                                     -320310.048       -1469.911          20.000  
> 2021 12  7  4 27  6.0000000  0 24                     
G10                    211028.540         540.878          37.000                      112614.270         407.075          16.000  
G12                      2699.645          71.311          17.000                                                                  
G21                   -266768.652        -672.002          16.000                                                                  
G23                    942658.344        2761.613          18.000                                                                  
G25                   -719905.324       -1835.101          18.000                                                                  
G31                  -1117084.644       -2757.498          24.000                                                                  
G32                   -392810.496       -1034.460          31.000                                                                  
R 7                                                        26.000  
R 8                                                        20.000  
R 9                                                        15.000  
R10                                                        25.000  
R24                                                        14.000  
E 1                    291042.035         960.651          15.000                                                                  
E 4                    298095.422         978.688          20.000                                                                  
E 5                   -116764.190       -1873.335          10.000                                                                  
E 9                   -278725.620        -886.396          25.000                                                                  
E11                    898427.289        2832.781           6.000                                                                  
E24                   -190258.941       -3062.368          22.000                      -50620.917       -2292.495          19.000  
E31                   -521381.565       -1818.538          18.000                                                                  
E36                    542281.402        1666.775          13.000                                                                  
J 1                   -296191.111        -773.611          25.000                                                                  
J 2                    118786.247         291.134          27.000                       62738.869         218.296          19.000  
C21                     34937.681         119.703          27.000                                                                                       15512.907          88.938          21.000  
C26                   -599053.159       -1953.179          33.000                                                                                     -326078.186       -1469.898          22.000  
> 2021 12  7  4 27  7.0000000  0 24                     
G10                    213887.994         548.532          29.000                      114208.795         405.470          19.000  
G12                      3062.636          66.320          20.000                                                                  
G21                   -270304.644        -672.365          19.000                                                                  
G23                    957166.827        2760.950          17.000                                                                  
G25                   -729541.760       -1833.837          18.000                                                                  
G31                  -1131580.823       -2760.599          20.000                                                                  
G32                   -398247.521       -1031.932          33.000                                                                  
R 7                                                        24.000  
R 8                                                        18.000  
R 9                                                        16.000  
R10                                                        23.000  
R24                                                        13.000  
E 1                    296092.436         961.271          13.000                                                                  
E 4                    303229.321         973.866          18.000                                                                  
E 5                   -126607.942       -1873.112          10.000                                                                  
E 9                   -283384.290        -886.904          33.000                       -4292.939        -659.822          19.000  
E11                    913312.577        2832.290           6.000                                                                  
E24                   -206350.802       -3059.562          18.000                      -59613.027       -2289.934          15.000  
E31                   -530952.255       -1822.461          16.000                                                                  
E36                    551042.947        1667.623          12.000                                                                  
J 1                   -300260.850        -773.928          20.000                                                                  
J 2                    120316.631         291.166          25.000                       63594.771         216.900          17.000  
C21                     35545.225         115.880          24.000                                                                                       15871.882          92.037          20.000  
C26                   -609219.482       -1952.633          25.000                                                                                     -331844.754       -1469.451          19.000  
> 2021 12  7  4 27  8.0000000  0 24                     
G10                    216759.073         543.609          32.000                      115801.718         406.715          23.000  
G12                      3420.009          70.979          18.000                                                                  
G21                   -273837.705        -673.843          17.000                                                                  
G23                    971675.966        2760.775          17.000                                                                  
G25                   -739177.886       -1832.744          19.000                                                                  
G31                  -1146079.286       -2757.786          22.000                                                                  
G32                   -403671.898       -1031.060          27.000                                                                  
R 7                                                        25.000  
R 8                                                        17.000  
R 9                                                        17.000  
R10                                                        25.000  
R24                                                        14.000  
E 1                    301145.042         961.645          15.000                                                                  
E 4                    308352.273         974.066          18.000                                                                  
E 5                   -136450.648       -1872.914          11.000                                                                  
E 9                   -288045.288        -888.442          20.000                       -6880.412        -660.717          17.000  
E11                    928194.458        2831.594           5.000                                                                  
E24                   -222432.842       -3059.232          15.000                      -68595.123       -2286.584          15.000  
E31                   -540528.128       -1822.992          17.000                                                                  
E36                    559810.314        1669.649          14.000                                                                  
J 1                   -304335.828        -775.661          22.000                                                                  
J 2                    121837.120         287.807          27.000                       64447.469         216.466          15.000  
C21                     36163.878         119.948          25.000                                                                                       16221.547          87.842          17.000  
C26                   -619377.426       -1950.721          23.000                                                                                     -337609.473       -1469.675          17.000  
> 2021 12  7  4 27  9.0000000  0 24                     
G10                    219613.129         542.172          34.000                      117401.016         408.108          18.000  
G12                      3794.186          70.938          16.000                                                                  
G21                   -277380.389        -672.789          14.000                                                                  
G23                    986181.913        2760.722          17.000                                                                  
G25                   -748809.246       -1831.664          19.000                                                                  
G31                  -1160575.424       -2759.358          20.000                                                                  
G32                   -409095.189       -1033.328          31.000                                                                  
R 7                                                        21.000  
R 8                                                        17.000  
R 9                                                        17.000  
R10                                                        21.000  
R24                                                        14.000  
E 1                    306202.581         962.895          14.000                                                                  
E 4                    313493.298         981.119          18.000                                                                  
E 5                   -146291.275       -1872.466           9.000                                                                  
E 9                   -292706.665        -887.710          21.000                       -9476.497        -661.350          17.000  
E11                    943073.555        2831.471           5.000                                                                  
E24                   -238510.373       -3059.790          11.000                                                                  
E31                   -550127.833       -1826.121          16.000                                                                  
E36                    568584.107        1670.899          14.000                                                                  
J 1                   -308418.234        -775.889          24.000                                                                  
J 2                    123362.034         290.870          26.000                       65292.012         215.848          15.000  
C21                     36781.613         118.022          21.000                                                                                       16566.733          87.888          13.000  
C26                   -629531.964       -1950.209          25.000                                                                                     -343386.901       -1471.917          16.000  
> 2021 12  7  4 27 10.0000000  0 23                     
G10                    222486.832         548.737          24.000                      119004.145         409.583          17.000  
G12                      4163.290          69.109          17.000                                                                  
G21                   -280919.663        -674.350          16.000                                                                  
G23                   1000692.582        2762.680          20.000                                                                  
G25                   -758439.542       -1832.836          23.000                                                                  
G31                  -1175073.995       -2759.564          19.000                                                                  
G32                   -414500.805       -1026.809          22.000                                                                  
R 7                                                        26.000  
R 8                                                        17.000  
R 9                                                        17.000  
R10                                                        19.000  
R24                                                        14.000  
E 1                    311264.363         962.925          15.000                                                                  
E 4                    318658.800         981.646          18.000                                                                  
E 5                   -156130.001       -1872.238           8.000                                                                  
E 9                   -297366.568        -887.209          18.000                      -12074.729        -661.357          17.000  
E11                    957954.215        2831.760           5.000                                                                  
E24                   -254590.823       -3059.063          12.000                                                                  
E31                   -559702.016       -1818.471          18.000                                                                  
E36                    577369.350        1672.604          15.000                                                                  
J 2                    124891.868         291.063          23.000                       66148.590         220.745          18.000  
C21                     37395.477         118.445          23.000                                                                                       16912.799          87.063          15.000  
C26                   -639682.606       -1949.437          22.000                                                                                     -349163.994       -1471.716          16.000  
> 2021 12  7  4 27 11.0000000  0 23                     
G10                    225354.074         547.479          27.000                      120610.279         410.235          17.000  
G12                      4537.885          72.506          19.000                                                                  
G21                   -284470.064           0.014          13.000                                                                  
G23                   1015208.334        2761.475          22.000                                                                  
G25                   -768070.141       -1833.052          20.000                                                                  
G31                  -1189588.773          -0.008          18.000                                                                  
G32                   -419908.947       -1031.823          21.000                                                                  
R 7                                                        21.000  
R 8                                                        17.000  
R 9                                                        17.000  
R10                                                        24.000  
R24                                                        13.000  
E 1                    316327.724         963.901          15.000                                                                  
E 4                    323811.773         981.102          17.000                                                                  
E 5                   -165972.360       -1873.253           8.000                                                                  
E 9                   -302024.788        -886.497          14.000                      -14678.269        -663.911          15.000  
E11                    972832.462        2830.644           5.000                                                                  
E24                   -270664.533       -3058.332          11.000                                                                  
E31                   -569247.450       -1816.616          17.000                                                                  
E36                    586161.299        1673.596          15.000                                                                  
J 2                    126425.497         293.414          25.000                       66999.326         218.935          24.000  
C21                     38018.102         120.448          25.000                                                                                       17253.253          88.661          17.000  
C26                   -649839.980       -1949.563          25.000                                                                                     -354942.292       -1471.916          15.000  
> 2021 12  7  4 27 12.0000000  0 23                     
G10                    228232.422         546.536          24.000                      122210.689         407.623          18.000  
G12                      4917.953          73.231          19.000                                                                  
G21                   -288022.012           0.014          15.000                                                                  
G23                   1029717.172        2761.021          20.000                                                                  
G25                   -777702.362       -1830.770          21.000                                                                  
G31                  -1204110.648       -2763.026          18.000                                                                  
G32                   -425335.253       -1033.111          19.000                                                                  
R 7                                                        28.000  
R 8                                                        17.000  
R 9                                                        17.000  
R10                                                        20.000  
R24                                                        12.000  
E 1                    321397.488         964.597          16.000                                                                  
E 4                    328967.198         982.042          18.000                                                                  
E 5                   -175815.663       -1873.417           7.000                                                                  
E 9                   -306687.179        -887.657          16.000                      -17280.554        -661.986          14.000  
E11                    987706.842        2830.365           5.000                                                                  
E24                   -286734.824       -3057.513          12.000                                                                  
E31                   -578798.923       -1814.666          14.000                                                                  
E36                    594960.404        1674.607          15.000                                                                  
J 2                    127946.802         290.868          32.000                       67849.598         218.922          22.000  
C21                     38638.981         120.395          19.000                                                                                       17596.881          87.110          16.000  
C26                   -660002.397       -1951.151          24.000                                                                                     -360711.862       -1468.762          15.000  
> 2021 12  7  4 27 13.0000000  0 24                     
G10                    231103.933         548.538          32.000                      123810.906         406.599          18.000  
G12                      5309.908          74.712          22.000                                                                  
G21                   -291582.483           0.014          16.000                                                                  
G23                   1044238.146        2763.604          21.000                                                                  
G25                   -787324.674       -1831.331          23.000                                                                  
G31                  -1218633.363       -2762.721          20.000                                                                  
G32                   -430766.889       -1032.542          25.000                                                                  
R 7                                                        24.000  
R 8                                                        19.000  
R 9                                                        17.000  
R10                                                        21.000  
R24                                                        17.000  
E 1                    326467.024         965.488          15.000                                                                  
E 4                    334119.703         979.416          20.000                                                                  
E 5                   -185664.024       -1874.892           8.000                                                                  
E 9                   -311352.376        -888.184          15.000                      -19884.502        -663.138          11.000  
E11                   1002578.950        2829.928           5.000                                                                  
E24                   -302798.583       -3056.075          11.000                                                                  
E31                   -588332.995       -1815.842          12.000                                                                  
E36                    603763.918        1675.992          17.000                                                                  
J 1                   -324704.806        -774.826          22.000                                                                  
J 2                    129483.199         293.576          29.000                       68706.398         216.528          19.000  
C21                     39266.730         120.696          20.000                                                                                       17935.633          86.439          15.000  
C26                   -670160.080       -1950.428          26.000                                                                                     -366474.812       -1466.429          10.000  
> 2021 12  7  4 27 14.0000000  0 24                     
G10                    233971.475         544.881          29.000                      125404.745         406.744          19.000  
G12                      5704.443          76.030          21.000                                                                  
G21                   -295132.567           0.014          14.000                                                                  
G23                   1058757.530        2762.472          19.000                                                                  
G25                   -796942.358       -1828.404          18.000                                                                  
G31                  -1233143.384       -2760.870          20.000                                                                  
G32                   -436198.034       -1033.802          23.000                                                                  
R 7                                                        26.000  
R 8                                                        23.000  
R 9                                                        17.000  
R10                                                        23.000  
R24                                                        16.000  
E 1                    331543.779         966.825          16.000                                                                  
E 4                    339270.160         980.101          17.000                                                                  
E 5                   -195517.401       -1875.368           8.000                                                                  
E 9                   -316020.096        -888.643          15.000                      -22494.932        -664.975          16.000  
E11                   1017450.107        2829.653           4.000                                                                  
E24                   -318858.345       -3055.999          11.000                                                                  
E31                   -597875.402       -1815.688          14.000                                                                  
E36                    612576.051        1677.440          20.000                                                                  
J 1                   -328773.179        -773.990          22.000                                                                  
J 2                    131020.307         292.568          28.000                       69557.149         217.339          18.000  
C21                     39899.498         122.662          22.000                                                                                       18276.405          87.892          16.000  
C26                   -680317.095       -1951.659          30.000                                                                                     -372234.852       -1467.494          14.000  
> 2021 12  7  4 27 15.0000000  0 24                     
G10                    236844.248         546.554          25.000                      127002.316         408.330          17.000  
G12                      6110.749          75.976          18.000                                                                  
G21                   -298675.551           0.014          13.000                                                                  
G23                   1073278.094        2763.976          18.000                                                                  
G25                   -806550.550       -1827.278          20.000                                                                  
G31                  -1247643.837       -2758.075          18.000                                                                  
G32                   -441628.039       -1034.471          20.000                                                                  
R 7                                                        31.000  
R 8                                                        20.000  
R 9                                                        17.000  
R10                                                        19.000  
R24                                                        17.000  
E 1                    336625.429         966.668          15.000                                                                  
E 4                    344426.421         982.830          14.000                                                                  
E 5                   -205374.415       -1876.196           8.000                                                                  
E 9                   -320688.975        -888.139          14.000                      -25115.669        -667.806          14.000  
E11                   1032321.447        2830.079           5.000                                                                  
E24                   -334917.870       -3055.689          12.000                                                                  
E31                   -607417.560       -1816.375          15.000                                                                  
E36                    621389.888        1676.972          21.000                                                                  
J 1                   -332850.205        -774.935          25.000                                                                  
J 2                    132557.396         292.932          27.000                       70407.739         216.963          18.000  
C21                     40538.172         120.194          26.000                                                                                       18623.969          87.109          17.000  
C26                   -690471.720       -1948.377          28.000                                                                                     -378004.381       -1468.912          17.000  
> 2021 12  7  4 27 16.0000000  0 24                     
G10                    239719.696         547.013          26.000                      128598.958         406.339          17.000  
G12                      6512.200          77.919          19.000                                                                  
G21                   -302216.973           0.014          15.000                                                                  
G23                   1087795.543        2761.790          19.000                                                                  
G25                   -816162.081       -1828.641          21.000                                                                  
G31                  -1262142.879          -0.008          19.000                                                                  
G32                   -447064.055       -1033.139          27.000                                                                  
R 7                                                        23.000  
R 8                                                        19.000  
R 9                                                        21.000  
R10                                                        23.000  
R24                                                        13.000  
E 1                    341707.661         967.956          15.000                                                                  
E 4                    349586.349         982.873          18.000                                                                  
E 5                   -215233.300       -1876.167           9.000                                                                  
E 9                   -325356.248        -887.695          12.000                      -27738.644        -666.906          16.000  
E11                   1047189.593        2829.098           7.000                                                                  
E24                   -350975.615       -3055.856          12.000                                                                  
E31                   -616966.125       -1817.178          15.000                                                                  
E36                    630201.227        1675.557          20.000                                                                  
J 1                   -336921.548        -774.026          22.000                                                                  
J 2                    134093.630         291.255          28.000                       71264.250         218.844          17.000  
C21                     41169.915         121.123          21.000                                                                                       18967.075          87.217          18.000  
C26                   -700617.320       -1948.953          28.000                                                                                     -383774.253       -1470.433          16.000  
> 2021 12  7  4 27 17.0000000  0 24                     
G10                    242590.478         547.371          31.000                      130194.442         403.912          20.000  
G12                      6920.903          77.406          22.000                                                                  
G21                   -305753.322           0.014          15.000                                                                  
G23                   1102324.121        2766.065          28.000                                                                  
G25                   -825762.923       -1826.540          20.000                                                                  
G31                  -1276642.291       -2758.781          23.000                                                                  
G32                   -452489.544       -1031.444          27.000                                                                  
R 7                                                        24.000  
R 8                                                        23.000  
R 9                                                        18.000  
R10                                                        22.000  
R24                                                        17.000  
E 1                    346795.259         968.232          16.000                                                                  
E 4                    354741.520         979.546          18.000                                                                  
E 5                   -225096.316       -1877.458           8.000                                                                  
E 9                   -330022.909        -888.108          16.000                      -30350.640        -664.425          16.000  
E11                   1062056.028        2828.766           7.000                                                                  
E24                   -367031.509       -3055.102          12.000                                                                  
E31                   -626515.059       -1817.293          17.000                                                                  
E36                    639000.179        1673.989          18.000                                                                  
J 1                   -340999.399        -775.311          19.000                                                                  
J 2                    135617.382         291.803          21.000                       72121.901         218.684          18.000  
C21                     41796.248         119.870          26.000                                                                                       19313.614          89.118          17.000  
C26                   -710764.627       -1948.265          33.000                                                                                     -389542.589       -1469.177          19.000  
> 2021 12  7  4 27 18.0000000  0 25                     
G10                    245471.120         547.853          24.000                      131773.277         403.634          17.000  
G12                      7323.365          75.625          19.000                                                                  
G21                   -309285.020           0.014          16.000                                                                  
G23                   1116855.265        2765.917          19.000                                                                  
G25                   -835367.285       -1828.166          17.000                                                                  
G31                  -1291143.986       -2758.890          19.000                                                                  
G32                   -457911.772       -1033.481          20.000                                                                  
R 7                                                        23.000  
R 8                                                        26.000  
R 9                                                        15.000  
R10                                                        24.000  
R24                                                        16.000  
E 1                    351884.473         968.660          14.000                                                                  
E 4                    359891.968         978.827          15.000                                                                  
E 5                   -234960.687       -1877.210           7.000                                                                  
E 9                   -334688.825        -887.756          15.000                      -32948.866        -660.609          13.000  
E11                   1076920.192        2828.463           5.000                                                                  
E24                   -383086.795       -3055.360          12.000                                                                  
E31                   -636067.277       -1817.527          15.000                                                                  
E36                    647799.331        1671.102          16.000                                                                  
J 1                   -345073.811        -774.236          18.000                                                                  
J 2                    137155.036         292.746          20.000                       72978.993         219.918          15.000  
C21                     42419.465         120.827          22.000                                                                                       19663.251          90.732          17.000  
C22                     68007.277        2348.220          14.000                                                                                                                                  
C26                   -720901.042       -1943.903          25.000                                                                                     -395314.966       -1470.264          15.000  
> 2021 12  7  4 27 19.0000000  0 24                     
G10                    248354.284         549.297          23.000                      133364.298         404.523          21.000  
G12                      7734.388          79.346          18.000                                                                  
G21                   -312818.558           0.014          14.000                                                                  
G23                   1131382.057        2764.416          19.000                                                                  
G25                   -844956.482       -1825.894          16.000                                                                  
G31                  -1305642.493       -2758.084          20.000                                                                  
G32                   -463342.097       -1033.099          17.000                                                                  
R 7                                                        20.000  
R 8                                                        21.000  
R 9                                                        16.000  
R10                                                        19.000  
R24                                                        14.000  
E 1                    356975.087         968.896          15.000                                                                  
E 4                    365029.701         975.368          11.000                                                                  
E 5                   -244827.041       -1877.911           7.000                                                                  
E 9                   -339357.455        -888.773          13.000                      -35544.296        -662.135          13.000  
E24                   -399139.979       -3054.736          10.000                                                                  
E31                   -645617.595       -1817.122          17.000                                                                  
E36                    656578.525        1672.174          18.000                                                                  
J 1                   -349145.866        -774.853          21.000                                                                  
J 2                    138690.519         292.020          27.000                       73836.751         217.432          14.000  
C21                     43048.592         121.302          20.000                                                                                       20019.528          91.311          18.000  
C22                     80246.031        2350.635          16.000                                                                                                                                  
C26                   -731027.682       -1945.318          30.000                                                                                     -401078.086       -1465.491          16.000  
> 2021 12  7  4 27 20.0000000  0 24                     
G10                    251232.706         548.467          25.000                      134954.280         406.991          17.000  
G12                      8155.681          81.594          18.000                                                                  
G21                   -316351.792           0.014          12.000                                                                  
G23                   1145915.484        2766.148          17.000                                                                  
G25                   -854545.348       -1824.274          15.000                                                                  
G31                  -1320138.889       -2758.020          24.000                                                                  
G32                   -468766.439       -1030.866          17.000                                                                  
R 7                                                        20.000  
R 8                                                        20.000  
R 9                                                        17.000  
R10                                                        22.000  
R24                                                        13.000  
E 1                    362065.326         968.449          15.000                                                                  
E 4                    370159.221         976.820          13.000                                                                  
E 5                   -254695.154       -1877.658           6.000                                                                  
E 9                   -344030.645        -888.806          12.000                                                                  
E24                   -415194.542       -3055.385          10.000                                                                  
E31                   -655166.267       -1817.144          19.000                                                                  
E36                    665366.938        1671.945          15.000                                                                  
J 1                   -353224.236        -777.794          21.000                                                                  
J 2                    140230.972         294.196          20.000                       74693.450         217.870          13.000  
C21                     43679.737         120.657          21.000                                                                                       20375.771          90.942          17.000  
C22                     92485.263        2348.675          14.000                                                                                                                                  
C26                   -741158.442       -1948.579          27.000                                                                                     -406831.598       -1467.240          19.000  
> 2021 12  7  4 27 21.0000000  0 24                     
G10                    254118.005         549.354          23.000                      136557.194         408.872          20.000  
G12                      8592.440          83.069          17.000                                                                  
G21                   -319882.556           0.014          12.000                                                                  
G23                   1160444.084        2762.862          18.000                                                                  
G25                   -864135.383       -1825.104          16.000                                                                  
G31                  -1334630.729       -2757.499          23.000                                                                  
G32                   -474196.532       -1034.146          19.000                                                                  
R 7                                                        19.000  
R 8                                                        24.000  
R 9                                                        17.000  
R10                                                        24.000  
R24                                                        18.000  
E 1                    367154.626         969.179          14.000                                                                  
E 4                    375295.676         977.818          14.000                                                                  
E 5                   -264561.058       -1877.208           7.000                                                                  
E 9                   -348698.311        -887.655          16.000                                                                  
E24                   -431250.135       -3055.439          10.000                                                                  
E31                   -664711.514       -1814.660          20.000                                                                  
E36                    674149.246        1671.208          15.000                                                                  
J 1                   -357312.256        -778.961          20.000                                                                  
J 2                    141764.883         289.823          21.000                                                                  
C21                     44311.506         122.894          29.000                                                                                       20729.823          91.228          17.000  
C22                    104716.522        2348.215          15.000                                                                                                                                  
C26                   -751299.037       -1946.754          29.000                                                                                                                                  
> 2021 12  7  4 27 22.0000000  0 23                     
G10                    257009.067         552.174          32.000                      138170.453         412.927          23.000  
G12                      9029.796          83.792          18.000                                                                  
G21                   -323410.525           0.014          13.000                                                                  
G23                   1174954.741        2761.910          19.000                                                                  
G25                   -873730.862           0.005          14.000                                                                  
G31                  -1349116.504       -2757.308          24.000                                                                  
R 7                                                        18.000  
R 8                                                        21.000  
R 9                                                        17.000  
R10                                                        23.000  
R24                                                        17.000  
E 1                    372245.975         968.470          13.000                                                                  
E 4                    380435.502         977.991          13.000                                                                  
E 5                   -274427.014       -1877.464           6.000                                                                  
E 9                   -353361.454        -887.496          15.000                                                                  
E24                   -447304.912       -3054.833           8.000                                                                  
E31                   -674245.513       -1812.979          16.000                                                                  
E36                    682936.164        1672.990          17.000                                                                  
J 1                   -361403.929        -777.792          26.000                                                                  
J 2                    143287.539         289.571          25.000                                                                  
C21                     44945.874         123.236          24.000                                                                                       21083.804          89.415          17.000  
C22                    116955.492        2351.089          14.000                                                                                                                                  
C26                   -761437.042       -1946.116          31.000                                                                                                                                  
> 2021 12  7  4 27 23.0000000  0 23                     
G10                    259898.065         549.646          24.000                      139789.368         414.433          17.000  
G12                      9477.362          85.217          17.000                                                                  
G21                   -326938.070           0.014          14.000                                                                  
G23                   1189472.287        2763.952          19.000                                                                  
G25                   -883328.082           0.005          16.000                                                                  
G31                  -1363607.759       -2758.815          24.000                                                                  
R 7                                                        19.000  
R 8                                                        23.000  
R 9                                                        17.000  
R10                                                        18.000  
R24                                                        13.000  
E 1                    377341.368         970.447          14.000                                                                  
E 4                    385574.475         977.846          15.000                                                                  
E 5                   -284293.386       -1877.880           6.000                                                                  
E 9                   -358026.321        -887.722          14.000                                                                  
E24                   -463357.170       -3054.276          12.000                                                                  
E31                   -683775.755       -1814.397          12.000                                                                  
E36                    691729.964        1673.611          17.000                                                                  
J 1                   -365495.059        -778.786          24.000                                                                  
J 2                    144815.978         291.319          21.000                                                                  
C21                     45575.226         120.584          24.000                                                                                       21429.794          88.917          17.000  
C22                    129203.422        2353.491          14.000                                                                                                                                  
C26                   -771553.050       -1944.331          27.000                                                                                     -424138.227       -1471.033          17.000  
> 2021 12  7  4 27 24.0000000  0 23                     
G10                    262781.372         547.453          27.000                      141416.914         415.609          16.000  
G12                      9915.306          82.397          17.000                                                                  
G21                   -330469.359           0.014          14.000                                                                  
G23                   1203992.667        2762.183          19.000                                                                  
G25                   -892929.738           0.005          16.000                                                                  
G31                  -1378103.833       -2756.015          25.000                                                                  
G32                    -15859.304       -1033.577          18.000                                                                  
R 7                                                        20.000  
R 8                                                        21.000  
R 9                                                        17.000  
R10                                                        20.000  
R24                                                        13.000  
E 1                    382443.075         970.976          14.000                                                                  
E 4                    390715.028         978.035          14.000                                                                  
E 5                   -294161.605       -1878.015           6.000                                                                  
E 9                   -362689.624        -887.569          14.000                                                                  
E24                   -479407.349       -3054.384          12.000                                                                  
E31                   -693311.879       -1814.856          14.000                                                                  
E36                    700527.452        1674.673          15.000                                                                  
J 1                   -369583.782        -777.238          29.000                                                                  
J 2                    146344.136         291.284          33.000                                                                  
C21                     46206.146         121.775          27.000                                                                                       21777.719          91.092          17.000  
C26                   -781676.091       -1945.043          27.000                                                                                                                                  
> 2021 12  7  4 27 25.0000000  0 23                     
G10                    265684.437         554.866          29.000                      143042.603         413.842          18.000  
G12                     10345.473          80.170          20.000                                                                  
G21                   -333997.950           0.014          15.000                                                                  
G23                   1218512.497        2762.877          19.000                                                                  
G25                   -902523.069       -1824.177          13.000                                                                  
G31                  -1392595.331       -2757.434          26.000                                                                  
G32                    -21293.512       -1034.827          19.000                                                                  
R 7                                                        19.000  
R 8                                                        26.000  
R 9                                                        23.000  
R10                                                        20.000  
R24                                                        16.000  
E 1                    387546.067         970.927          14.000                                                                  
E 4                    395854.499         978.162          15.000                                                                  
E 5                   -304031.347       -1878.427           6.000                                                                  
E 9                   -367353.234        -887.890          13.000                                                                  
E24                   -495458.360       -3054.475           9.000                                                                  
E31                   -702852.478       -1815.422          16.000                                                                  
E36                    709332.017        1674.121          19.000                                                                  
J 1                   -373675.825        -778.799          24.000                                                                  
J 2                    147870.716         290.643          28.000                       78993.508         219.369          22.000  
C21                     46841.683         126.068          23.000                                                                                       22137.659          93.365          18.000  
C26                   -791806.077       -1945.991          27.000                                                                                     -435670.276       -1467.089          18.000  
> 2021 12  7  4 27 26.0000000  0 23                     
G10                    268576.396         547.917          28.000                      144658.925         410.839          18.000  
G12                     10770.726          80.134          18.000                                                                  
G21                   -337527.513           0.014          14.000                                                                  
G23                   1233032.724        2764.460          19.000                                                                  
G25                   -912105.812       -1821.618          17.000                                                                  
G31                  -1407084.378       -2759.619          24.000                                                                  
G32                    -26724.600       -1032.382          18.000                                                                  
R 7                                                        19.000  
R 8                                                        30.000  
R 9                                                        19.000  
R10                                                        23.000  
R24                                                        16.000  
E 1                    392649.384         971.681          15.000                                                                  
E 4                    400998.153         979.223          16.000                                                                  
E 5                   -313905.239       -1879.334           8.000                                                                  
E 9                   -372026.942        -890.417          18.000                                                                  
E24                   -511508.813       -3054.517          12.000                                                                  
E31                   -712391.760       -1815.003          17.000                                                                  
E36                    718129.650        1672.830          18.000                                                                  
J 1                   -377773.927        -779.354          25.000                                                                  
J 2                    149393.486         290.720          23.000                       79846.835         218.815          19.000  
C21                     47495.027         124.229          23.000                                                                                       22501.313          93.107          23.000  
C26                   -801943.856       -1942.405          29.000                                                                                     -441423.581       -1465.024          17.000  
> 2021 12  7  4 27 27.0000000  0 24                     
G10                    271470.785         550.805          25.000                      146275.644         412.577          17.000  
G12                     11198.915          82.521          20.000                                                                  
G21                   -341053.575           0.014          15.000                                                                  
G23                   1247565.912        2766.965          20.000                                                                  
G25                   -921680.991       -1821.900          17.000                                                                  
G31                  -1421570.457       -2756.074          23.000                                                                  
G32                    -32157.347       -1033.548          20.000                                                                  
R 7                                                        20.000  
R 8                                                        24.000  
R 9                                                        20.000  
R10                                                        27.000  
R24                                                        14.000  
E 1                    397754.979         971.435          14.000                                                                  
E 4                    406146.206         980.446          15.000                                                                  
E 5                   -323782.484       -1879.734           8.000                                                                  
E 9                   -376705.844        -890.962          17.000                                                                  
E24                   -527560.795       -3054.625          14.000                                                                  
E31                   -721925.392       -1812.892          24.000                                                                  
E36                    726927.773        1674.678          19.000                                                                  
J 1                   -381861.314        -774.940          21.000                                                                  
J 2                    150924.206         292.096          21.000                       80713.010         223.361          17.000  
C21                     48146.735         125.185          22.000                                                                                                                                  
C22                     39867.682        2351.211          19.000                                                                                                                                  
C26                   -812064.116       -1944.594          24.000                                                                                     -447172.178       -1467.052          17.000  
