     3.03           OBSERVATION DATA    M: Mixed            RINEX VERSION / TYPE
Geo++ RINEX Logger  Geo++               20210912 102606 UTC PGM / RUN BY / DATE
************************************************************COMMENT
This file was generated by the Geo++ RINEX Logger App       COMMENT
for Android devices (Version 2.1.6). If you encounter       COMMENT
any issues, please send an email to android@geopp.de        COMMENT
Filtering Mode: MORE                                        COMMENT
************************************************************COMMENT
Geo++                                                       MARKER NAME
GEODETIC                                                    MARKER TYPE
Geo++               Geo++                                   OBSERVER / AGENCY
unknown             HUAWEI              ELS-AN00            REC # / TYPE / VERS
unknown             ELS-AN00                                ANT # / TYPE
 -2418278.9907  5385838.5050  2405634.6872                  APPROX POSITION XYZ
        0.0000        0.0000        0.0000                  ANTENNA: DELTA H/E/N
G    8 C1C L1C D1C S1C C5Q L5Q D5Q S5Q                      SYS / # / OBS TYPES
R    4 C1C L1C D1C S1C                                      SYS / # / OBS TYPES
E   12 C1B L1B D1B S1B C1C L1C D1C S1C C5Q L5Q D5Q S5Q      SYS / # / OBS TYPES
C    4 C2I L2I D2I S2I                                      SYS / # / OBS TYPES
J    8 C1C L1C D1C S1C C5Q L5Q D5Q S5Q                      SYS / # / OBS TYPES
  2021     9    12    10    26   24.1965701     GPS         TIME OF FIRST OBS
 24 R01  1 R02 -4 R03  5 R04  6 R05  1 R06 -4 R07  5 R08  6 GLONASS SLOT / FRQ #
    R09 -2 R10 -5 R11  0 R12 -1 R13 -2 R14 -7 R15  0 R16 -1 GLONASS SLOT / FRQ #
    R17  4 R18 -3 R19  3 R20  2 R21  4 R22 -3 R23  3 R24  2 GLONASS SLOT / FRQ #
G L1C                                                       SYS / PHASE SHIFT
G L5Q -0.25000                                              SYS / PHASE SHIFT
R L1C                                                       SYS / PHASE SHIFT
E L1B                                                       SYS / PHASE SHIFT
E L1C +0.50000                                              SYS / PHASE SHIFT
E L5Q -0.25000                                              SYS / PHASE SHIFT
C L2I                                                       SYS / PHASE SHIFT
J L1C                                                       SYS / PHASE SHIFT
J L5Q -0.25000                                              SYS / PHASE SHIFT
 C1C    0.000 C1P    0.000 C2C    0.000 C2P    0.000        GLONASS COD/PHS/BIS
                                                            END OF HEADER
> 2021  9 12 10 26 24.1965701  3  1
Geo++                                                       MARKER NAME
> 2021  9 12 10 26 24.1965701  0  0
> 2021  9 12 10 26 32.0433597  0  3
G10  20167688.300                        -232.706          40.000  
G25  20811562.455                        -115.580          29.000  
G32  21904121.592                         629.888          38.000  
> 2021  9 12 10 26 33.0433592  0  5
G10  20167576.477                        -234.836          37.000  
G12  22326607.711                       -1862.899          24.000  
G25  20811432.945                        -117.469          30.000  
G32  21903854.477                         628.936          42.000  
J02  37846960.095                       -1238.569          30.000  
> 2021  9 12 10 26 34.0433590  0  7
C06  36687139.222   191039561.8181       -707.926          36.000  
C25  21799064.722   113513451.1861       -607.132          39.000  
C335393955870.254                        -605.115          35.000  
G10  20167564.186   105981050.3121       -238.413          38.000  
G25  20811393.372   109364513.9151       -118.034          28.000  
G32  21903676.101   115104588.5101        628.561          42.000  
J02  37847134.874   198888042.3501      -1238.797          30.000  
> 2021  9 12 10 26 35.9999990  0  8
C06  36687185.990   191039805.813        -706.918          32.000  
C24  24278229.032   126423110.0321      -3221.293          28.000  
C25  21799071.617   113513486.711        -608.371          37.000  
C33  22235487.592                        -720.166          36.000  
G10  20167438.273   105980604.199        -238.800          41.000  
G25  20811216.195   109363679.337        -121.653          29.000  
G32  21903224.613   115102223.190         628.166          41.000  
J02  37847376.506   198889306.599       -1240.498          31.000  
> 2021  9 12 10 26 36.9999985  0  9
C06  36687162.906   191039733.597        -707.717          29.000  
C24  24278699.706   126425551.260       -3222.807          28.000  
C25  21799041.338   113513315.656        -609.259          39.000  
C33  22235479.498   115785958.9591       -721.118          38.000  
G10  20167333.046   105980055.191        -241.240          39.000    20167335.444    79140956.7841       -179.026          30.000  
G12  22327575.741   117332203.3721      -1864.811          24.000  
G25  20811091.781   109363013.415        -122.104          31.000  
G32  21902952.701   115100807.991         626.533          39.000  
J02  37847463.446   198889759.485       -1241.374          31.000  
> 2021  9 12 10 26 37.9999982  0  6
C06  36687212.971   191039974.375        -708.465          31.000  
C24  24279228.540   126428307.479       -3225.171          22.000  
C25  21799068.319   113513457.682        -610.676          38.000  
C33  22235527.764   115786211.798        -721.618          37.000  
G10  20167283.280                        -240.872          35.000    20167291.674    79140783.742        -181.475          23.000  
G32  21902740.448                         626.674          40.000  
> 2021  9 12 10 26 38.9999980  0  8
C06  36687286.120   191040371.474        -709.383          32.000  
C24  24279782.856   126431219.239       -3224.456          28.000  
C25  21799126.479   113513756.840        -610.506          41.000  
C33  22235599.115                        -722.565          34.000  
G10  20167269.490   105979748.8321       -240.795          37.000    20167278.484    79140728.768        -179.882          25.000  
G25  20810998.546   109362470.9931       -123.160          27.000  
G31  21934198.271   115264990.8011       1295.261          21.000  
G32  21902561.472   115098766.9821        627.670          41.000  
> 2021  9 12 10 26 39.9999974  0  7
C06  36687245.349   191040144.109        -710.327          35.000  
C24  24280217.855   126433506.233       -3223.060          24.000  
C25  21799063.522   113513432.061        -612.448          41.000  
C33  22235562.540   115786407.3831       -723.461          39.000  
G10  20167141.179   105979045.410        -243.250          39.000    20167144.476    79140202.265        -178.692          24.000  
G25  20810841.454   109361648.870        -123.436          31.000  
G32  21902261.980   115097195.368         627.027          46.000  
> 2021  9 12 10 26 40.9999972  0 10
C06  36687327.192   191040541.637        -709.942          37.000  
C08  37749671.446   196572445.9221      -2295.223          26.000  
C24  24280773.670   126436417.501       -3224.300          23.000  
C25  21799119.883   113513732.583        -613.353          41.000  
C33  22235642.585   115786818.440        -722.803          43.000  
G10  20167129.187   105978973.185        -243.205          40.000    20167130.686    79140146.436        -180.376          24.000  
G25  20810805.179   109361458.646        -125.636          31.000  
G31  21933463.479   115261143.0581       1293.071          25.000  
G32  21902083.903   115096254.388         625.512          46.000  
J02  37848033.052   198892681.3791      -1243.390          32.000  
> 2021  9 12 10 26 41.9999967  0  9
C06  36687316.699   191040471.123        -709.549          37.000  
C08  37749960.746   196573960.793       -2294.646          25.000  
C24  24281240.447   126438861.665       -3227.051          23.000  
C25  21799086.906   113513565.806        -613.692          40.000  
C33  22235633.291   115786762.039        -724.625          43.000  
G10  20167024.559   105978429.452        -244.167          39.000    20167027.557    79139740.417        -183.452          26.000  
G31  21933065.355   115259061.954        1293.588          25.000  
G32  21901813.790   115094841.224         624.876          45.000  
J02  37848122.090   198893137.227       -1243.530          31.000  
> 2021  9 12 10 26 42.9999964  0 11
C06  36687363.767   191040713.068        -710.940          37.000  
C08  37750310.604   196575787.328       -2296.375          28.000  
C24  24281770.480   126441620.956       -3228.152          19.000  
C25  21799115.386   113513712.021        -615.860          40.000  
C33  22235678.260   115787018.394        -726.441          43.000  
G10  20166984.387   105978201.721        -245.508          42.000  
G12  22329025.537                       -1872.573          35.000  
G25  20810611.513   109360452.1351       -127.595          31.000  
G31  21932725.690   115257295.975        1294.080          26.000  
G32  21901606.633   115093743.465         625.310          44.000    21901608.132    85946614.7101        467.675          35.000  
J02  37848266.890   198893908.641       -1244.648          30.000  
> 2021  9 12 10 26 43.9999959  0 11
C06  36687348.177   191040643.517        -711.313          36.000  
C08  37750601.702   196577303.898       -2297.721          26.000  
C24  24282240.255   126444069.010       -3228.188          21.000  
C25  21799083.608   113513547.176        -616.224          39.000  
C33  22235668.967   115786963.863        -726.450          38.000  
G10  20166875.862   105977660.183        -247.696          36.000  
G23  21045173.330   110593132.6581      -2677.821          29.000  
G25  20810484.102   109359792.212        -128.488          29.000  
G31  21932329.364   115255214.563        1292.598          25.000  
G32  21901337.120   115092331.405         623.586          42.000    21901340.118    85945560.256         467.715          34.000  
J02  37848352.031   198894365.623       -1245.820          28.000  
> 2021  9 12 10 26 44.9999956  0  8
C06  36687395.245   191040886.338        -711.271          37.000  
C25  21799110.890   113513695.250        -615.994          41.000  
C33  22235719.632   115787222.028        -726.172          44.000  
G10  20166825.197   105977435.366        -248.110          32.000  
G23  21045591.240   110595338.331       -2678.506          34.000  
G25  20810417.248   109359447.933        -129.435          32.000  
G32  21901123.068   115091234.651         624.090          43.000    21901131.462    85944740.980         465.834          33.000  
J02  37848496.831   198895139.245       -1246.413          29.000  
> 2021  9 12 10 26 45.9999951  0 13
C06  36687377.857   191040817.246        -712.255          36.000  
C08  37751245.357   196580651.5801      -2298.108          22.000  
C09  37668178.563   196148091.0351       -810.347          27.000  
C14  22992384.703   119727380.8431      -2004.579          27.000  
C24  24283240.662   126449277.4491      -3228.188          20.000  
C25  21799079.711   113513532.076        -619.782          37.000  
C33  22235707.940   115787168.587        -734.239          41.000  
G10  20166721.769   105976895.443        -247.597          32.000  
G23  21045948.593   110597229.750       -2679.727          33.000  
G25  20810291.335   109358790.762        -131.236          31.000  
G31  21931596.971   115251373.5481       1287.984          21.000  
G32  21900859.251   115089823.326         622.891          41.000    21900862.249    85943687.300         465.716          33.000  
J02  37848581.972   198895597.595       -1245.322          30.000  
> 2021  9 12 10 26 46.9999949  0 10
C06  36687451.306   191041217.838        -710.663          30.000  
C08  37751627.592   196582637.709       -2298.489          22.000  
C14  22992710.877   119729073.152       -2005.107          24.000  
C25  21799139.070   113513839.234        -618.120          34.000  
C33  22235787.385   115787583.463        -725.210          33.000  
G10  20166709.178   105976829.321        -249.345          31.000  
G23  21046396.783   110599595.049       -2680.730          30.000  
G25  20810255.660   109358607.650        -132.370          28.000  
G32  21900677.576   115088884.653         621.424          35.000    21900683.272    85942986.783         465.887          34.000  
J02  37848755.852   198896528.075       -1245.766          24.000  
> 2021  9 12 10 26 47.9999946  0 10
C06  36687498.973   191041460.859        -712.335          32.000  
C08  37751981.647   196584468.117       -2299.328          25.000  
C09  37668343.448   196148933.8001       -814.588          22.000  
C24  24284331.607   126454951.4881      -3227.703          20.000  
C25  21799166.951   113513989.546        -619.937          33.000  
C33  22235835.951                        -725.637          33.000  
G23  21046814.693   110601803.900       -2682.017          31.000  
G25  20810191.504   109358268.474        -134.876          31.000  
G32  21900471.019   115087789.539         624.377          41.000    21900475.816    85942168.837         463.447          33.000  
J02  37848899.752   198897301.365       -1246.944          27.000  
> 2021  9 12 10 26 48.9999941  0  8
C06  36687486.981   191041392.214        -712.084          34.000  
C08  37752273.645   196585985.927       -2297.206          26.000  
C09  37668349.744   196148968.483        -814.856          24.000  
C14  22993241.210   119731842.4621      -2010.374          20.000  
C25  21799134.573   113513828.457        -619.563          35.000  
C33  22235825.758   115787783.1191       -733.133          33.000  
G25  20810067.390   109357616.194        -136.555          29.000  
G32  21900205.703   115086379.368         621.685          43.000    21900207.502    85941115.871         465.757          33.000  
> 2021  9 12 10 26 49.9999939  0  8
C06  36687564.328                        -713.623          35.000  
C08  37752654.081   196587972.510       -2297.718          23.000  
C25  21799196.031   113514136.842        -623.068          38.000  
C33  22235902.205   115788199.922        -730.422          25.000  
G25  20810032.914   109357438.005        -137.675          27.000  
G32  21900029.425                         622.289          45.000    21900028.826    85940416.368         466.584          34.000  
J018012323338.697                       -2337.403          32.000  
J02  37849160.871   198898692.5431      -1247.821          24.000  
> 2021  9 12 10 26 50.9999933  0 13
C06  36687523.856   191041552.4981       -714.456          35.000  
C08  37752916.700   196589333.239       -2299.271          23.000  
C09  37668424.992   196149347.5281       -813.529          25.000  
C14  22993770.344   119734616.8441      -2010.915          21.000  
C24  24285802.689   126462604.3011      -3230.194          20.000  
C25  21799139.670                        -624.550          39.000  
C33  22235862.333   115787994.199        -731.789          32.000  
G10  20166430.671                        -256.543          40.000  
G25  20809880.320   109356629.178        -135.020          23.000  
G31  21929840.188   115242103.0271       1285.945          30.000  
G32  21899728.134   115083876.5981        622.027          40.000    21899730.832    85939246.140         463.435          34.000  
J01  38122431.290                         540.178          31.000  
R12  19064225.112   101837668.8351       -782.314          34.000  
> 2021  9 12 10 26 51.9999931  0 13
C06  36687597.005   191041954.129        -713.721          31.000  
C09  37668524.223   196149849.424        -814.458          26.000  
C14  22994094.719   119736313.879       -2008.292          21.000  
C25  21799199.928   113514152.1191       -623.331          34.000  
C33  22235944.476   115788414.383        -733.254          35.000  
G10  20166421.077   105975248.6651       -255.243          35.000  
G12  22331261.090   117351569.6961      -1879.828          25.000  
G23  21048408.990   110610174.1201      -2685.909          22.000  
G25  20809845.244   109356449.154        -138.078          23.000  
G32  21899545.860   115082940.465         620.875          39.000    21899551.856    85938547.566         463.061          30.000  
J02  37849398.906   198899929.8411      -1249.767          31.000  
R01  20391191.072   109002603.3771       -935.199          20.000  
R12  19064311.752   101838131.952        -783.660          33.000  
> 2021  9 12 10 26 52.9999926  0  9
C06  36687586.812   191041887.721        -716.294          32.000  
C08  37753586.136   196592842.3401      -2302.410          26.000  
C09  37668530.519   196149882.195        -812.632          21.000  
C25  21799171.148   113513995.332        -625.090          38.000  
C33  22235947.474   115788367.160        -734.340          36.000  
G10  20166320.947   105974716.733        -256.909          42.000  
G12  22331467.647   117352663.237       -1882.622          25.000  
G32  21899281.143   115081532.398         620.050          45.000    21899283.541    85937496.048         463.395          36.000  
R12  19064311.752   101838132.195        -784.765          36.000  
> 2021  9 12 10 26 53.9999921  0 14
C06  36687575.720   191041821.666        -715.226          33.000  
C08  37753878.134   196594363.772       -2302.436          31.000  
C09  37668537.114   196149914.792        -813.462          21.000  
C14  22994560.597   119738771.0721      -2009.808          20.000  
C25  21799142.368   113513839.513        -625.399          39.000  
C33  22235940.878                        -733.484          36.000  
G10  20166220.516   105974185.899        -256.784          42.000  
G12  22331674.803   117353758.734       -1884.872          27.000  
G23  21049135.087   110613972.3631      -2687.730          26.000  
G25  20809599.414   109355152.0641       -140.916          23.000  
G32  21899014.028   115080124.846         620.035          45.000    21899016.127    85936444.721         462.612          39.000  
J01  38121759.155   200331196.9371        540.015          31.000  
J02  37849579.681   198900855.3811      -1251.095          28.000  
R12  19064315.049   101838150.005        -786.455          40.000  
> 2021  9 12 10 26 54.9999918  0 12
C06  36687621.888   191042068.386        -716.912          33.000  
C08  37754230.090   196596198.903       -2305.040          30.000  
C09  37668603.069   196150260.239        -813.546          23.000  
C14  22994854.394   119740314.013       -2012.125          20.000  
C25  21799172.047   113513997.134        -627.249          38.000  
C33  22235991.543   115788646.0211       -736.003          37.000  
G10  20166179.145   105973971.485        -258.516          42.000  
G12  22331943.717   117355171.398       -1885.923          27.000  
G25  20809536.458   109354821.186        -142.864          26.000  
G31  21928428.765   115234601.0481       1284.253          26.000  
G32  21898808.370   115079033.023         619.151          45.000    21898809.570    85935628.851         462.721          39.000  
R12  19064379.505   101838493.500        -787.527          40.000  
> 2021  9 12 10 26 55.9999913  0 14
C06  36687611.395   191042003.543        -716.162          35.000  
C08  37754522.388   196597723.541       -2304.927          31.000  
C09  37668609.364   196150292.657        -813.955          23.000  
C14  22995088.531   119741546.264       -2013.826          20.000  
C25  21799142.668   113513843.699        -628.559          37.000  
C33  22235981.950   115788601.690        -737.241          38.000  
G10  20166077.215                        -260.808          42.000  
G12  22332150.574   117356271.006       -1887.784          25.000  
G23  21049922.942   110618089.2811      -2689.094          24.000  
G25  20809415.941   109354176.474        -142.989          23.000  
G31  21928038.135   115232529.636        1282.567          25.000  
G32  21898540.356   115077626.887         617.772          44.000    21898541.555                         460.618          38.000  
J02  37849819.815   198902097.7811      -1252.392          27.000  
R12  19064378.605   101838489.391        -789.661          41.000  
> 2021  9 12 10 26 56.9999913  0 13
C06  36687748.100   191042718.420        -714.555          30.000  
C08  37754963.982   196600028.475       -2305.155          32.000  
C09  37668767.655   196151107.644        -816.369          23.000  
C14  22995471.966   119743559.799       -2014.713          20.000  
C25  21799263.484   113514471.491        -629.323          34.000  
C33  22236121.354   115789338.524        -738.225          38.000  
G10  20166125.482   105973704.5981       -260.373          36.000  
G23  21050435.287   110620778.719       -2689.902          23.000  
G25  20809442.922   109354319.042        -143.212          23.000  
G31  21927798.901   115231247.920        1280.838          27.000  
G32  21898421.338   115077008.903         616.974          41.000    21898424.936    85934119.3311        461.025          36.000  
J01  38121203.340   200328320.1711        534.442          33.000  
R12  19064524.604   101839269.033        -789.917          39.000  
> 2021  9 12 10 26 57.9999908  0 11
C08  37755255.081   196601554.189       -2306.137          28.000  
C09  37668776.649   196151146.159        -822.960          20.000  
C23  24086001.808   125422132.8781       1834.128          27.000  
C25  21799231.106   113514320.622        -629.195          30.000  
C33  22236113.559   115789296.619        -738.270          35.000  
G10  20166030.448   105973179.358        -264.296          32.000  
G23  21050797.736   110622682.400       -2692.309          21.000  
G25  20809319.408   109353674.680        -143.726          21.000  
G32  21898153.624   115075604.271         616.179          43.000    21898157.221    85933070.487         459.270          36.000  
J01  38120950.615   200326997.103         535.250          28.000  
R12  19064521.007   101839249.465        -792.415          33.000  
> 2021  9 12 10 27 22.1559444  0  0
> 2021  9 12 10 27 23.1559442  0  0
> 2021  9 12 10 27 24.1559437  0  0
> 2021  9 12 10 27 25.9999990  0  1
G32  21891636.735   115041327.9611        599.234          40.000  
> 2021  9 12 10 27 26.9999987  0  1
G32  21891434.375                         604.115          43.000  
> 2021  9 12 10 27 27.9999982  0  3
C06  36688383.661   191046041.4591       -728.162          35.000  
C25  21799425.372   113515328.9381       -658.525          32.000  
G32  21891167.560   115038872.1641        607.203          41.000  
> 2021  9 12 10 27 28.9999982  0  3
C06  36688523.664   191046770.607        -728.773          33.000  
C25  21799550.086   113515987.734        -658.581          36.000  
G32  21891050.341   115038267.922         603.105          41.000  
> 2021  9 12 10 27 29.9999977  0  3
C06  36688512.271   191046717.489        -727.042          28.000  
C25  21799528.800   113515864.877        -657.695          35.000  
G32  21890791.321   115036877.143         602.777          41.000  
> 2021  9 12 10 27 30.9999974  0  3
C06  36688560.538   191046975.976        -727.247          32.000  
C25  21799568.673                        -659.233          41.000  
G32  21890586.862   115035801.917         602.223          43.000  
> 2021  9 12 10 27 31.9999969  0  4
C06  36688549.746   191046922.591        -727.420          32.000  
C25  21799544.389   113515954.4401       -660.333          40.000  
G10  20163952.886   105962288.0981       -298.539          45.000  
G32  21890320.646                         601.972          41.000  
> 2021  9 12 10 27 32.9999964  0  7
C06  36688546.748                        -726.307          34.000  
C25  21799521.905                        -659.920          39.000  
G10  20163858.451   105961798.723        -297.984          44.000  
G25  20806376.945   109338249.4851       -183.358          28.000  
G31  21914957.591   115163880.0231       1250.501          23.000  
G32  21890058.028   115033020.8801        602.344          44.000  
J02  37854512.466   198926805.8201      -1270.047          32.000  
> 2021  9 12 10 27 33.9999962  0  8
C06  36688624.694   191047307.1201       -728.393          31.000  
C09  37670359.853   196159449.3421       -831.283          28.000  
C24  24307737.903   126576770.7331      -3254.200          20.000  
C25  21799586.660   113516181.7521       -660.784          40.000  
G10  20163853.954   105961782.935        -300.199          42.000  
G25  20806351.163   109338118.484        -184.383          30.000  
G32  21889884.149   115032103.671         602.264          44.000  
J02  37854683.648                       -1269.519          31.000  
> 2021  9 12 10 27 34.9999956  0  8
C06  36688583.322   191047098.814        -728.920          33.000  
C09  37670341.565   196159343.361        -830.847          28.000  
C24  24308185.493   126579089.137       -3255.802          21.000  
C25  21799535.096   113515906.364        -662.734          38.000  
G10  20163730.140   105961137.688        -300.548          42.000  
G25  20806205.464   109337357.990        -185.366          31.000  
G32  21889589.752   115030556.413         601.210          44.000  
J02  37854752.900   198928030.1251      -1270.635          31.000  
> 2021  9 12 10 27 35.9999951  0  8
C06  36688573.729   191047046.854        -728.738          33.000  
C09  37670352.358   196159393.942        -831.117          29.000  
C24  24308662.463   126581564.526       -3256.140          22.000  
C25  21799510.513   113515787.886        -661.672          37.000  
G10  20163639.303   105960650.992        -301.262          42.000  
G25  20806090.343   109336755.435        -185.336          31.000  
G32  21889324.436   115029167.034         601.014          44.000  
J02  37854849.733   198928512.581       -1269.996          30.000  
> 2021  9 12 10 27 36.9999949  0  8
C06  36688655.872   191047463.246        -729.300          35.000  
C09  37670452.189   196159912.083        -829.503          29.000  
C24  24309228.771   126584508.392       -3256.231          22.000  
C25  21799574.668   113516138.310        -663.438          32.000  
G10  20163637.504   105960637.669        -302.872          40.000    20163636.605    79126441.4411       -223.675          29.000  
G25  20806064.561   109336625.941        -185.997          30.000  
G32  21889150.556   115028250.413         600.605          44.000    21889152.655    85897737.0451        448.614          29.000  
J02  37855024.812   198929467.813       -1271.279          28.000  
> 2021  9 12 10 27 37.9999946  0  7
C06  36688705.937   191047723.543        -730.173          35.000  
C09  37670522.040   196160273.584        -829.810          30.000  
C25  21799618.738   113516333.224        -663.285          33.000  
G10  20163605.426   105960467.505        -303.622          41.000    20163604.527    79126313.813        -225.685          27.000  
G25  20806009.999   109336340.288        -188.589          30.000  
G32  21888946.098   115027176.388         601.124          44.000    21888948.496    85896935.792         448.670          31.000  
J02  37855183.702   198930265.668       -1269.769          30.000  
> 2021  9 12 10 27 38.9999941  0  9
C06  36688693.946   191047671.598        -728.259          35.000  
C09  37670531.933   196160322.669        -829.577          31.000  
C24  24310242.070   126589773.5611      -3258.920          21.000  
C25  21799595.954   113516216.485        -664.040          35.000  
G10  20163514.290   105959983.028        -303.352          41.000    20163513.090    79125952.270        -226.032          28.000  
G25  20805894.279   109335741.532        -189.933          30.000  
G31  21912883.027   115152769.7801       1244.278          29.000  
G32  21888681.081   115025787.367         600.627          45.000    21888684.079    85895899.167         447.896          29.000  
J02  37855273.340   198930748.689       -1272.352          30.000  
> 2021  9 12 10 27 39.9999939  0 10
C06  36688774.590   191048088.457        -729.961          34.000  
C09  37670631.465   196160839.898        -828.922          30.000  
C24  24310808.078   126592721.250       -3260.711          21.000  
C25  21799655.912   113516569.068        -664.744          34.000  
C33  58208597.626                       -2368.858          36.000  
G10  20163513.390   105959972.243        -304.879          41.000    20163510.992    79125944.135        -227.381          26.000  
G23  21067698.536   110711503.1861      -2731.025          27.000  
G31  21912588.930   115151210.782        1244.264          26.000  
G32  21888506.003   115024871.439         601.172          44.000    21888509.600    85895215.847         448.897          29.000  
J02  37855455.314   198931704.653       -1270.457          29.000  
> 2021  9 12 10 27 40.9999933  0 11
C06  36688732.619   191047880.743        -728.294          33.000  
C09  37670609.879   196160732.449        -829.207          29.000  
C24  24311255.668   126595045.315       -3261.649          21.000  
C25  21799606.446   113516297.610        -665.905          31.000  
C33  22237369.390                        -769.841          37.000  
G10  20163388.976   105959331.950        -305.481          40.000    20163388.976    79125465.848        -227.933          27.000  
G23  21068036.402   110713288.445       -2730.398          26.000  
G25  20805725.496   109334862.7971       -191.664          28.000  
G31  21912173.418   115149021.635        1243.358          29.000  
G32  21888212.506   115023325.323         599.981          43.000    21888215.804    85894062.540         446.761          28.000  
J02  37855518.570   198932030.769       -1270.691          29.000  
> 2021  9 12 10 27 41.9999928  0 12
C06  36688722.126   191047829.377        -730.250          31.000  
C09  37670618.873   196160781.701        -829.058          29.000  
C24  24311732.338   126597526.700       -3262.006          21.000  
C25  21799585.761   113516183.075        -667.132          36.000  
C33  22237365.192                        -772.613          38.000  
G10  20163297.540   105958850.148        -307.716          42.000    20163297.839    79125106.076        -228.455          29.000  
G23  21068405.746   110715231.932       -2732.680          26.000  
G25  20805610.376   109334266.657        -191.442          29.000  
G31  21911785.786   115146990.662        1243.861          27.000  
G32  21887948.688   115021937.187         599.563          43.000    21887951.686    85893027.648         446.124          27.000  
J01  38111408.521                         520.200          33.000  
J02  37855609.107   198932514.673       -1270.688          31.000  
> 2021  9 12 10 27 42.9999926  0 10
C06  36688800.372   191048246.846        -730.187          32.000  
C09  37670717.505   196161299.079        -830.313          29.000  
C25  21799654.113   113516537.978        -667.481          36.000  
C33  22237453.631   115796256.0451       -774.106          37.000  
G10  20163296.041   105958842.248        -308.152          42.000    20163296.041    79125099.301        -227.869          27.000  
G25  20805587.591   109334143.753        -192.792          28.000  
G31  21911488.992   115145431.816        1243.300          29.000  
G32  21887774.209   115021022.238         599.686          44.000    21887776.907    85892344.927         447.906          28.000  
J01  38111250.530   200275967.8691        521.737          33.000  
J02  37855791.081   198933471.873       -1272.880          28.000  
> 2021  9 12 10 27 43.9999921  0 10
C06  36688795.276   191048196.037        -728.696          31.000  
C09  37670727.098   196161349.161        -830.656          29.000  
C24  24312776.215   126602959.4821      -3262.762          21.000  
C25  21799630.130   113516424.976        -669.391          35.000  
C33  22237454.830   115796247.669        -773.280          36.000  
E21  24155061.399                        -962.362          36.000  
G10  20163205.203   105958362.303        -307.230          41.000    20163204.004    79124740.088        -229.703          27.000  
G25  20805474.869   109333549.650        -194.820          27.000  
G32  21887510.392   115019634.728         599.477          44.000    21887512.191    85891308.394         447.792          27.000  
J01  38111004.401                         520.956          33.000  
> 2021  9 12 10 27 44.9999918  0 10
C06  36688847.140   191048456.502        -729.270          30.000  
C09  37670793.952   196161711.369        -829.872          29.000  
C25  21799669.703   113516625.403        -669.845          31.000  
C33  22237506.994                        -773.675          36.000  
E21  24155156.433                        -963.708          36.000  
G10  20163175.224   105958197.941        -310.025          39.000    20163172.826    79124616.469        -230.011          26.000  
G12  22344409.387   117420663.9961      -1934.850          31.000  
G23  21069663.675   110721852.1581      -2733.098          25.000  
G32  21887306.833   115018564.973         598.931          41.000    21887308.332    85890508.860         446.499          29.000  
J01  38110816.131   200273666.4241        519.249          35.000  
> 2021  9 12 10 27 45.9999913  0 11
C06  36688839.045   191048405.326        -729.919          27.000  
C23  24063677.463   125305883.5211       1801.433          24.000  
C24  24313790.713   126608236.6161      -3262.557          27.000  
C25  21799652.914   113516513.961        -670.050          35.000  
C33  22237507.594   115796546.5601       -773.788          35.000  
E21  24155192.108   126936380.7851       -965.439          35.000  
G10  20163077.492                        -310.648          34.000    20163082.888    79124259.227        -232.300          28.000  
G23  21070035.418   110723799.352       -2736.529          26.000  
G32  21887045.114   115017177.824         599.390          29.000    21887044.215    85889473.032         447.794          30.000  
J01  38110561.008   200272358.463         520.212          36.000  
J02  37856132.845   198935240.4351      -1272.111          28.000  
> 2021  9 12 10 27 46.9999910  0 13
C06  36688887.911   191048666.856        -730.319          32.000  
C09  37670866.802   196162123.0371       -830.915          25.000  
C23  24063240.365   125303614.169        1800.496          28.000  
C24  24314327.042   126611030.539       -3262.388          27.000  
C25  21799686.491   113516715.810        -670.153          34.000  
C33  22237567.852   115796852.008        -773.622          30.000  
E21  24155285.344   126936873.031        -963.904          26.000  
G10  20163049.311   105957558.3881       -311.468          35.000    20163053.509    79124139.159        -232.697          26.000  
G23  21070467.119   110726064.151       -2737.503          22.000  
G25  20805256.321   109332405.0631       -197.041          25.000  
G32  21886841.555   115016104.706         600.798          30.000    21886840.656    85888673.431         445.290          29.000  
J01  38110373.038   200271366.606         519.011          29.000  
J02  37856281.542   198936039.978       -1272.883          28.000  
> 2021  9 12 10 27 47.9999908  0 11
C06  36688967.356   191049085.352        -730.723          34.000  
C09  37670968.431   196162641.590        -830.707          29.000  
C23  24062834.446   125301501.508        1800.113          29.000  
C24  24314895.448   126613980.429       -3262.044          24.000  
C25  21799755.443   113517074.437        -670.767          36.000  
C33  22237657.790   115797313.776        -774.855          35.000  
G10  20163050.511   105957554.984        -311.643          40.000    20163053.209    79124137.236        -234.764          22.000  
G23  21070928.800   110728485.216       -2736.454          23.000  
G25  20805236.534   109332286.870        -196.768          29.000  
G32  21886667.975   115015189.523         599.643          31.000    21886668.874    85887992.319         446.096          25.000  
J02  37856462.017   198936998.274       -1273.487          32.000  
> 2021  9 12 10 27 48.9999903  0 10
C06  36688957.463                        -731.847          35.000  
C09  37670979.224   196162692.025        -831.862          28.000  
C23  24062340.388   125298920.762        1799.816          30.000  
C24  24315374.516   126616462.682       -3262.492          25.000  
C25  21799735.357   113516965.503        -671.427          37.000  
C33  22237658.389   115797307.904        -775.421          35.000  
G10  20162961.472   105957079.955        -313.274          43.000    20162962.372    79123785.142        -237.977          21.000  
G25  20805127.110   109331696.244        -197.859          29.000  
G32                                                                  21886407.755    85886958.817         444.654          25.000  
J02  37856552.254   198937484.511       -1274.999          33.000  
> 2021  9 12 10 27 49.9999898  0 11
C06  36688949.669   191048981.0911       -731.487          34.000  
C09  37670989.117   196162744.248        -832.899          27.000  
C23  24061847.829   125296341.104        1798.311          28.000  
C24  24315852.685   126618944.717       -3262.432          26.000  
C25  21799714.971   113516857.536        -672.856          35.000  
C33  22237665.884   115797303.888        -777.159          34.000  
G10  20162872.134                        -313.787          43.000    20162872.134    79123433.447        -235.930          23.000  
G23  21071665.989   110732383.0721      -2736.787          20.000  
G25  20805014.688   109331107.867        -200.574          25.000  
G32                                                                  21886146.036    85885925.207         447.614          23.000  
J02  37856645.789                       -1275.750          32.000  
> 2021  9 12 10 27 50.9999895  0 14
C06  36688999.734   191049244.288        -731.807          35.000  
C09  37671061.367   196163109.071        -833.752          28.000  
C23  24061414.030   125294074.353        1798.259          29.000  
C24  24316392.612   126621738.879       -3262.213          25.000  
C25  21799754.544   113517062.469        -673.688          35.000  
C33  22237724.644                        -777.947          34.000  
G10  20162840.356   105956447.5391       -315.279          43.000    20162842.155    79123315.944        -236.052          24.000  
G23  21072095.292   110734647.286       -2737.664          16.000  
G25  20804962.524   109330836.097        -201.569          24.000  
G32  21885924.790                         596.241          34.000    21885942.477    85885124.272         447.555          27.000  
J01  38109536.617   200266928.5541        518.379          30.000  
J02  37856799.583   198938819.4931      -1275.534          33.000  
R01  20395040.108   109023178.2601       -986.974          30.000  
R12  19066605.464   101850384.3971       -857.632          35.000  
> 2021  9 12 10 27 51.9999890  0 14
C06  36688990.740   191049195.643        -730.060          36.000  
C09  37671072.759   196163162.352        -834.855          29.000  
C23  24060920.571   125291496.110        1797.340          30.000  
C24  24316870.781   126624220.748       -3263.753          22.000  
C25  21799738.655   113516956.158        -672.937          38.000  
C33  22237720.746   115797666.0111       -777.653          38.000  
G10  20162753.116   105955975.665        -317.247          44.000    20162751.618    79122963.022        -235.157          27.000  
G12  22346181.460   117429829.1321      -1942.654          29.000  
G23  21072467.634   110736598.389       -2739.864          19.000  
G25  20804852.201   109330250.690        -203.488          27.000  
G31  21908244.638   115128609.7741       1236.839          26.000  
G32                                                                  21885678.660    85884088.545         447.730          22.000  
J01  38109288.089   200265623.217         517.196          33.000  
R12  19066618.954   101850456.675        -858.962          36.000  
> 2021  9 12 10 27 52.9999885  0 16
C06  36688980.547   191049147.550        -732.528          35.000  
C09  37671083.552   196163216.631        -835.257          25.000  
C23  24060425.914   125288918.026        1796.701          23.000  
C24  24317346.251   126626705.105       -3266.214          23.000  
C25  21799714.672   113516851.014        -675.550          34.000  
C33  22237718.948   115797664.667        -779.587          37.000  
G10  20162663.179   105955502.719        -315.480          35.000    20162659.581    79122611.102        -237.011          24.000  
G12  22346403.906   117430985.361       -1945.062          28.000  
G23  21072840.876   110738551.383       -2741.491          25.000  
G25  20804740.978   109329666.377        -203.282          25.000  
G31  21907860.004   115126586.067        1235.297          23.000  
G32  21885411.545   115008543.0641        594.872          41.000    21885411.545    85883053.099         446.582          27.000  
J01  38109040.160   200264318.452         516.003          31.000  
J02  37856983.056   198939795.2191      -1277.341          29.000  
R01  20395123.150   109023622.7431       -992.147          21.000  
R12  19066632.145   101850527.377        -860.400          31.000  
> 2021  9 12 10 27 53.9999882  0 13
C06  36689029.114   191049412.093        -733.354          36.000  
C09  37671153.103   196163582.851        -834.175          30.000  
C23  24059991.215   125286652.926        1795.712          28.000  
C25  21799759.041   113517058.879        -677.659          37.000  
C33  22237776.208   115797976.267        -779.844          38.000  
G10  20162632.900   105955346.844        -318.589          41.000    20162630.202    79122497.584        -239.913          26.000  
G12  22346684.512   117432457.726       -1946.452          28.000  
G23  21073271.378   110740821.179       -2742.840          24.000  
G25  20804691.512   109329397.630        -205.307          26.000  
G31  21907531.731   115124878.731        1234.088          26.000  
G32  21885210.684   115007474.693         595.727          38.000    21885206.187    85882254.155         444.965          27.000  
J02  37857135.650   198940598.603       -1276.866          26.000  
R12  19066707.093   101850927.771        -861.705          33.000  
> 2021  9 12 10 27 54.9999880  0 14
C06  36689108.259   191049832.184        -731.126          35.000  
C09  37671252.035   196164104.813        -834.369          25.000  
C23  24059587.094   125284545.641        1794.128          26.000  
C24  24318449.488   126632461.5031      -3268.331          20.000  
C25  21799823.796   113517423.599        -677.280          37.000  
C33  22237865.246   115798444.472        -782.778          38.000  
G10  20162631.701                        -318.761          41.000    20162631.701    79122504.060        -239.993          23.000  
G23  21073732.459   110743249.338       -2742.938          29.000  
G25  20804671.426   109329287.716        -205.402          24.000  
G31  21907228.641   115123329.629        1233.666          22.000  
G32  21885032.607   115006563.946         596.828          42.000    21885029.609    85881573.912         443.816          30.000  
J02  37857318.824   198941560.365       -1276.988          27.000  
R01  20395357.888   109024876.6871       -992.159          25.000  
R12  19066814.119   101851499.406        -862.450          33.000  
> 2021  9 12 10 27 55.9999875  0 10
C06  36689098.066   191049783.218        -732.465          27.000  
C23  24059089.439   125281971.159        1794.071          31.000  
C25  21799801.312   113517321.257        -677.561          35.000  
C33  22237866.445   115798445.678        -782.167          32.000  
G10  20162540.264                        -319.918          37.000    20162542.662    79122155.592        -240.229          25.000  
G32  21884772.687   115005181.725         596.347          36.000    21884765.792    85880541.736         443.309          32.000  
J01  38108445.372   200261194.4751        516.187          27.000  
J02  37857412.059   198942049.881       -1277.884          31.000  
R01  20395390.865   109025053.560        -991.112          27.000  
R12  19066824.312   101851553.179        -863.166          33.000  
> 2021  9 12 10 27 56.9999872  0 11
C06  36689148.731   191050048.034        -733.935          26.000  
C25  21799848.379   113517531.776        -679.421          36.000  
C33  22237926.404   115798759.617        -782.546          33.000  
G10                                                                  20162513.283    79122043.362        -241.814          26.000  
G23  21074533.804   110747479.0781      -2747.203          21.000  
G25  20804517.632   109328441.9291       -208.136          25.000  
G31  21906518.733   115119603.4671       1231.502          23.000  
G32  21884569.128   115004114.639         594.100          36.000    21884561.933    85879744.586         444.230          32.000  
J02  37857564.953   198942855.226       -1278.247          32.000  
R01  20395484.100   109025551.887        -993.091          26.000  
R12  19066897.462   101851944.778        -865.155          30.000  
> 2021  9 12 10 27 57.9999867  0 10
C06  36689139.737   191050001.659        -734.139          29.000  
C25  21799831.291   113517430.892        -679.030          38.000  
C33  22237928.502   115798762.012        -783.117          38.000  
E21  24156023.133   126940762.6481       -974.843          35.000  
G10  20162426.343   105954261.9631       -321.086          36.000    20162423.944    79121695.401        -239.059          26.000  
G25  20804410.007   109327862.598        -210.193          23.000  
G32  21884301.713   115002732.859         593.916          37.000    21884298.715    85878712.376         442.797          30.000  
J02  37857658.189   198943346.165       -1278.894          30.000  
R01  20395520.075   109025743.739        -994.546          26.000  
R12  19066907.954   101852000.269        -866.802          27.000  
> 2021  9 12 10 27 58.9999864  0 14
C06  36689191.301   191050267.694        -734.358          31.000  
C08  37775407.729   196706461.9491      -2336.014          24.000  
C23  24057709.494   125274873.8051       1793.278          27.000  
C25  21799872.662   113517643.170        -681.961          39.000  
C33  22237988.461   115799077.570        -784.009          39.000  
E21  24156121.465                        -976.149          36.000  
G10  20162392.166   105954112.675        -320.661          37.000    20162393.965    79121582.888        -243.145          25.000  
G23  21075345.042   110751710.7941      -2746.313          23.000  
G25  20804362.639   109327600.956        -211.302          22.000  
G31  21905795.933   115115880.1341       1230.132          26.000  
G32  21884099.353   115001666.594         593.559          37.000    21884096.955    85877916.371         443.276          31.000  
J02  37857811.982   198944152.665       -1279.339          31.000  
R01  20395607.615   109026212.204        -995.319          25.000  
R12  19066981.104   101852391.567        -868.511          27.000  
> 2021  9 12 10 27 59.9999859  0 15
C06  36689182.308   191050221.556        -734.671          27.000  
C08  37775709.920   196708016.896       -2335.370          23.000  
C23  24057215.436   125272300.234        1792.478          27.000  
C25  21799852.876   113517543.931        -680.878          40.000  
C33  22237987.262   115799081.250        -784.717          38.000  
E21  24156155.941   126941463.4661       -975.638          34.000  
G10                                                                  20162304.927    79121238.745        -242.842          23.000  
G12  22348236.838   117440534.8581      -1952.512          20.000  
G23  21075720.083   110753670.858       -2748.592          24.000  
G25  20804255.913   109327024.624        -211.284          20.000  
G31  21905406.203   115113862.842        1229.360          24.000  
G32  21883833.138   115000285.468         591.781          32.000    21883834.037    85876884.496         444.459          30.000  
J01  38107562.184                         514.976          33.000  
J02  37857905.817   198944644.521       -1279.628          30.000  
R12  19066993.095   101852455.225        -869.305          27.000  
> 2021  9 12 10 28  0.9999854  0 15
C06  36689173.014   191050175.788        -734.764          33.000  
C08  37776008.513   196709571.302       -2334.902          25.000  
C09  37671424.416   196165029.3841       -836.427          23.000  
C25  21799833.389   113517445.370        -683.102          40.000  
C33  22237986.962   115799085.810        -783.664          37.000  
E21  24156193.715   126941652.596        -977.354          33.000  
G10  20162220.985   105953186.3621       -325.400          37.000  
G23  21076091.825   110755631.424       -2748.635          23.000  
G25  20804147.388   109326447.980        -212.853          22.000  
G31  21905021.569   115111846.581        1228.562          26.000  
G32  21883571.719   114998904.768         592.773          38.000    21883571.719    85875852.658         442.559          31.000  
J01  38107314.555   200255289.5121        515.814          33.000  
J02  37857999.952   198945137.022       -1281.057          30.000  
R01  20395666.974   109026529.6701       -994.997          25.000  
R12  19067003.288   101852510.063        -870.789          29.000  
> 2021  9 12 10 28  1.9999852  0 14
C06  36689254.558   191050598.743        -735.130          33.000  
C08  37776394.346   196711594.330       -2335.942          26.000  
C25  21799903.241   113517816.052        -684.132          37.000  
C33  22238078.399   115799559.328        -786.400          36.000  
E12  25115764.918  -1443635242.340       -2380.021          27.000  
E21  24156316.930   126942314.975        -977.315          32.000  
G10  20162226.081   105953197.373        -326.684          40.000  
G12  22348765.072   117443341.2041      -1956.034          19.000  
G31  21904726.573   115110302.663        1228.363          26.000  
G32  21883401.137   114997997.010         593.691          37.000    21883399.038    85875175.010         441.302          30.000  
J01  38107153.866   200254460.308         513.525          30.000  
J02  37858184.025   198946102.680       -1280.924          28.000  
R01  20395791.387   109027193.954        -996.550          26.000  
R12  19067108.815   101853073.605        -870.731          32.000  
> 2021  9 12 10 28  2.9999846  0 17
C06  36689215.585   191050397.485        -735.228          31.000  
C08  37776660.262   196712995.425       -2339.131          25.000  
C09  37671503.261   196165455.6121       -838.255          17.000  
C23  24055798.617   125264901.1361       1789.039          25.000  
C25  21799852.876   113517563.456        -684.559          36.000  
C33  22238050.218   115799409.558        -787.556          38.000  
E12  25116041.626  -1441946320.536       -2381.996          25.000  
E21  24156320.227   126942348.482        -980.210          31.000  
G10  20162110.961   105952579.540        -328.398          36.000  
G12  22348953.641   117444351.000       -1954.858          20.000  
G23  21076893.170   110759868.8921      -2749.855          24.000  
G25  20803983.702   109325613.5111       -214.596          20.000  
G32  21883108.239   114996459.817         592.913          35.000    21883106.141    85874027.424         441.010          29.000  
J01  38106881.355   200253001.687         512.718          33.000  
J02  37858246.681   198946438.290       -1281.411          27.000  
R01  20395785.392   109027162.081        -998.383          22.000  
R12  19067089.629   101852970.770        -873.300          27.000  
> 2021  9 12 10 28  3.9999844  0 14
C06  36689299.227   191050821.077        -735.891          33.000  
C08  37777047.294   196715022.325       -2339.676          24.000  
C09  37671605.490   196165982.061        -839.122          19.000  
C25  21799923.627   113517936.473        -685.971          39.000  
C33  22238143.154   115799885.314        -789.264          39.000  
E21  24156448.239   126943013.450        -981.284          32.000  
G10  20162111.261   105952593.130        -329.423          40.000  
G12  22349263.027   117445990.463       -1954.822          20.000  
G25  20803964.215   109325513.554        -215.405          20.000  
G32  21882931.662   114995553.426         589.831          36.000    21882934.060    85873350.092         442.164          29.000  
J01  38106724.863   200252173.991         511.964          35.000  
J02  37858430.154   198947404.421       -1281.422          28.000  
R01  20395911.304   109027835.152        -998.828          23.000  
R12  19067190.059   101853507.792        -875.062          30.000  
> 2021  9 12 10 28  4.9999841  0 13
C06  36689353.789                        -737.416          37.000  
C08  37777405.846   196716893.628       -2339.755          25.000  
C23  24054972.989   125260542.8921       1787.864          24.000  
C25  21799965.298   113518154.196        -686.312          41.000  
C33  22238204.611   115800205.691        -788.842          41.000  
E21  24156544.472   126943521.621        -981.904          33.000  
G10  20162083.680   105952450.244        -329.712          44.000  
G23  21077787.451   110764584.7721      -2751.831          24.000  
G25  20803915.049   109325257.128        -217.423          25.000  
G32  21882730.501   114994489.989         590.657          38.000    21882731.400    85872555.333         441.367          29.000  
J01  38106539.592   200251189.049         512.479          35.000  
J02  37858585.147   198948213.666       -1282.304          28.000  
R12  19067260.210   101853881.826        -875.977          35.000  
> 2021  9 12 10 28  5.9999836  0 14
C06  36689343.296   191051050.5121       -738.413          36.000  
C08  37777703.540   196718452.979       -2340.312          24.000  
C09  37671690.331   196166412.7571       -839.282          24.000  
C23  24054481.929   125257974.246        1787.682          26.000  
C25  21799947.610   113518060.681        -686.821          40.000  
C33  22238205.511   115800214.754        -789.763          39.000  
E21  24156583.145   126943715.677        -982.078          31.000  
G10  20161995.541   105951993.396        -330.888          42.000  
G12  22349765.180   117448642.7171      -1957.257          25.000  
G23  21078162.192   110766549.404       -2751.927          23.000  
G32  21882469.382   114993111.936         589.512          39.000    21882468.782    85871527.077         440.013          26.000  
J01  38106295.261   200249889.537         511.315          33.000  
J02  37858681.380   198948709.094       -1284.400          28.000  
R12  19067273.701   101853954.339        -876.941          33.000  
> 2021  9 12 10 28  6.9999831  0 15
C06  36689336.101   191051007.437        -736.165          36.000  
C08  37778003.632   196720013.082       -2341.663          23.000  
C09  37671700.824   196166471.265        -839.152          25.000  
C23  24053990.869   125255407.429        1785.409          24.000  
C25  21799931.422   113517968.173        -687.912          40.000  
C33  22238207.609   115800224.722        -791.483          40.000  
E21  24156616.123   126943910.718        -983.362          31.000  
G10  20161911.599   105951537.732        -332.289          42.000    20161907.402    79119663.1251       -250.938          27.000  
G12  22349984.927   117449812.458       -1958.429          25.000  
G23  21078535.434   110768514.771       -2754.364          25.000  
G25  20803699.798   109324119.6301       -220.761          23.000  
G32  21882207.663   114991734.539         591.130          39.000    21882204.665    85870497.509         441.255          25.000  
J01                                                                  38106048.532                         382.485          27.000  
J02  37858776.115   198949205.438       -1283.493          26.000  
R12  19067283.894   101854008.832        -877.760          34.000  
> 2021  9 12 10 28  7.9999828  0 16
C06  36689390.663   191051276.770        -738.812          34.000  
C08  37778362.484   196721886.389       -2341.322          20.000  
C09  37671773.674   196166844.590        -843.355          18.000  
C23  24053560.067   125253154.486        1784.309          25.000  
C25  21799971.893   113518188.646        -689.271          37.000  
C33  22238270.566   115800547.705        -791.700          40.000  
E12  25117776.825  -1433499824.509       -2385.555          27.000  
E21  24156719.251   126944421.688        -985.043          34.000  
G10  20161883.419   105951398.042        -333.354          41.000    20161881.320    79119560.538        -249.204          26.000  
G12  22350267.332   117451299.549       -1960.541          24.000  
G23  21078971.332   110770797.105       -2756.057          25.000  
G25  20803652.131   109323868.037        -221.749          23.000  
G32  21882003.804   114990672.392         588.513          39.000    21882002.605    85869703.222         440.502          29.000  
J01  38105849.469   200247607.0571        509.991          34.000    38105861.461                         380.862          26.000  
J02  37858930.508   198950016.790       -1284.006          26.000  
R12  19067354.345   101854384.528        -879.097          33.000  
> 2021  9 12 10 28  8.9999823  0 15
C06  36689380.770   191051234.198        -736.994          33.000  
C08  37778661.677   196723446.248       -2339.955          23.000  
C23  24053072.604   125250591.275        1781.030          24.000  
C25  21799954.506   113518097.893        -689.773          35.000  
C33  22238273.863   115800558.968        -791.303          37.000  
E12  25118081.414  -1431810739.759       -2386.292          27.000  
E21  24156760.323   126944618.413        -985.776          35.000  
G10  20161795.879   105950944.414        -334.648          39.000    20161795.579    79119222.084        -250.589          20.000  
G12  22350490.377   117452473.510       -1961.391          16.000  
G23  21079344.573   110772766.560       -2757.835          20.000  
G25  20803541.208   109323301.213        -219.993          24.000  
G32  21881742.085   114989295.803         588.697          37.000    21881742.085    85868674.803         439.263          30.000  
J01  38105602.440   200246309.618         507.313          32.000    38105615.331   149534616.2191        380.919          26.000  
J02  37859022.544   198950513.191       -1284.537          25.000  
R12  19067366.637   101854450.410        -880.501          31.000  
> 2021  9 12 10 28  9.9999818  0 16
C06  36689373.575   191051191.938        -738.866          35.000  
C08  37778960.270   196725004.714       -2339.770          24.000  
C09  37671802.454   196166969.8721       -842.707          23.000  
C25  21799938.017   113518007.822        -692.032          35.000  
C33  22238276.262   115800571.189        -793.171          37.000  
E12  25118385.404  -1430121635.566       -2385.040          26.000  
E21  24156800.795   126944815.364        -984.529          30.000  
G10  20161708.340   105950491.721        -335.471          39.000    20161707.440    79118883.905        -250.765          23.000  
G12  22350729.012   117453647.072       -1961.683          18.000  
G23  21079719.014   110774736.952       -2758.580          22.000  
G25  20803432.383   109322733.652        -220.798          26.000  
G32  21881482.465   114987919.461         587.826          39.000    21881482.465    85867647.596         436.532          22.000  
J01  38105359.009   200245011.931         510.319          28.000    38105369.202   149533648.288         380.507          22.000  
J02  37859116.679   198951010.309       -1283.856          22.000  
R01  20396262.062   109029709.8931      -1007.682          17.000  
R12  19067382.826   101854536.972        -881.948          32.000  
> 2021  9 12 10 28 10.9999816  0 15
C06  36689452.720   191051618.085        -738.680          34.000  
C08  37779346.403   196727032.575       -2340.100          25.000  
C09  37671906.182   196167500.114        -842.151          22.000  
C25  21800010.267   113518386.966        -693.464          38.000  
C33  22238369.497   115801052.396        -795.102          39.000  
E12  25118778.432  -1428432054.660       -2383.947          25.000  
E21  24156932.104   126945485.315        -986.238          30.000  
G10  20161710.738   105950512.680        -337.766          42.000    20161711.937    79118899.764        -251.951          25.000  
G23  21080182.493   110777181.251       -2759.401          21.000  
G25  20803412.897   109322640.355        -222.795          27.000  
G31  21901581.151   115093614.8111       1221.153          29.000  
G32  21881315.481   114987015.847         586.662          42.000    21881313.082    85866975.735         436.526          26.000  
J01  38105203.417   200244186.240         509.939          30.000    38105213.310   149533029.831         384.334          22.000  
J02  37859300.751   198951979.561       -1284.548          25.000  
R12  19067490.151   101855110.498        -883.878          34.000  
> 2021  9 12 10 28 11.9999811  0 14
C06  36689441.029   191051576.241        -738.847          31.000  
C08  37779642.897   196728593.445       -2341.164          24.000  
C09  37671919.373   196167560.807        -840.904          24.000  
C23  24051682.766   125243378.6611       1781.318          19.000  
C25  21799995.577   113518298.557        -693.071          40.000  
C33  22238372.495   115801066.010        -794.372          41.000  
G10  20161623.498   105950061.848        -337.568          43.000    20161627.096    79118564.478        -251.399          28.000  
G23  21080554.536   110779153.290       -2760.708          21.000  
G25  20803304.072   109322076.132        -224.476          28.000  
G31  21901201.913   115091606.142        1219.415          26.000  
G32                                                                  21881051.663    85865951.268         436.348          26.000  
J01  38104957.887   200242888.543         509.816          35.000    38104966.281   149532059.814         380.709          35.000  
J02  37859395.486   198952477.077       -1285.712          25.000  
R12  19067507.239   101855202.066        -884.739          35.000  
> 2021  9 12 10 28 12.9999808  0 12
C06  36689493.192   191051846.974        -740.705          28.000  
C25  21800039.047   113518523.177        -693.881          43.000  
C33  22238435.451   115801392.542        -794.983          43.000  
E21  24157064.612   126946198.8021       -987.417          34.000  
G10  20161599.815   105949927.165        -338.111          46.000  
G23  21080987.736   110781441.459       -2759.981          21.000  
G31  21900879.637   115089914.228        1219.235          31.000  
G32  21880855.299   114984581.9351        587.824          30.000    21880849.303    85865160.546         439.962          28.000  
J01  38104772.615   200241906.089         509.140          37.000  
J02  37859549.579   198953290.041       -1285.632          28.000  
R01  20396513.288   109031053.1941      -1006.334          19.000  
R12  19067581.888   101855600.189        -886.414          37.000  
> 2021  9 12 10 28 13.9999805  0 13
C06  36689547.755   191052118.131        -740.657          30.000  
C08  37780353.106   196732338.6321      -2341.489          22.000  
C09  37672067.770   196168306.4611       -840.922          21.000  
C23  24050813.069   125238875.8601       1784.751          21.000  
C25  21800082.517   113518748.799        -694.368          39.000  
C33  22238493.911   115801720.154        -798.544          42.000  
G10  20161576.731   105949793.669        -340.488          44.000  
G23  21081420.636   110783729.231       -2761.870          21.000  
G31  21900559.158   115088223.518        1216.657          32.000  
G32                                                                  21880646.644    85864368.443         438.567          32.000  
J01  38104586.444   200240924.921         507.924          36.000  
J02  37859703.073   198954103.240       -1286.361          31.000  
R12  19067659.834   101856016.989        -886.570          32.000  
> 2021  9 12 10 28 14.9999800  0 16
C06  36689539.660   191052077.459        -740.871          33.000  
C08  37780649.900   196733898.656       -2341.706          23.000  
C09  37672079.462   196168366.737        -840.148          26.000  
C23  24050320.510   125236311.636        1783.048          24.000  
C25  21800067.527   113518663.153        -694.783          37.000  
C33  22238496.309   115801736.251        -797.104          35.000  
E21  24157198.020   126946914.6591       -989.385          29.000  
G10  20161488.292   105949346.291        -340.019          40.000  
G12  22352028.613   117460638.2621      -1969.115          22.000  
G23  21081794.777   110785703.543       -2762.503          25.000  
G25  20803099.014   109321020.7841       -226.597          32.000  
G31  21900173.925                        1215.592          34.000  
G32  21880391.820   114982147.7501        586.317          31.000    21880385.524    85863342.129         438.357          31.000  
J01  38104337.916   200239630.228         507.305          32.000  
R01  20396640.100   109031731.3631      -1009.928          20.000  
R12  19067674.823   101856096.818        -889.284          27.000  
> 2021  9 12 10 28 15.9999795  0 18
C06  36689532.765   191052037.818        -740.955          25.000  
C08  37780948.494   196735460.156       -2342.480          24.000  
C09  37672092.353   196168426.325        -840.653          25.000  
C23  24049827.051   125233749.353        1779.666          21.000  
C24  24329092.720   126687951.7441      -3280.341          24.000  
C25  21800051.938   113518578.077        -695.159          37.000  
C33  22238494.211   115801752.827        -797.809          37.000  
E21  24157237.592   126947116.201        -990.742          30.000  
G10  20161403.451   105948899.453        -341.404          38.000  
G12  22352249.560   117461819.545       -1969.095          28.000  
G23  21082170.717   110787678.691       -2762.993          28.000  
G25  20802990.190   109320459.474        -226.676          31.000  
G31  21899792.889                        1217.241          31.000  
G32  21880128.902   114980773.477         586.298          34.000    21880123.506    85862315.282         439.248          30.000  
J01  38104090.287   200238334.700         507.690          33.000  
J02  37859898.837   198955100.8861      -1288.409          31.000  
R01  20396676.675   109031926.544       -1011.048          21.000  
R12  19067692.811   101856193.280        -889.438          29.000  
> 2021  9 12 10 28 16.9999793  0 13
C06  36689616.107   191052465.957        -740.669          30.000  
C08  37781337.324   196737491.036       -2343.854          24.000  
C09  37672190.685   196168955.065        -842.422          27.000  
C25  21800122.090   113518961.929        -695.728          38.000  
C33  22238583.249   115802238.080        -796.359          34.000  
G10  20161407.948   105948926.066        -340.120          37.000  
G23  21082637.494   110790126.651       -2763.173          30.000  
G25  20802971.902   109320372.161        -229.286          31.000  
G31  21899503.889   115082656.4091       1217.520          30.000  
G32  21879954.423                         580.768          39.000    21879952.324    85861641.696         437.131          33.000  
J01  38103932.596                         507.796          31.000  
J02  37860085.908                       -1290.182          32.000  
R12  19067799.837   101856765.039        -890.917          26.000  
> 2021  9 12 10 28 17.9999788  0 13
C06  36689608.912   191052425.918        -740.465          30.000  
C08  37781638.616   196739054.249       -2343.643          25.000  
C09  37672202.377   196169016.501        -843.092          26.000  
C23  24048936.967   125229096.6581       1778.920          21.000  
C25  21800101.104                        -698.203          35.000  
C33  22238600.038                        -798.858          35.000  
G10  20161328.503   105948483.405        -346.479          36.000  
G12  22352781.092   117464656.1771      -1968.844          21.000  
G31  21899123.752   115080652.762        1215.745          26.000  
G32  21879691.505   114978564.4921        584.637          38.000    21879691.205    85860616.044         436.830          36.000  
J01  38103688.266                         506.765          35.000  
J02  37860177.944   198956595.6991      -1287.570          30.000  
R12  19067821.722   101856881.732        -896.491          26.000  
> 2021  9 12 10 28 18.9999782  0 15
C06  36689570.839   191052229.412        -740.060          35.000  
C09  37672184.090   196168922.819        -843.008          26.000  
C23  24048416.827   125226380.686        1778.493          24.000  
C25  21800054.936   113518639.7461       -699.226          35.000  
C33  22238574.855   115802118.3961       -800.974          36.000  
E21  24157397.682   126948041.1961       -992.268          31.000  
G10  20161210.085                        -345.762          37.000    20161211.883    79116926.1701       -256.268          34.000  
G12  22352973.858   117465680.141       -1968.710          24.000  
G23  21083362.392   110793920.2971      -2764.814          28.000  
G25  20802728.171   109319097.7101       -230.131          21.000  
G31  21898713.936   115078492.373        1214.650          28.000  
G32  21879395.610   114977031.202         587.049          29.000    21879399.207    85859473.323         434.796          33.000  
J01  38103407.960   200234770.2041        506.470          35.000    38103416.953   149525988.4991        379.858          25.000  
J02  37860243.299   198956938.775       -1288.752          30.000  
R12  19067811.229   101856825.303        -896.225          22.000  
> 2021  9 12 10 28 19.9999780  0 16
C06  36689650.284   191052658.078        -741.610          29.000  
C08  37782299.358   196742492.7401      -2345.093          18.000  
C09  37672285.419   196169454.149        -843.792          26.000  
C23  24048014.506   125224290.591        1777.949          27.000  
C24  24331155.891   126698736.3451      -3286.104          18.000  
C25  21800125.987   113519026.608        -699.697          36.000  
C33  22238669.290   115802606.506        -800.123          38.000  
E21  24157526.293   126948719.486        -993.382          33.000  
G10  20161211.284                        -345.768          39.000    20161219.078    79116948.616        -258.000          31.000  
G23  21083828.569   110796370.455       -2766.236          32.000  
G25  20802712.882   109319013.621        -232.026          28.000  
G31  21898424.936   115076963.835        1212.350          32.000  
G32                                                                  21879228.026    85858802.312         437.017          29.000  
J01  38103255.665                         504.648          35.000    38103260.761   149525375.368         377.776          24.000  
J02  37860427.971   198957912.750       -1289.335          31.000  
R12  19067915.257   101857380.905        -895.086          30.000  
> 2021  9 12 10 28 20.9999775  0 12
C06  36689642.789   191052618.948        -741.560          29.000  
C08  37782600.950   196744057.356       -2346.648          20.000  
C09  37672296.512   196169516.711        -843.520          27.000  
C23  24047524.345   125221732.934        1775.705          26.000  
C25  21800111.597   113518946.036        -700.133          36.000  
C33  22238674.986                        -801.378          40.000  
G10  20161130.939   105947463.5891       -346.614          39.000    20161133.937    79116619.137        -258.005          26.000  
G12  22353502.093   117468513.0021      -1969.232          19.000  
G32  21878967.506   114974756.6111        584.256          30.000    21878967.506    85857777.075         436.174          26.000  
J01  38103012.833   200232655.2331        506.339          37.000    38103015.231   149524408.902         377.860          30.000  
J02  37860523.605   198958415.589       -1291.187          28.000  
R12  19067934.444   101857483.596        -895.864          31.000  
> 2021  9 12 10 28 21.9999772  0 15
C06  36689695.852   191052892.632        -742.931          36.000  
C08  37782960.701   196745937.148       -2349.939          20.000  
C09  37672370.860   196169890.946        -842.476          28.000  
C24  24332169.190   126704054.6151      -3282.977          18.000  
C25  21800159.564   113519178.118        -700.888          37.000  
C33  22238738.242   115802961.1201       -802.646          44.000  
E21  24157671.392   126949448.5231       -995.077          31.000  
G10  20161108.455   105947337.677        -346.988          45.000    20161109.654    79116524.458        -259.072          29.000  
G12  22353785.097   117470011.074       -1972.332          23.000  
G23  21084646.703   110800645.3481      -2768.410          23.000  
G25  20802568.382   109318222.1791       -237.120          26.000  
G32                                                                  21878766.645    85856989.921         435.308          29.000  
J01  38102826.362   200231678.083         503.408          34.000    38102829.960   149523678.158         378.082          29.000  
J02  37860679.197   198959233.372       -1290.673          28.000  
R12  19068009.692   101857885.368        -896.716          37.000  
> 2021  9 12 10 28 22.9999770  0 13
C06  36689778.295   191053323.765        -743.137          30.000  
C09  37672470.691   196170421.879        -843.413          26.000  
C25  21800236.310   113519567.254        -702.090          38.000  
C33  22238832.077   115803451.236        -801.613          34.000  
E21  24157797.605   126950129.076        -996.103          34.000  
G10  20161114.151   105947370.727        -349.027          39.000    20161116.250    79116548.113        -260.847          26.000  
G23  21085113.480   110803097.915       -2767.531          25.000  
G25  20802549.495   109318144.027        -236.873          25.000  
G31  21897420.931   115071757.4051       1210.159          26.000  
G32                                                                  21878594.564    85856319.342         434.987          26.000  
J01  38102670.470   200230858.158         505.647          31.000    38102674.068   149523066.336         376.075          27.000  
J02  37860864.769   198960208.799       -1290.605          25.000  
R12  19068117.317   101858461.101        -897.660          32.000  
> 2021  9 12 10 28 23.9999764  0 13
C06  36689741.121   191053129.917        -742.792          32.000  
C08  37783623.542   196749387.4841      -2351.856          21.000  
C09  37672451.804   196170328.393        -842.237          26.000  
C23  24046163.288   125214688.2391       1776.050          24.000  
C25  21800194.939   113519332.407        -703.550          35.000  
C33  22238803.297   115803317.063        -803.532          36.000  
G10  20160999.930   105946773.531        -349.318          38.000    20161002.628    79116103.143        -261.229          23.000  
G12  22354292.345   117472702.7621      -1977.236          18.000  
G23  21085457.641   110804920.689       -2769.098          27.000  
G25  20802412.789   109317436.450        -237.051          24.000  
G32  21878300.468                         582.553          39.000    21878302.267    85855177.975         435.697          30.000  
J01  38102392.862   200229407.010         506.143          30.000    38102397.959   149521983.773         376.967          27.000  
R12  19068101.128   101858374.328        -898.669          29.000  
> 2021  9 12 10 28 24.9999759  0 13
C06  36689733.326   191053091.971        -742.514          30.000  
C09  37672464.096   196170390.340        -843.522          27.000  
C23  24045669.529   125212132.688        1774.096          25.000  
C24  24333670.850   126711871.3121      -3282.739          18.000  
C25  21800175.752   113519254.645        -703.173          35.000  
C33  22238809.592                        -804.398          35.000  
G10  20160919.886   105946335.582        -349.778          36.000  
G12  22354527.982   117473892.224       -1977.861          19.000  
G23  21085835.680   110806902.407       -2771.016          25.000  
G25  20802307.862   109316886.817        -241.283          18.000  
G32  21878038.449   114969874.7501        583.482          38.000    21878038.749    85854155.205         432.917          22.000  
J01  38102145.833   200228113.278         506.022          31.000  
R12  19068117.617   101858461.719        -900.136          30.000  
> 2021  9 12 10 28 25.9999757  0 13
C06  36689816.369   191053521.517        -742.084          31.000  
C09  37672566.325   196170921.173        -843.061          29.000  
C23  24045268.707   125210045.938        1774.774          26.000  
C24  24334241.655   126714841.396       -3281.886          17.000  
C25  21800249.501   113519645.850        -704.529          35.000  
C33  22238904.027   115803810.0551       -804.687          40.000  
E21  24157980.778   126951071.3641       -997.977          30.000  
G10  20160926.181                        -350.933          41.000  
G12  22354849.360   117475556.225       -1980.103          24.000  
G23  21086303.356   110809359.089       -2771.978          26.000  
G32                                                                  21877867.867    85853485.966         434.813          26.000  
J01  38101989.941   200227292.308         505.785          28.000  
R12  19068224.943   101859035.393        -901.977          32.000  
> 2021  9 12 10 28 26.9999752  0 12
C06  36689810.673   191053482.976        -742.902          28.000  
C08  37784617.654   196754563.2111      -2349.355          20.000  
C09  37672580.415   196170984.093        -843.482          31.000  
C23  24044777.047   125207491.293        1772.601          22.000  
C25  21800233.912   113519569.346        -705.471          31.000  
C33  22238908.824   115803834.269        -805.255          41.000  
G10  20160840.740   105945934.1761       -351.987          39.000  
G12  22355084.097   117476748.227       -1977.703          22.000  
G23  21086680.195   110811343.830       -2772.532          28.000  
G32  21877623.237   114967605.8581        582.830          28.000    21877609.446    85852462.094         436.205          30.000  
J01  38101742.313   200225999.360         504.614          29.000  
R12  19068243.829   101859136.054        -902.873          26.000  
> 2021  9 12 10 28 27.9999747  0 13
C06  36689803.777   191053445.455        -743.158          28.000  
C08  37784919.844   196756131.564       -2348.341          20.000  
C09  37672592.107   196171046.547        -842.861          31.000  
C23  24044287.786   125204937.756        1772.050          24.000  
C25  21800215.925   113519493.517        -705.402          32.000  
C33  22238914.820   115803859.132        -804.484          39.000  
G10  20160757.998   105945498.756        -352.934          39.000  
G12  22355326.929   117477938.584       -1978.261          24.000  
G23  21087057.634   110813328.184       -2772.441          28.000  
G31  21895555.922   115062091.3331       1206.835          25.000  
G32                                                                  21877350.126    85851439.334         434.134          20.000  
J01  38101496.783   200224706.979         504.361          30.000  
R12  19068263.016   101859238.533        -903.722          29.000  
> 2021  9 12 10 28 28.9999744  0 13
C06  36689855.342   191053720.265        -742.990          29.000  
C08  37785280.495   196758010.882       -2348.202          20.000  
C09  37672663.758   196171421.825        -843.831          29.000  
C23  24043853.387   125202697.501        1771.122          21.000  
C25  21800264.191   113519730.334        -706.371          38.000  
C33  22238979.875   115804196.432        -806.704          41.000  
G10  20160734.314   105945378.898        -353.993          43.000  
G12  22355607.235   117479444.829       -1979.003          20.000  
G23  21087496.530   110815627.831       -2772.941          25.000  
G31  21895232.446   115060411.980        1207.051          26.000  
G32                                                                  21877152.263    85850651.941         435.006          24.000  
J01  38101313.010   200223730.038         504.518          32.000  
R12  19068341.262   101859657.002        -903.749          33.000  
> 2021  9 12 10 28 29.9999739  0 12
C06  36689845.748   191053682.192        -742.652          27.000  
C08  37785581.186   196759578.655       -2348.660          20.000  
C09  37672676.049   196171486.036        -845.723          30.000  
C23  24043362.327   125200146.664        1770.243          20.000  
C25  21800250.401   113519655.663        -707.023          38.000  
C33  22238984.671   115804222.153        -806.730          42.000  
E21  24158220.912   126952233.2381       -999.774          30.000  
G10  20160651.272   105944944.879        -354.397          44.000  
G23  21087876.667   110817613.222       -2773.657          25.000  
G32                                                                  21876892.942    85849628.745         435.016          29.000  
J01  38101067.480   200222437.670         504.419          34.000  
R12  19068359.250   101859753.073        -904.594          34.000  
> 2021  9 12 10 28 30.9999736  0 12
C06  36689898.212   191053956.807        -743.303          28.000  
C09  37672747.699   196171863.619        -845.595          30.000  
C23  24042932.424   125197908.947        1769.433          24.000  
C24  24336768.306   126727979.7661      -3283.188          17.000  
C25  21800297.168   113519894.137        -707.192          38.000  
C33  22239050.026   115804560.906        -807.559          43.000  
G10  20160628.188   105944826.954        -356.288          44.000  
G23  21088314.664   110819914.169       -2774.053          22.000  
G31  21894534.829   115056735.8391       1207.674          24.000  
G32  21876690.582   114962785.2521        582.762          31.000    21876692.681    85848841.297         433.831          29.000  
J01  38100882.808   200221460.924         502.841          36.000    38100886.105   149516050.2161        375.562          30.000  
R12  19068438.994   101860179.279        -906.482          34.000  
> 2021  9 12 10 28 31.9999734  0 15
C06  36689980.655   191054388.282        -743.931          30.000  
C08  37786330.068   196763493.5761      -2347.316          21.000  
C09  37672851.128   196172396.864        -845.383          30.000  
C23  24042531.602   125195825.927        1771.263          25.000  
C24  24337340.909   126730951.237       -3280.279          17.000  
C25  21800373.615   113520289.325        -707.915          38.000  
C33  22239145.660   115805056.355        -808.526          43.000  
E21  24158448.454   126953449.9191      -1002.903          30.000  
G10  20160637.781   105944867.434        -356.067          43.000  
G12  22356421.771   117483806.2931      -1980.671          18.000  
G31  21894246.429   115055214.085        1205.741          27.000  
G32                                                                  21876522.399    85848171.229         435.039          28.000  
J01  38100729.314                         504.297          36.000    38100730.213   149515439.010         375.524          30.000  
J02  37861979.997   198966157.5931      -1297.928          20.000  
R12  19068552.916   101860787.854        -907.931          34.000  
> 2021  9 12 10 28 32.9999729  0 12
C06  36689972.860   191054351.438        -742.614          28.000  
C08  37786631.959   196765060.310       -2346.501          21.000  
C09  37672863.719   196172461.408        -844.594          30.000  
C23  24042041.141   125193275.430        1769.287          26.000  
C24  24337821.777   126733450.741       -3277.673          16.000  
C25  21800359.825   113520216.664        -707.338          38.000  
C33  22239150.157   115805083.880        -808.486          44.000  
E21  24158488.027   126953665.311       -1003.980          33.000  
G10  20160555.338   105944435.925        -356.692          43.000  
G32  21876254.684   114960519.1221        582.257          31.000    21876260.980    85847147.308         436.285          26.000  
J01  38100479.287   200219393.1551        504.314          37.000    38100484.384   149514474.476         376.152          29.000  
R12  19068577.199   101860917.186        -908.308          35.000  
> 2021  9 12 10 28 33.9999724  0 13
C06  36689966.864   191054313.700        -742.866          30.000  
C09  37672876.610   196172524.954        -843.529          31.000  
C23  24041551.280   125190725.433        1769.617          27.000  
C25  21800345.735   113520144.637        -709.350          39.000  
C33  22239156.452   115805111.924        -809.115          44.000  
E21  24158528.799   126953881.482       -1004.504          35.000  
G10  20160472.295   105944005.192        -357.629          45.000  
G12  22356875.657   117486196.2141      -1985.048          20.000  
G31  21893482.557   115051229.5471       1203.629          25.000  
G32  21875992.665   114959149.734         580.966          28.000    21875999.860    85846124.441         434.585          28.000  
J01  38100232.858   200218101.717         502.690          38.000    38100238.554   149513510.249         375.098          29.000  
J02  37862176.061   198967178.0141      -1297.726          25.000  
R12  19068601.182   101861045.063        -909.229          36.000  
> 2021  9 12 10 28 34.9999721  0 13
C06  36690019.628   191054588.643        -742.892          33.000  
C09  37672950.059   196172900.670        -844.089          30.000  
C23  24041120.479   125188486.753        1770.700          27.000  
C25  21800393.402   113520385.614        -709.495          39.000  
C33  22239222.407   115805452.940        -809.837          43.000  
E21  24158629.229   126954413.365       -1004.055          33.000  
G10  20160451.010   105943890.489        -358.397          42.000  
G12  22357163.458   117487708.984       -1985.485          20.000  
G31  21893160.281   115049553.854        1202.474          22.000  
G32  21875789.406   114958096.595         580.184          30.000    21875798.700    85845337.874         432.208          28.000  
J01  38100046.087   200217125.688         503.964          36.000    38100052.682   149512781.520         376.156          30.000  
J02  37862333.452   198968001.273       -1294.654          25.000  
R12  19068682.726   101861481.378        -910.811          34.000  
> 2021  9 12 10 28 35.9999716  0 12
C06  36690010.334   191054551.281        -742.709          27.000  
C09  37672962.950   196172964.221        -844.164          30.000  
C25  21800378.712   113520315.082        -710.664          38.000  
C33  22239228.103   115805482.313        -810.520          45.000  
G10  20160369.167   105943461.598        -359.281          44.000  
G12  22357386.204   117488907.695       -1987.986          20.000  
G25  20801502.919   109312767.3911       -245.684          24.000  
G31  21892783.142   115047564.199        1201.439          26.000  
G32  21875528.886   114956727.515         581.961          28.000    21875538.480    85844316.041         434.238          29.000  
J01  38099801.456   200215834.765         503.809          37.000    38099806.253   149511816.522         376.122          29.000  
J02  37862430.285   198968506.396       -1293.228          24.000  
R12  19068702.212   101861585.150        -912.186          37.000  
> 2021  9 12 10 28 36.9999711  0 10
C06  36690003.439   191054513.676        -744.090          29.000  
C09  37672974.642   196173027.608        -843.746          30.000  
C25  21800364.921   113520245.162        -710.784          39.000  
C33  22239232.600   115805512.150        -811.312          44.000  
E21  24158712.871   126954848.6921      -1005.413          34.000  
G10  20160287.324   105943033.436        -360.579          44.000  
G32  21875269.566   114955357.846         581.101          30.000    21875277.960    85843293.822         433.437          29.000  
J01  38099557.425   200214543.954         502.498          37.000    38099560.423   149510852.152         376.406          31.000  
J02  37862527.418   198969011.692       -1293.236          23.000  
R12  19068720.499   101861682.956        -912.737          36.000  
> 2021  9 12 10 28 37.9999708  0 13
C06  36690055.603   191054788.980        -743.536          29.000  
C09  37673046.892   196173404.076        -845.231          30.000  
C25  21800411.389   113520488.346        -712.189          39.000  
C33  22239298.254   115805855.063        -811.579          44.000  
E21  24158812.702   126955381.836       -1005.140          35.000  
G10  20160266.638   105942921.488        -361.232          45.000  
G12  22357894.052   117491623.4111      -1988.268          20.000  
G23  21091175.283   110834937.3831      -2778.473          17.000  
G25  20801362.616   109311998.9601       -246.674          24.000  
G32  21875069.604   114954304.592         580.449          28.000    21875077.099    85842507.038         434.225          29.000  
J01  38099370.655   200213568.667         502.261          37.000    38099375.151   149510123.610         374.688          29.000  
J02  37862685.408   198969833.005       -1295.250          26.000  
R12  19068792.450   101862067.204        -913.916          37.000  
> 2021  9 12 10 28 38.9999706  0 14
C06  36690139.545   191055220.764        -744.250          30.000  
C09  37673149.421   196173937.334        -845.779          29.000  
C23  24039304.036   125179075.5081       1766.353          26.000  
C25  21800490.235   113520888.308        -711.637          40.000  
C33  22239394.787   115806354.654        -811.817          44.000  
E21  24158942.812                       -1007.021          36.000  
G10  20160276.231   105942967.851        -361.677          45.000  
G12  22358206.136   117493297.180       -1989.768          19.000  
G25  20801350.625   109311932.549        -249.341          25.000  
G31  21891793.527   115042385.9071       1199.647          24.000  
G32  21874901.121   114953408.715         580.377          25.000    21874906.517    85841837.957         433.051          30.000  
J01  38099215.962   200212751.113         502.855          37.000    38099219.859   149509513.381         374.248          30.000  
J02  37862873.978   198970813.378       -1295.347          27.000  
R12  19068906.671   101862677.622        -915.614          37.000  
> 2021  9 12 10 28 39.9999700  0 15
C06  36690104.469   191055028.231        -744.207          33.000  
C08  37788931.367   196776980.5451      -2352.567          27.000  
C09  37673130.534   196173846.667        -846.124          28.000  
C23  24038783.896   125176373.031        1765.514          24.000  
C25  21800446.165   113520664.535        -712.272          38.000  
C33  22239369.605   115806230.410        -812.648          44.000  
E21  24158951.506   126956163.8311      -1007.474          36.000  
G10  20160165.308   105942384.961        -363.169          44.000  
G12  22358400.401   117494341.455       -1989.966          19.000  
G23  21091987.721   110839234.9671      -2779.026          17.000  
G31  21891392.105   115040241.142        1198.988          24.000  
G32  21874610.922   114951883.382         579.733          32.000    21874615.719    85840699.034         433.398          31.000  
J01  38098940.452   200211303.673         501.498          37.000    38098944.350   149508432.728         375.325          31.000  
J02  37862941.131   198971163.645       -1296.008          27.000  
R12  19068899.476   101862639.146        -915.636          35.000  
> 2021  9 12 10 28 40.9999698  0 15
C06  36690186.912   191055460.237        -745.108          35.000  
C08  37789325.294   196779021.263       -2353.113          27.000  
C09  37673232.464   196174380.594        -846.424          29.000  
C23  24038385.172   125174294.875        1765.492          26.000  
C25  21800521.413   113521066.069        -714.859          37.000  
C33  22239467.037   115806731.454        -814.056          44.000  
E21  24159081.316   126956857.078       -1009.581          37.000  
G10  20160174.302   105942433.243        -364.250          40.000  
G23  21092455.697   110841700.027       -2781.315          18.000  
G25  20801214.819   109311172.5091       -252.305          31.000  
G31  21891107.302   115038727.346        1198.274          25.000  
G32  21874441.239   114950988.648         580.155          38.000    21874444.837    85840030.868         432.460          28.000  
J01  38098785.759   200210486.722         501.605          39.000    38098789.057   149507822.583         374.901          30.000  
J02  37863128.801   198972144.219       -1295.833          30.000  
R12  19069008.900   101863223.161        -917.570          34.000  
> 2021  9 12 10 28 41.9999693  0 13
C06  36690177.918                        -744.944          32.000  
C08  37789625.087   196780593.679       -2352.900          26.000  
C09  37673244.456   196174446.583        -846.996          30.000  
C23  24037896.810   125171748.974        1764.346          29.000  
C25  21800507.323   113521000.270        -714.230          38.000  
C33  22239474.532   115806764.955        -814.755          44.000  
E21  24159120.889   126957078.618       -1009.831          36.000  
G10  20160092.458   105942010.011        -365.124          43.000  
G25  20801115.887   109310637.207        -253.663          22.000  
G32  21874187.615                         576.635          36.000    21874184.018    85839011.301         431.598          28.000  
J01  38098537.831   200209197.604         501.234          39.000    38098543.827   149506860.117         373.207          29.000  
J02  37863228.632   198972652.165       -1295.886          31.000  
R12  19069028.686   101863329.396        -918.986          36.000  
> 2021  9 12 10 28 42.9999688  0 13
C06  36690176.120   191055349.8771       -744.671          30.000  
C09  37673257.347   196174513.570        -847.924          30.000  
C25  21800493.832   113520935.098        -715.996          36.000  
C33  22239480.528   115806799.090        -815.105          44.000  
E21  24159161.061   126957301.115       -1010.669          35.000  
G10  20160012.114   105941587.673        -366.011          42.000    20160015.412    79112229.2251       -272.824          27.000  
G12  22359180.761   117498431.0551      -1994.716          24.000  
G23  21093219.268   110845688.9731      -2782.528          26.000  
G25  20801018.155   109310103.654        -255.203          25.000  
G31  21890352.424   115034756.8691       1196.575          30.000  
G32  21873928.295   114948265.4231        578.378          34.000    21873924.697    85837991.855         430.741          30.000  
J01  38098291.102   200207908.759         501.092          38.000    38098298.597   149505898.741         373.049          26.000  
R12  19069049.372   101863439.911        -920.177          35.000  
> 2021  9 12 10 28 43.9999683  0 16
C06  36690171.923   191055314.621        -745.925          33.000  
C08  37790229.469   196783737.5991      -2353.546          28.000  
C09  37673270.238   196174580.045        -846.568          29.000  
C23  24036921.286   125166659.5771       1764.652          21.000  
C25  21800483.639   113520870.725        -717.380          38.000  
C33  22239486.524   115806833.924        -816.238          44.000  
E21  24159204.531   126957524.101       -1010.645          34.000  
G10  20159932.969   105941166.227        -368.007          44.000    20159935.967    79111913.776        -272.565          27.000  
G12  22359407.404   117499637.670       -1994.653          24.000  
G23  21093597.906   110847681.653       -2783.353          21.000  
G25  20800919.823   109309571.093        -255.432          31.000  
G31  21889977.984   115032772.820        1195.636          27.000  
G32  21873665.077   114946899.433         577.191          31.000    21873665.077    85836972.684         429.976          29.000  
J01  38098048.270   200206620.143         500.604          39.000    38098053.366   149504937.151         372.985          27.000  
J02  37863425.296   198973669.1351      -1296.332          31.000  
R12  19069072.456   101863562.685        -921.681          36.000  
> 2021  9 12 10 28 44.9999680  0 15
C06  36690219.590   191055591.722        -747.727          31.000  
C08  37790591.918   196785623.735       -2354.358          25.000  
C09  37673343.387   196174958.781        -847.106          30.000  
C23  24036493.182   125164427.212        1763.027          27.000  
C25  21800533.105   113521119.455        -717.112          38.000  
C33  22239553.677   115807181.802        -816.384          44.000  
G10  20159911.983   105941060.994        -367.962          43.000    20159915.881    79111835.199        -274.111          25.000  
G12  22359689.209   117501160.671       -1995.291          19.000  
G23  21094035.903   110849993.285       -2785.764          24.000  
G25  20800879.950   109309354.359        -256.680          30.000  
G31  21889662.002   115031104.945        1194.745          29.000  
G32                                                                  21873465.115    85836188.278         431.917          29.000  
J01  38097863.598   200205647.079         499.189          38.000    38097868.095   149504211.014         373.953          29.000  
J02  37863582.387   198974493.257       -1296.920          30.000  
R12  19069156.698   101864013.199        -922.539          36.000  
> 2021  9 12 10 28 45.9999675  0 15
C06  36690217.191   191055556.641        -745.249          29.000  
C08  37790895.008   196787197.431       -2354.417          27.000  
C09  37673358.077   196175026.043        -848.738          30.000  
C23  24036005.719   125161883.425        1763.249          25.000  
C25  21800523.512   113521056.517        -717.792          41.000  
C33  22239560.273   115807217.868        -817.169          44.000  
E21  24159358.324   126958287.8901      -1012.677          36.000  
G10  20159833.138   105940641.313        -368.566          45.000    20159836.436    79111522.480        -277.050          26.000  
G12  22359910.456   117502369.258       -1996.709          13.000  
G25  20800781.019   109308823.574        -257.613          31.000  
G31  21889285.163   115029122.788        1194.015          28.000  
G32  21873209.692   114944484.8191        576.904          28.000    21873205.495    85835168.897         431.351          28.000  
J01  38097619.567   200204358.999         500.517          37.000    38097622.265   149503249.167         373.220          29.000  
J02  37863679.520   198975002.667       -1297.000          29.000  
R12  19069189.075   101864185.982        -923.190          39.000  
> 2021  9 12 10 28 46.9999670  0 15
C06  36690212.994   191055521.699        -745.067          32.000  
C08  37791196.299   196788771.338       -2354.552          29.000  
C09  37673370.968   196175093.733        -847.126          29.000  
C25  21800511.220   113520994.237        -718.597          40.000  
C33  22239567.168   115807254.537        -817.587          45.000  
E21  24159401.794   126958513.093       -1013.635          36.000  
G10  20159753.393   105940222.510        -369.107          45.000    20159756.691    79111210.371        -275.691          29.000  
G12  22360135.600   117503306.088       -1998.105          13.000  
G23  21094799.774   110853993.2391      -2788.591          20.000  
G25  20800680.888   109308293.441        -257.182          34.000  
G31  21888906.226   115027141.089        1193.994          28.000  
G32  21872950.971   114943120.379         576.849          33.000    21872945.575    85834149.043         430.745          29.000  
J01  38097376.135   200203071.118         499.563          38.000    38097377.334   149502287.060         373.872          29.000  
J02  37863778.152   198975512.204       -1299.033          29.000  
R12  19069217.855   101864339.966        -924.270          39.000  
> 2021  9 12 10 28 47.9999670  0 15
C06  36690355.396   191056267.845        -748.432          33.000  
C08  37791650.185   196791126.381       -2355.637          29.000  
C09  37673532.556   196175940.922        -848.092          28.000  
C25  21800649.125   113521713.470        -719.479          40.000  
C33  22239724.859   115808072.601        -818.528          45.000  
E12  25131284.574  -1365928841.054       -2404.784          26.000  
E21  24159591.863   126959526.849       -1015.482          39.000  
G10  20159823.545   105940592.509        -370.428          44.000    20159827.442    79111485.988        -276.643          32.000  
G12  22360525.930   117505303.137       -1996.428          13.000  
G23  21095332.505   110856781.093       -2788.244          17.000  
G31  21888679.582   115025947.266        1193.446          25.000  
G32  21872842.146   114942543.762         575.976          34.000    21872836.750    85833719.674         428.902          28.000  
J01  38097278.703   200202571.306         498.505          38.000    38097282.000   149501913.509         373.307          28.000  
J02  37864026.080   198976811.753       -1299.034          29.000  
R12  19069390.536   101865262.217        -925.471          40.000  
> 2021  9 12 10 28 48.9999665  0 14
C06  36690343.104   191056233.672        -748.100          30.000  
C09  37673545.147   196176007.663        -847.068          29.000  
C23  24034685.434   125155030.6221       1761.308          24.000  
C25  21800637.133   113521653.111        -720.234          40.000  
C33  22239732.354   115808110.990        -819.263          44.000  
E12  25131591.261  -1364239714.014       -2404.804          25.000  
E21  24159629.936   126959753.938       -1016.257          34.000  
G10  20159743.800   105940175.935        -370.987          44.000  
G12  22360764.865   117506511.744       -1996.110          15.000  
G25  20800632.322   109308061.5651       -260.127          33.000  
G32  21872584.325   114941180.167         575.703          30.000    21872577.430    85832701.750         429.636          29.000  
J01  38097033.772   200201284.356         500.155          38.000    38097036.470   149500951.549         373.502          27.000  
J02  37864123.513   198977323.110       -1298.927          30.000  
R12  19069416.018   101865397.879        -927.175          39.000  
> 2021  9 12 10 28 49.9999660  0 16
C06  36690340.406   191056199.794        -744.698          30.000  
C08  37792255.166   196794277.5351      -2356.976          26.000  
C09  37673556.540   196176074.059        -846.945          29.000  
C23  24034199.770   125152489.384        1760.651          25.000  
C25  21800625.441   113521593.573        -722.206          41.000  
C33  22239739.249   115808150.164        -820.558          46.000  
E21  24159674.006   126959981.936       -1017.137          38.000  
G10  20159665.554   105939760.396        -373.098          45.000  
G12  22361000.202   117507722.198       -2001.823          16.000  
G23  21096087.083   110860780.9591      -2788.011          24.000  
G25  20800528.893   109307534.387        -261.509          32.000  
G31  21887931.001   115021987.0871       1190.956          30.000  
G32  21872325.904   114939816.161         576.056          29.000    21872317.809    85831682.967         431.081          30.000  
J01  38096788.542   200199997.788         497.840          39.000    38096792.140   149499991.148         369.717          29.000  
J02  37864218.847   198977834.373       -1299.651          28.000  
R12  19069438.203   101865516.770        -928.516          40.000  
> 2021  9 12 10 28 50.9999657  0 17
C06  36690388.073   191056478.383        -746.799          30.000  
C08  37792618.814   196796166.330       -2357.450          29.000  
C09  37673628.490   196176452.629        -847.011          29.000  
C23  24033774.664   125150260.578        1760.085          26.000  
C25  21800673.408   113521847.035        -723.259          39.000  
C33  22239808.201   115808502.218        -820.380          46.000  
E21  24159782.231   126960525.720       -1017.094          37.000  
G10  20159646.067   105939660.856        -373.080          44.000  
G12  22361290.101   117509250.976       -2003.095          17.000  
G23  21096525.080   110863097.224       -2789.174          24.000  
G25  20800483.625   109307323.285        -262.725          33.000  
G31  21887615.319   115020323.142        1191.699          29.000  
G32  21872128.940   114938767.638         575.458          34.000    21872118.148    85830898.862         431.113          28.000  
J01  38096599.973   200199026.601         498.997          38.000    38096608.067   149499267.075         372.546          28.000  
J02  37864377.437   198978661.578       -1299.934          31.000  
R02  21093278.927   112557778.4641       2023.473          25.000  
R12  19069519.147   101865949.292        -930.076          40.000  
> 2021  9 12 10 28 51.9999652  0 17
C06  36690383.576   191056444.817        -747.934          30.000  
C08  37792919.506   196797742.914       -2357.904          26.000  
C09  37673641.681   196176519.767        -847.848          28.000  
C13  73241198.473                        -957.213          25.000  
C23  24033288.401   125147720.803        1757.883          27.000  
C25  21800664.714   113521788.968        -721.997          39.000  
C33  22239815.096   115808542.578        -821.212          45.000  
E21  24159830.497   126960755.094       -1016.634          37.000  
G10  20159568.121   105939247.100        -373.117          44.000  
G12  22361516.744   117510469.051       -2007.256          18.000  
G23  21096903.717   110865100.322       -2791.966          26.000  
G25  20800383.194   109306797.928        -261.446          32.000  
G31  21887239.379   115018343.810        1190.698          30.000  
G32  21871871.418   114937404.284         575.445          30.000    21871858.527    85829880.034         431.181          30.000  
J01  38096353.543   200197740.413         498.056          37.000    38096363.137   149498306.708         371.278          28.000  
J02  37864476.668   198979174.074       -1300.478          30.000  
R12  19069538.633   101866052.931        -930.562          39.000  
> 2021  9 12 10 28 52.9999647  0 16
C06  36690379.379   191056411.739        -750.893          30.000  
C08  37793221.397   196799320.555       -2357.883          25.000  
C09  37673654.871   196176586.747        -847.514          29.000  
C13  73241048.577                        -957.213          22.000  
C25  21800654.521   113521731.390        -723.650          40.000  
C33  22239823.491   115808583.396        -821.839          45.000  
E21  24159873.068   126960984.955       -1018.361          36.000  
G10  20159490.775   105938833.922        -375.030          44.000  
G12  22361754.779   117511688.965       -2007.567          18.000  
G23  21097287.152   110867105.006       -2793.097          27.000  
G25  20800286.361   109306273.302        -264.625          33.000  
G31  21886865.838   115016365.742        1189.340          29.000  
G32                                                                  21871598.308    85828861.122         430.360          30.000  
J01  38096111.911   200196454.286         498.810          37.000    38096119.106   149497346.709         371.591          29.000  
R02  21092214.364   112552134.3171       2020.803          26.000  
R12  19069567.113   101866204.950        -931.752          39.000  
> 2021  9 12 10 28 53.9999644  0 17
C06  36690431.843   191056689.960        -745.125          29.000  
C08  37793583.247   196801209.713       -2357.953          25.000  
C09  37673727.421   196176966.661        -848.491          29.000  
C23  24032379.730   125142955.2111       1758.149          24.000  
C25  21800703.687   113521986.616        -724.599          39.000  
C33  22239891.244   115808937.013        -822.492          45.000  
G10  20159472.488   105938736.696        -375.931          43.000  
G12  22362058.769   117513223.628       -2006.415          19.000  
G23  21097730.245   110869425.158       -2792.645          27.000  
G25  20800242.891   109306064.660        -264.311          35.000  
G31  21886551.955   115014704.489        1188.167          28.000  
G32                                                                  21871399.245    85828078.020         428.258          31.000  
J01  38095929.337   200195483.489         498.786          38.000    38095934.134   149496621.925         371.784          28.000  
J02  37864728.794   198980513.4511      -1299.323          26.000  
R01  20399504.617   109047043.6281      -1041.256          25.000  
R02  21091749.985   112549634.290        2020.868          22.000  
R12  19069652.554   101866661.540        -932.639          38.000  
> 2021  9 12 10 28 54.9999639  0 19
C06  36690425.247   191056655.251        -746.579          30.000  
C08  37793885.138   196802786.872       -2358.072          26.000  
C09  37673739.413   196177034.910        -849.284          29.000  
C13  36890987.901                       -2117.243          23.000  
C23  24031894.965   125140416.913        1757.219          26.000  
C25  21800691.395   113521930.489        -724.220          39.000  
C33  22239899.338   115808979.087        -822.991          45.000  
E21  24160018.767   126961761.8831      -1019.633          38.000  
G10  20159393.043   105938325.317        -376.650          44.000  
G12  22362303.999   117514440.356       -2003.813          20.000  
G23  21098113.080   110871430.424       -2793.608          27.000  
G25  20800145.459   109305541.901        -265.952          35.000  
G31  21886177.515   115012728.768        1187.854          30.000  
G32  21871142.023   114933630.3401        575.332          33.000    21871140.524    85827060.805         429.219          31.000  
J01  38095685.306   200194197.836         497.921          37.000    38095689.503   149495661.922         371.740          29.000  
J02  37864828.025   198981026.139       -1301.963          28.000  
R01  20399548.986   109047281.051       -1042.053          25.000  
R02  21091220.852   112546811.846        2022.397          19.000  
R12  19069672.940   101866770.710        -932.913          39.000  
> 2021  9 12 10 28 55.9999636  0 18
C06  36690479.510   191056933.373        -747.065          30.000  
C08  37794248.186   196804676.230       -2358.195          26.000  
C09  37673812.262   196177416.075        -849.784          30.000  
C13  36891309.278                       -2119.751          25.000  
C23  24031466.562   125138190.786        1758.823          25.000  
C25  21800739.962   113522187.352        -727.281          38.000  
C33  22239967.391   115809334.103        -824.477          45.000  
E21  24160120.996   126962309.061       -1020.643          38.000  
G10  20159374.755   105938229.996        -377.461          43.000  
G12  22362612.785   117516324.339       -2003.758          23.000  
G23  21098553.775   110873751.662       -2794.754          26.000  
G25  20800109.784   109305335.207        -266.664          36.000  
G32  21870937.865   114932582.886         574.850          36.000    21870940.863    85826278.409         428.963          31.000  
J01  38095500.034   200193227.622         497.641          37.000    38095505.730   149494936.857         372.421          27.000  
J02  37864986.615   198981855.229       -1300.850          27.000  
R01  20399655.412   109047850.092       -1041.438          23.000  
R02  21090745.081   112544308.288        2024.174          19.000  
R12  19069761.679   101867244.338        -935.234          39.000  
> 2021  9 12 10 28 56.9999634  0 16
C06  36690563.751   191057368.141        -747.435          30.000  
C08  37794640.915   196806722.865       -2358.974          27.000  
C09  37673915.691   196177953.907        -850.186          30.000  
C13  36891660.035   192104536.5431      -2119.253          28.000  
C23  24031068.138   125136120.793        1756.030          25.000  
C25  21800820.306   113522601.000        -726.473          38.000  
C33  22240065.123   115809845.814        -823.817          46.000  
E21  24160252.605   126963014.501       -1019.754          38.000  
G10  20159385.848   105938293.165        -378.497          43.000  
G23  21099024.749   110876231.022       -2793.846          26.000  
G25  20800098.691   109305287.093        -267.515          35.000  
G31  21885579.129   115009566.6441       1185.870          26.000  
G32  21870766.683                         573.888          34.000    21870772.080    85825613.897         428.871          30.000  
J01  38095345.041   200192415.155         497.981          38.000    38095351.037   149494329.309         371.686          28.000  
J02  37865173.386   198982840.297       -1299.814          26.000  
R12  19069872.302   101867835.731        -936.115          39.000  
> 2021  9 12 10 28 57.9999629  0 14
C06  36690558.655   191057335.434        -748.316          35.000  
C08  37794943.705   196808301.601       -2360.209          26.000  
C09  37673927.683   196178024.106        -851.634          28.000  
C13  36891921.754   192105873.882       -2117.018          26.000  
C23  24030582.474   125133584.862        1753.894          26.000  
C25  21800810.413   113522547.053        -727.862          40.000  
C33  22240072.019   115809889.795        -824.697          45.000  
E21  24160291.578   126963247.971       -1021.453          36.000  
G10  20159308.801   105937884.455        -379.601          44.000  
G25  20799995.563   109304767.049        -268.394          32.000  
G32  21870505.264   114930293.0931        572.907          35.000    21870513.359    85824596.395         429.038          30.000  
J01  38095101.910   200191130.258         497.111          38.000    38095106.407   149493369.560         371.205          30.000  
J02  37865272.018   198983353.281       -1301.646          28.000  
R12  19069904.080   101868005.519        -935.955          38.000  
> 2021  9 12 10 28 58.9999624  0 15
C06  36690552.359   191057303.357        -748.969          34.000  
C08  37795247.694   196809880.734       -2359.466          29.000  
C09  37673941.173   196178094.695        -850.814          27.000  
C13  36892182.573   192107211.348       -2118.928          24.000  
C23  24030097.410   125131050.516        1753.446          25.000  
C25  21800799.920   113522493.890        -727.299          40.000  
C33  22240079.813   115809934.603        -825.933          45.000  
G10  20159232.654   105937476.771        -381.242          44.000  
G23  21099788.920   110880243.8091      -2796.101          24.000  
G25  20799897.830   109304248.240        -268.661          30.000  
G32  21870245.044   114928931.572         573.704          35.000    21870253.738    85823578.859         428.898          30.000  
J01  38094856.979   200189845.748         494.986          38.000    38094861.776   149492410.362         370.729          29.000  
R01  20399900.942   109049162.0041      -1044.894          18.000  
R02  21089262.308   112536323.2401       2017.280          24.000  
R12  19069930.762   101868147.247        -938.113          38.000  
> 2021  9 12 10 28 59.9999619  0 14
C06  36690546.363   191057271.294        -748.269          33.000  
C08  37795552.284   196811460.124       -2360.640          30.000  
C09  37673954.664   196178164.362        -850.332          30.000  
C13  36892443.393   192108549.984       -2119.925          28.000  
C23  24029610.247   125128516.371        1754.351          27.000  
C25  21800789.727   113522441.653        -728.354          39.000  
C33  22240088.207   115809980.261        -826.082          44.000  
G10  20159156.207   105937070.225        -381.573          45.000  
G23  21100172.055   110882252.896       -2798.413          24.000  
G25  20799796.800   109303730.522        -269.941          34.000  
G32  21869986.623   114927570.435         573.747          35.000    21869994.118    85822562.183         428.216          29.000  
J01  38094609.950   200188561.752         495.209          37.000    38094617.745   149491451.578         370.391          29.000  
J02  37865465.384   198984381.3201      -1303.454          26.000  
R12  19069957.143   101868288.466        -940.031          38.000  
> 2021  9 12 10 29  0.9999616  0 17
C06  36690601.225                        -748.361          33.000  
C08  37795914.433   196813351.815       -2360.114          29.000  
C09  37674026.015   196178546.732        -850.831          29.000  
C13  36892763.871   192110202.493       -2120.681          30.000  
C23  24029184.542   125126294.835        1752.558          24.000  
C25  21800840.692   113522702.453        -729.292          40.000  
C33  22240158.359   115810338.834        -827.374          44.000  
E21  24160493.938   126964268.7261      -1024.585          36.000  
G10  20159137.320   105936979.673        -382.484          46.000  
G23  21100615.748   110884578.675       -2798.692          25.000  
G25  20799753.630   109303528.895        -272.588          30.000  
G31  21884136.528   115001993.2821       1183.321          20.000  
G32  21869789.360   114926524.719         571.562          34.000    21869795.056    85821780.072         429.135          30.000  
J01  38094427.976   200187593.125         496.297          37.000    38094433.373   149490728.250         369.269          30.000  
J02  37865623.374   198985211.897       -1303.334          25.000  
R01  20400043.644   109049925.5851      -1049.197          18.000  
R12  19070034.490   101868701.821        -940.339          39.000  
> 2021  9 12 10 29  1.9999611  0 14
C06  36690593.431   191057557.5481       -749.468          33.000  
C08  37796213.926   196814932.112       -2361.366          25.000  
C09  37674038.006   196178617.091        -851.204          27.000  
C13  36893025.290   192111542.604       -2120.769          25.000  
C25  21800830.499   113522651.903        -730.019          42.000  
C33  22240168.252   115810385.794        -827.692          44.000  
E21  24160540.706   126964505.475       -1024.512          37.000  
G10  20159057.575   105936574.876        -383.174          45.000  
G23  21100998.583   110886590.000       -2799.873          26.000  
G25  20799664.592   109303012.977        -273.139          29.000  
G32  21869530.939   114925164.287         572.775          36.000    21869535.436    85820763.057         428.108          28.000  
J01  38094179.448   200186309.802         496.152          36.000    38094188.742   149489770.481         369.455          28.000  
J02  37865719.308   198985727.545       -1303.888          26.000  
R12  19070059.972   101868837.985        -940.680          39.000  
> 2021  9 12 10 29  2.9999606  0 13
C06  36690589.234   191057525.891        -747.895          36.000  
C09  37674049.398   196178687.790        -851.570          28.000  
C13  36893287.908   192112884.014       -2123.254          24.000  
C23  24028207.218   125121227.8231       1753.449          21.000  
C25  21800822.405   113522601.723        -731.145          39.000  
C33  22240177.545   115810433.211        -828.316          44.000  
E21  24160585.075   126964742.776       -1025.658          41.000  
G10  20158981.128   105936170.843        -384.917          41.000  
G23  21101380.818   110888602.211       -2800.412          29.000  
G32  21869271.019   114923803.879         572.881          41.000    21869274.316    85819748.651         424.705          23.000  
J01  38093929.122   200185026.275         494.786          33.000    38093944.711   149488810.871         372.316          25.000  
J02  37865816.741   198986243.803       -1304.357          28.000  
R12  19070084.255   101868967.795        -943.098          33.000  
> 2021  9 12 10 29  3.9999603  0 13
C06  36690644.695   191057807.017        -750.555          33.000  
C09  37674121.648   196179071.109        -851.469          29.000  
C23  24027780.614   125119006.857        1752.769          26.000  
C25  21800876.667   113522864.865        -732.064          38.000  
C33  22240246.198   115810793.823        -829.483          43.000  
E21  24160689.403   126965296.253       -1026.372          40.000  
G10  20158966.138   105936083.211        -385.444          40.000  
G23  21101822.712   110890930.083       -2800.465          31.000  
G25  20799519.792   109302297.7361       -272.999          22.000  
G32  21869069.558   114922759.129         571.565          38.000    21869074.055    85818971.032         426.811          21.000  
J01  38093747.148   200184058.586         494.904          34.000    38093760.039   149488087.389         368.848          26.000  
J02  37865975.930   198987075.705       -1304.641          29.000  
R12  19070168.197   101869416.487        -943.672          35.000  
> 2021  9 12 10 29  4.9999601  0 14
C06  36690731.035   191058244.489        -748.407          33.000  
C09  37674225.077   196179610.587        -851.903          29.000  
C13  36893959.443   192116348.0071      -2122.732          26.000  
C23  24027383.688   125116942.616        1751.057          26.000  
C25  21800956.712   113523284.935        -733.461          36.000  
C33  22240347.228   115811311.237        -830.502          43.000  
E21  24160824.010   126966008.041       -1027.096          41.000  
G10  20158978.729   105936154.002        -386.297          41.000  
G25  20799509.299   109302256.057        -274.225          24.000  
G32  21868898.077   114921872.244         574.017          37.000    21868904.672    85818309.986         425.339          24.000  
J01  38093591.555   200183248.721         492.645          33.000    38093605.945   149487483.257         369.197          26.000  
J02  37866166.299   198988065.607       -1304.282          29.000  
R01  20400355.428   109051592.1511      -1047.520          20.000  
R12  19070283.318   101870030.733        -945.519          34.000  
> 2021  9 12 10 29  5.9999596  0 14
C06  36690724.140   191058213.501        -750.239          33.000  
C08  37797566.589   196822033.3861      -2359.907          18.000  
C09  37674237.668   196179681.673        -850.852          29.000  
C13  36894216.665   192117689.998       -2122.353          21.000  
C23  24026894.727   125114410.847        1750.046          26.000  
C25  21800945.919   113523237.025        -733.063          35.000  
C33  22240358.320   115811360.698        -830.149          43.000  
E21  24160869.278   126966247.649       -1028.137          41.000  
G10  20158898.685   105935752.929        -386.922          38.000  
G23  21102689.412                       -2801.339          32.000  
G31  21882436.105   114992934.7171       1180.295          27.000  
G32  21868639.956   114920512.543         572.678          35.000    21868647.151    85817294.676         427.005          26.000  
J01  38093346.325   200181966.167         495.427          31.000    38093362.814   149486527.102         367.424          25.000  
J02  37866265.830   198988581.916       -1304.255          27.000  
> 2021  9 12 10 29  6.9999590  0 14
C06  36690688.465   191058026.704        -750.384          36.000  
C09  37674221.479   196179594.627        -849.561          27.000  
C13  36894446.906   192118875.848       -2122.515          22.000  
C23  24026379.084   125111724.185        1748.510          23.000  
C25  21800903.349   113523033.870        -734.252          40.000  
C33  22240333.737   115811254.694        -831.315          41.000  
E21  24160887.865   126966330.532       -1026.952          40.000  
G10  20158796.755   105935195.172        -387.783          37.000  
G23  21103045.865   110897239.5391      -2803.678          31.000  
G25  20799275.161   109301075.1701       -278.251          25.000  
G32  21868354.853   114918995.989         571.229          34.000    21868360.849    85816162.312         426.222          25.000  
J01  38093082.208   200180526.224         495.159          30.000    38093089.703   149485453.516         368.506          26.000  
J02  37866334.782   198988941.445       -1305.234          29.000    37866345.874   148595674.7151       -974.817          25.000  
R12  19070307.601   101870160.4231       -947.489          33.000  
> 2021  9 12 10 29  7.9999588  0 14
C06  36690773.906   191058464.695        -750.008          33.000  
C09  37674325.807   196180132.507        -850.517          28.000  
C13  36894796.764   192120686.169       -2122.514          23.000  
C25  21800987.291   113523456.086        -733.742          40.000  
C33  22240430.570   115811774.066        -831.153          39.000  
E21  24161023.072   126967044.494       -1029.571          37.000  
G10  20158812.944   105935268.615        -390.088          42.000  
G23  21103510.843   110899727.839       -2805.042          30.000  
G31  21881747.781   114989315.1881       1178.713          29.000  
G32  21868184.871   114918109.985         571.005          33.000    21868194.164    85815500.997         425.825          27.000  
J01  38092929.314   200179717.133         495.601          31.000    38092934.410   149484849.897         368.673          27.000  
J02  37866523.951   198989931.607       -1305.638          26.000    37866533.844   148596414.286        -974.581          26.000  
R01  20400538.601   109052571.0781      -1052.707          18.000  
R12  19070427.818   101870802.548        -948.554          33.000  
> 2021  9 12 10 29  8.9999583  0 16
C06  36690765.811   191058434.635        -750.441          31.000  
C08  37798550.808   196827089.9161      -2361.920          26.000  
C09  37674340.197   196180202.712        -850.248          28.000  
C13  36895056.684   192122030.270       -2125.954          24.000  
C23  24025505.788   125107135.7051       1748.149          26.000  
C25  21800978.597   113523410.708        -734.976          38.000  
C33  22240441.663   115811825.797        -832.412          39.000  
E21  24161072.538   126967286.639       -1030.254          36.000  
G10  20158738.296   105934870.448        -390.209          41.000  
G23  21103900.873   110901744.426       -2806.847          30.000  
G31  21881374.540   114987348.894        1178.095          31.000  
G32  21867929.747   114916751.956         569.244          32.000    21867937.542    85814485.398         426.987          25.000  
J01  38092687.681   200178435.601         490.905          30.000    38092690.079   149483892.994         367.807          26.000  
J02  37866621.683   198990450.682       -1308.177          26.000    37866631.576   148596800.693        -974.770          27.000  
R01  20400579.673   109052790.281       -1050.536          18.000  
R12  19070457.797   101870962.582        -949.821          34.000  
> 2021  9 12 10 29  9.9999578  0 16
C06  36690758.916   191058404.729        -751.112          30.000  
C08  37798856.896   196828672.125       -2364.048          27.000  
C09  37674355.187   196180273.571        -853.146          25.000  
C13  36895315.405   192123375.753       -2126.053          25.000  
C25  21800971.402   113523366.177        -735.521          37.000  
C33  22240450.357   115811878.225        -832.894          38.000  
E21  24161117.207   126967529.563       -1028.965          36.000  
G10  20158660.949   105934473.280        -390.117          42.000  
G12  22366316.122   117535785.1011      -2017.830          23.000  
G23  21104282.809   110903761.841       -2806.605          30.000  
G25  20799087.791   109300021.1331       -280.265          28.000  
G31  21881004.896   114985383.203        1177.423          29.000  
G32  21867673.425   114915390.994         571.978          30.000    21867679.421    85813469.196         427.575          24.000  
J01  38092447.248   200177155.087         492.896          27.000    38092445.449   149482935.863         368.920          29.000  
J02  37866719.715   198990970.748       -1307.686          25.000    37866730.208   148597188.305        -975.852          27.000  
R12  19070486.577   101871116.325        -951.067          36.000  
> 2021  9 12 10 29 10.9999575  0 15
C06  36690813.778   191058687.371        -751.171          36.000  
C08  37799222.643   196830567.832       -2363.438          26.000  
C09  37674433.133   196180658.860        -854.201          25.000  
C23  24024598.616   125102394.5461       1746.318          29.000  
C24  24357289.999   126834575.1061      -3303.405          26.000  
C25  21801023.865   113523634.670        -737.436          39.000  
C33  22240521.407   115812243.591        -833.792          38.000  
E21  24161221.534   126968088.365       -1031.180          36.000  
G10  20158645.060   105934392.114        -392.070          44.000  
G23  21104724.104   110906095.121       -2807.477          31.000  
G25  20799053.315   109299829.249        -281.391          30.000  
G32  21867475.262   114914347.206         570.423          28.000    21867481.558    85812691.915         424.539          14.000  
J01                                                                  38092261.676   149482214.741         367.773          30.000  
J02  37866878.306   198991806.402       -1308.849          27.000    37866888.798   148597810.396        -974.713          25.000  
R12  19070576.215   101871595.160        -952.214          37.000  
> 2021  9 12 10 29 11.9999570  0 15
C06  36690808.682   191058657.913        -748.621          35.000  
C08  37799529.031   196832151.019       -2364.227          26.000  
C09  37674449.621   196180732.385        -853.826          25.000  
C24  24357770.566   126837098.595       -3304.048          27.000  
C25  21801014.871   113523591.524        -737.475          38.000  
C33  22240531.900   115812297.207        -834.006          39.000  
E21  24161268.302   126968332.566       -1031.722          38.000  
G10  20158569.813   105933996.673        -392.897          44.000  
G23  21105109.936   110908114.145       -2805.595          31.000  
G25  20798959.480   109299323.550        -283.061          30.000  
G32                                                                  21867223.436    85811677.625         427.475          20.000  
J01  38092020.043   200174910.2521        492.052          29.000    38092018.245   149481258.443         368.731          29.000  
J02  37866978.137   198992327.120       -1306.592          25.000    37866988.629   148598196.694        -977.043          25.000  
R01  20400792.825   109053929.6431      -1054.204          22.000  
R12  19070602.597   101871736.722        -952.503          37.000  
> 2021  9 12 10 29 12.9999565  0 12
C06  36690803.585   191058628.529        -751.209          31.000  
C08  37799834.519   196833734.609       -2364.305          28.000  
C09  37674461.913   196180805.278        -853.534          26.000  
C24  24358251.733   126839620.657       -3303.574          20.000  
C25  21801004.978   113523549.049        -738.077          39.000  
C33  22240544.491   115812351.476        -835.206          41.000  
E21  24161315.369   126968577.600       -1033.236          37.000  
G10  20158495.464   105933602.043        -393.244          44.000  
G32  21866960.218   114911631.9521        568.853          28.000    21866964.715    85810660.689         426.607          27.000  
J01                                                                  38091774.213   149480302.371         367.852          28.000  
J02  37867075.569   198992845.915       -1306.359          26.000    37867087.861   148598584.452        -976.581          26.000  
R12  19070637.972   101871925.320        -954.214          37.000  
> 2021  9 12 10 29 13.9999565  0 14
C06  36690948.985   191059380.031        -750.831          30.000  
C08  37800292.002   196836099.676       -2365.681          26.000  
C09  37674625.899   196181658.879        -853.457          29.000  
C24  24358883.996   126842923.873       -3302.789          23.000  
C25  21801145.281   113524288.032        -739.590          40.000  
C33  22240706.379   115813187.060        -836.481          45.000  
E21  24161512.333   126969611.125       -1033.422          37.000  
G10  20158570.412   105933996.170        -394.538          45.000  
G25  20798909.714   109299104.5171       -283.468          19.000  
G32  21866852.293   114911063.112         568.797          32.000    21866855.891    85810234.840         424.629          29.000  
J01  38091679.479   200173137.3861        492.282          36.000    38091680.079   149479933.993         367.916          29.000  
J02  37867323.497   198994152.394       -1307.494          25.000    37867337.288   148599560.667        -976.358          25.000  
R01  20401054.544   109055329.1501      -1056.037          17.000  
R12  19070816.948   101872881.358        -956.406          39.000  
> 2021  9 12 10 29 14.9999560  0 14
C06  36690938.492   191059350.999        -752.379          28.000  
C08  37800598.990   196837684.913       -2365.911          26.000  
C09  37674639.090   196181731.518        -852.695          30.000  
C24  24359368.760   126845447.100       -3304.219          22.000  
C25  21801136.587   113524247.116        -739.553          40.000  
C33  22240717.771   115813242.674        -836.811          44.000  
E21  24161558.201   126969857.645       -1035.135          36.000  
G10  20158496.363   105933603.395        -395.026          46.000  
G23  21106422.428   110914960.7811      -2808.167          20.000  
G31  21879364.131   114976669.3701       1174.194          24.000  
G32                                                                  21866597.470    85809222.179         424.254          29.000  
J01  38091428.853                         491.521          36.000    38091436.347   149478979.603         365.110          29.000  
J02  37867419.431   198994671.268       -1306.563          25.000    37867436.519   148599949.339        -977.563          26.000  
R12  19070853.223   101873075.347        -957.144          40.000  
> 2021  9 12 10 29 15.9999555  0 15
C06  36690936.093   191059322.125        -751.045          30.000  
C08  37800905.378   196839270.768       -2367.983          26.000  
C09  37674651.382   196181804.026        -853.371          28.000  
C13  36897058.998   192132541.4001      -2125.852          29.000  
C23  24022309.101   125090548.3351       1745.107          17.000  
C25  21801130.891   113524206.992        -740.682          39.000  
C33  22240727.665   115813298.875        -837.306          45.000  
G10  20158419.916   105933211.608        -396.384          46.000  
G23  21106810.059   110916981.928       -2809.925          24.000  
G25  20798716.348   109298097.0941       -284.940          21.000  
G31  21878993.288   114974707.813        1173.125          25.000  
G32  21866327.956   114908350.2951        568.643          27.000    21866339.048    85808211.025         419.202          21.000  
J01                                                                  38091193.515   149478025.829         366.119          29.000  
J02  37867516.564   198995189.405       -1306.276          26.000    37867535.751   148600338.095        -976.178          25.000  
R12  19070881.703   101873227.943        -958.288          40.000  
> 2021  9 12 10 29 16.9999549  0 14
C06  36690898.919   191059137.408        -752.004          35.000  
C08  37801181.786   196840702.468       -2367.748          23.000  
C09  37674635.193   196181721.140        -853.891          28.000  
C13  36897285.940   192133732.026       -2127.771          23.000  
C24  24360299.615   126850341.3031      -3306.266          10.000  
C25  21801092.518   113524011.433        -741.690          41.000  
C33  22240708.478   115813199.566        -838.138          41.000  
G10  20158314.989   105932663.109        -396.769          44.000  
G23  21107162.016   110918846.780       -2810.473          26.000  
G32  21866040.455   114906836.368         568.545          36.000    21866050.948    85807085.078         419.694          13.000  
J01  38090910.511   200169093.8541        490.631          28.000    38090920.704   149476953.240         367.803          28.000  
J02  37867585.216   198995550.926       -1307.210          29.000    37867604.703   148600606.129        -972.071          17.000  
R01  20401166.366   109055926.7991      -1056.608          17.000  
R12  19070880.804   101873222.815        -958.378          36.000  
> 2021  9 12 10 29 17.9999547  0 14
C06  36690983.461   191059577.187        -753.838          37.000  
C08  37801577.812   196842757.818       -2367.274          25.000  
C09  37674739.820   196182262.962        -854.369          31.000  
C13  36897634.000   192135547.201       -2127.499          23.000  
C24  24360872.819   126853335.784       -3307.094          17.000  
C25  21801174.961   113524440.857        -741.643          42.000  
C33  22240809.208   115813725.317        -838.509          41.000  
G10  20158329.979   105932745.470        -397.679          43.000  
G23  21107635.988   110921342.932       -2811.042          27.000  
G25  20798590.136   109297413.2661       -289.013          24.000  
G32  21865873.471   114905952.853         567.719          40.000    21865883.664    85806426.842         424.595          20.000  
J01  38090758.217   200168287.693         491.218          33.000    38090766.911   149476350.463         369.291          29.000  
J02  37867773.786   198996543.320       -1308.110          28.000    37867793.272   148601343.213        -972.153          18.000  
R12  19070999.522   101873857.208        -959.515          36.000  
> 2021  9 12 10 29 18.9999542  0 13
C06  36690977.765   191059548.595        -752.321          33.000  
C08  37801883.001   196844343.718       -2365.916          26.000  
C09  37674755.110   196182336.603        -853.948          30.000  
C13  36897891.821   192136894.136       -2127.845          24.000  
C24  24361357.583   126855862.727       -3307.459          18.000  
C25  21801167.166   113524402.587        -742.983          41.000  
C33  22240820.900   115813783.283        -838.991          42.000  
G10  20158257.429   105932356.085        -398.838          42.000  
G23  21108021.521   110923364.926       -2810.529          26.000  
G32  21865614.150                         566.077          37.000    21865624.643    85805412.509         425.915          27.000  
J01  38090515.984   200167008.023         492.055          34.000    38090522.880   149475393.460         369.346          28.000  
J02  37867873.317   198997064.098       -1309.611          29.000    37867893.103   148601728.379        -975.267          18.000  
R12  19071028.002   101874009.022        -960.382          38.000  
> 2021  9 12 10 29 19.9999537  0 13
C06  36690966.672   191059519.863        -749.731          31.000  
C08  37802186.991   196845929.190       -2366.580          26.000  
C09  37674768.600   196182410.010        -853.658          29.000  
C13  36898152.940   192138242.209       -2130.418          27.000  
C25  21801160.571   113524365.134        -743.424          41.000  
C33  22240831.992   115813841.970        -839.976          43.000  
E21  24161849.899   126971415.6181      -1038.033          38.000  
G10  20158186.078   105931967.680        -399.737          44.000  
G12  22368945.901   117549548.8801      -2025.747          28.000  
G32  21865356.928   114903224.2021        567.292          36.000    21865365.622    85804398.316         424.393          29.000  
J01  38090271.654   200165729.198         490.870          36.000    38090279.748   149474436.686         368.261          28.000  
J02  37867974.047   198997586.512       -1311.325          30.000    37867992.334   148602117.737        -977.985          18.000  
R12  19071056.183   101874159.091        -961.896          39.000  
> 2021  9 12 10 29 20.9999534  0 14
C06  36691020.935   191059804.290        -753.342          29.000  
C08  37802552.737   196847828.420       -2367.709          27.000  
C09  37674843.249   196182795.258        -853.586          31.000  
C24  24362392.467   126861229.9231      -3309.605          19.000  
C25  21801212.435   113524640.620        -744.665          40.000  
C33  22240902.444   115814213.515        -839.900          45.000  
E21  24161958.124   126971981.379       -1038.407          35.000  
G10  20158173.187   105931895.207        -400.610          44.000  
G25  20798374.285   109296235.4431       -291.700          30.000  
G32  21865159.965   114902183.633         567.915          30.000  
J01  38090086.382                         489.639          35.000    38090096.575   149473716.124         368.555          28.000  
J02  37868133.237   198998424.787       -1310.311          29.000    37868151.824   148602743.988        -980.909          19.000  
R01  20401521.920   109057827.2311      -1065.349          23.000  
R12  19071144.322   101874630.435        -963.149          40.000  
> 2021  9 12 10 29 21.9999532  0 14
C06  36691106.376   191060244.769        -752.731          34.000  
C08  37802946.665   196849883.428       -2367.163          27.000  
C09  37674948.176   196183336.814        -854.912          30.000  
C24  24362968.368   126864227.504       -3310.187          21.000  
C25  21801295.777   113525072.921        -744.902          42.000  
C33  22241003.174   115814741.765        -841.175          42.000  
E21  24162093.331   126972705.424       -1040.172          38.000  
G10  20158189.676   105931981.160        -402.006          44.000  
G25  20798372.486   109296211.769        -291.496          28.000  
G32  21864992.081   114901300.879         567.480          40.000  
J01  38089934.687   200163949.5911        490.985          34.000    38089943.381   149473112.908         366.843          26.000  
J02  37868322.106   198999420.479       -1311.318          28.000    37868341.293   148603490.272        -981.301          23.000  
R01  20401661.324   109058572.828       -1062.710          23.000  
R12  19071262.140   101875259.549        -963.518          38.000  
> 2021  9 12 10 29 22.9999526  0 17
C06  36691073.398   191060060.752        -752.962          36.000  
C08  37803221.274   196851314.687       -2367.960          25.000  
C09  37674932.287   196183254.702        -854.547          30.000  
C13  36899066.108   192142913.2991      -2128.926          22.000  
C24  24363422.853   126866600.198       -3308.867          25.000  
C25  21801259.802   113524881.410        -745.593          41.000  
C33  22240985.186   115814646.133        -841.906          44.000  
E21  24162109.220   126972799.933       -1040.553          37.000  
G10  20158085.947   105931437.769        -402.900          46.000  
G12  22369765.833   117553897.2051      -2026.978          25.000  
G25  20798249.571   109295558.336        -291.297          29.000  
G31  21876528.395   114961946.2561       1169.253          30.000  
G32  21864704.880   114899788.369         566.843          43.000  
J01  38089660.377   200162513.881         490.967          35.000    38089670.870   149472040.859         364.620          29.000  
J02  37868392.857   198999786.563       -1310.941          29.000    37868410.545   148603764.362        -979.594          22.000  
R01  20401677.213   109058657.217       -1062.127          21.000  
R12  19071266.337   101875281.817        -965.205          39.000  
> 2021  9 12 10 29 23.9999521  0 17
C06  36691069.501   191060033.278        -754.380          36.000  
C08  37803528.562   196852902.662       -2369.095          26.000  
C09  37674947.577   196183328.388        -854.064          31.000  
C13  36899325.129   192144261.147       -2128.055          21.000  
C24  24363907.318   126869128.655       -3308.804          27.000  
C25  21801252.007   113524846.681        -746.793          41.000  
C33  22240997.478   115814707.160        -842.195          43.000  
E21  24162158.985   126973052.623       -1041.101          37.000  
G10  20158011.899   105931052.734        -402.937          45.000  
G12  22369995.774   117555136.631       -2028.069          24.000  
G25  20798156.636   109295062.164        -292.323          31.000  
G31  21876153.954   114959989.754        1168.515          29.000  
G32  21864444.660   114898433.974         566.665          41.000  
J01  38089415.746   200161235.837         489.948          32.000    38089427.738   149471087.046         365.829          29.000  
J02  37868493.288   199000309.821       -1311.087          31.000    37868508.877   148604153.682        -976.509          25.000  
R01  20401725.779   109058916.767       -1061.823          20.000  
R12  19071297.815   101875449.888        -966.450          40.000  
> 2021  9 12 10 29 24.9999519  0 15
C06  36691154.642                        -752.990          34.000  
C08  37803922.789   196854960.866       -2372.724          26.000  
C09  37675052.504   196183870.204        -854.209          31.000  
C24  24364482.320   126872125.260       -3309.247          25.000  
C25  21801336.549   113525280.729        -746.996          42.000  
C33  22241099.707   115815236.916        -842.752          43.000  
E21  24162298.689   126973778.399       -1042.610          37.000  
G10  20158028.687   105931140.909        -404.841          46.000  
G25  20798153.638   109295040.221        -293.877          34.000  
G31  21875868.252   114958505.840        1167.654          30.000  
G32  21864275.877                         566.427          41.000  
J01  38089265.550   200160430.440         489.538          32.000    38089274.244   149470486.118         365.878          28.000  
J02  37868683.356   199001305.717       -1311.439          29.000    37868697.146   148604895.595        -978.387          24.000  
R01  20401863.983   109059655.688       -1062.592          23.000  
R12  19071420.430   101876104.795        -966.612          39.000  
> 2021  9 12 10 29 25.9999514  0 15
C06  36691148.347   191060442.9661       -752.936          35.000  
C08  37804227.378   196856552.690       -2372.233          25.000  
C09  37675066.594   196183944.497        -854.620          30.000  
C24  24364967.984   126874654.603       -3310.156          25.000  
C25  21801331.153   113525247.076        -747.506          41.000  
C33  22241110.799   115815298.730        -842.466          43.000  
E21  24162346.955   126974032.110       -1041.433          37.000  
G10  20157957.037   105930757.237        -404.300          44.000  
G23  21110916.017   110938640.8191      -2814.483          19.000  
G31  21875489.014   114956550.595        1167.450          31.000  
G32  21864018.955                         565.568          39.000  
J01  38089026.316   200159152.411         490.267          32.000    38089031.412   149469532.548         365.317          29.000  
J02  37868784.986   199001828.938       -1310.824          28.000    37868795.478   148605284.871        -976.602          25.000  
R01  20401905.055   109059875.389       -1064.541          23.000  
R12  19071451.309   101876269.797        -968.819          39.000  
> 2021  9 12 10 29 26.9999508  0 15
C06  36691117.168   191060259.516        -752.715          34.000  
C08  37804501.988   196857987.163       -2370.664          28.000  
C09  37675050.405   196183862.346        -854.467          30.000  
C24  24365423.668   126877028.224       -3310.535          24.000  
C25  21801293.379   113525058.112        -747.786          41.000  
C33  22241092.812   115815205.408        -842.674          42.000  
E21  24162366.442   126974129.160       -1041.510          36.000  
G10  20157854.208   105930217.108        -405.575          45.000  
G23  21111267.074   110940510.697       -2816.630          24.000  
G25  20797926.995   109293896.4201       -296.875          34.000  
G31  21875083.994   114954438.383        1166.394          32.000  
G32  21863732.353   114894680.6201        566.288          38.000  
J01                                                                  38088758.301   149468461.115         366.335          28.000  
J02  37868856.636   199002194.671       -1311.102          27.000    37868865.330   148605556.773        -977.991          24.000  
R12  19071451.909   101876273.573        -969.336          38.000  
> 2021  9 12 10 29 27.9999506  0 13
C06  36691202.609   191060700.161        -752.605          35.000  
C08  37804895.316   196860045.317       -2370.276          26.000  
C09  37675155.033   196184404.668        -854.544          31.000  
C24  24365998.970   126880026.102       -3309.590          25.000  
C25  21801375.222   113525494.157        -747.225          41.000  
C33  22241196.240   115815736.823        -844.741          42.000  
E21  24162503.147   126974856.873       -1044.125          34.000  
G10  20157873.694   105930307.764        -406.077          45.000  
G23  21111742.845   110943012.040       -2817.088          24.000  
G32  21863564.769   114893801.043         565.346          40.000  
J01  38088599.711   200156912.3991        489.344          33.000    38088604.508   149467858.728         367.578          27.000  
J02  37869046.704   199003190.657       -1311.348          29.000    37869054.499   148606299.692        -978.044          23.000  
R12  19071576.622   101876939.541        -970.703          38.000  
> 2021  9 12 10 29 28.9999501  0 12
C06  36691197.812   191060672.974        -752.769          33.000  
C08  37805198.706   196861635.161       -2369.448          27.000  
C09  37675168.823   196184478.901        -855.259          28.000  
C24  24366485.533   126882556.343       -3311.473          24.000  
C25  21801368.926   113525462.655        -749.395          39.000  
C33  22241207.932   115815800.736        -845.149          43.000  
E21  24162553.812   126975112.906       -1043.623          34.000  
G10  20157800.545   105929926.848        -406.771          43.000  
G25  20797831.961   109293345.1561       -299.479          31.000  
J01  38088356.280   200155635.342         488.494          34.000    38088361.676   149466903.662         366.332          27.000  
J02  37869146.535   199003714.719       -1311.960          29.000    37869154.930   148606691.118        -980.928          25.000  
R12  19071606.302   101877098.336        -970.803          36.000  
> 2021  9 12 10 29 29.9999496  0 14
C06  36691188.819   191060646.132        -754.640          32.000  
C08  37805502.395   196863224.568       -2369.334          26.000  
C09  37675183.213   196184553.913        -855.478          30.000  
C24  24366971.197   126885086.691       -3310.927          25.000  
C25  21801363.230   113525431.975        -750.169          40.000  
C33  22241219.924   115815865.376        -846.166          42.000  
E21  24162604.777   126975369.622       -1044.971          36.000  
G10  20157727.096   105929546.870        -408.817          45.000  
G25  20797739.025   109292855.440        -298.555          33.000  
G31  21874063.201   114949051.9131       1164.033          32.000  
G32  21863049.426   114891094.3171        565.094          33.000  
J01  38088109.251   200154359.776         484.716          30.000    38088117.945   149465949.955         364.939          28.000  
J02  37869248.165   199004239.156       -1312.723          29.000    37869256.559   148607084.291        -981.342          24.000  
R12  19071634.482   101877249.076        -972.816          39.000  
> 2021  9 12 10 29 30.9999493  0 13
C06  36691243.081   191060931.475        -754.415          35.000  
C08  37805865.144   196865126.823       -2371.460          23.000  
C09  37675258.761   196184941.093        -855.779          30.000  
C24  24367517.119   126887929.090       -3311.109          25.000  
C25  21801418.692   113525714.225        -751.373          41.000  
C33  22241293.973   115816242.798        -846.275          41.000  
E21  24162713.002   126975942.153       -1045.822          36.000  
G10  20157714.505   105929482.859        -409.270          46.000  
G31  21873753.216   114947415.603        1163.193          28.000  
G32  21862854.261                         564.676          41.000    21862856.359    85794568.3571        422.650          24.000  
J01  38087926.077   200153396.997         490.141          28.000    38087934.472   149465232.433         364.114          29.000  
J02  37869408.554   199005079.525       -1313.321          32.000  
R12  19071728.017   101877748.700        -974.096          39.000  
> 2021  9 12 10 29 31.9999491  0 14
C06  36691323.126   191061373.036        -753.542          34.000  
C08  37806259.371   196867185.999       -2371.442          23.000  
C09  37675363.389   196185484.929        -856.913          29.000  
C24  24368093.620   126890928.505       -3312.600          25.000  
C25  21801502.334   113526153.138        -751.777          41.000  
C33  22241395.902   115816776.826        -846.238          42.000  
E21  24162853.005   126976672.781       -1047.861          35.000  
G10  20157730.993   105929577.130        -409.918          46.000  
G23  21113446.865   110951924.7501      -2821.104          23.000  
G31  21873474.109   114945937.772        1162.552          28.000  
G32                                                                  21862689.675    85793910.832         421.955          25.000  
J01  38087774.382   200152592.109         489.161          33.000    38087781.877   149464631.833         364.915          29.000  
J02  37869598.023   199006078.031       -1313.431          31.000  
R12  19071850.932   101878404.545        -974.644          40.000  
> 2021  9 12 10 29 32.9999485  0 15
C06  36691291.048   191061190.246        -754.007          34.000  
C08  37806532.482   196868621.394       -2372.798          26.000  
C09  37675346.900   196185404.311        -856.313          29.000  
C24  24368551.103   126893304.928       -3312.940          26.000  
C25  21801467.558   113525968.301        -752.177          41.000  
C33  22241378.214   115816687.047        -846.983          41.000  
E21  24162872.491   126976773.881       -1045.648          35.000  
G10  20157629.364   105929042.100        -410.895          46.000  
G23  21113799.721   110953799.541       -2820.191          23.000  
G25  20797585.531   109292021.6751       -301.470          33.000  
G31  21873075.685   114943830.092        1162.134          26.000  
G32  21862397.677   114887684.8481        565.137          40.000    21862404.272    85792783.350         420.890          28.000  
J01  38087502.771   200151157.937         488.439          35.000    38087508.766   149463561.315         364.261          29.000  
J02  37869667.575   199006446.360       -1313.874          28.000  
R12  19071854.830   101878425.616        -975.652          40.000  
> 2021  9 12 10 29 33.9999480  0 16
C06  36691287.150   191061163.934        -754.738          35.000  
C08  37806834.973   196870213.895       -2372.582          25.000  
C09  37675362.189   196185479.910        -856.460          29.000  
C24  24369037.666   126895837.025       -3312.777          28.000  
C25  21801462.162   113525940.470        -752.478          42.000  
C33  22241391.705   115816754.112        -847.628          43.000  
E21  24162917.460   126977033.465       -1046.529          35.000  
G10  20157558.013   105928665.611        -411.780          47.000  
G12  22372556.002   117568576.1101      -2038.032          27.000  
G23  21114186.753   110955831.658       -2819.710          22.000  
G25  20797486.600   109291535.673        -302.273          31.000  
G31  21872705.741   114941880.364        1161.725          30.000  
G32  21862139.856   114886332.749         564.047          41.000    21862147.650    85791773.573         420.970          30.000  
J01  38087259.939                         488.781          36.000    38087266.234   149462608.761         364.260          28.000  
J02  37869767.705   199006972.418       -1313.409          30.000  
R12  19071889.006   101878608.138        -976.973          41.000  
> 2021  9 12 10 29 34.9999475  0 14
C06  36691279.955   191061137.636        -754.016          33.000  
C08  37807139.562   196871805.013       -2372.126          26.000  
C09  37675377.479   196185556.303        -857.319          29.000  
C24  24369524.829   126898369.575       -3313.383          28.000  
C25  21801455.267   113525913.219        -753.701          41.000  
C33  22241404.296   115816821.737        -848.064          42.000  
E21  24162964.828   126977293.672       -1047.976          34.000  
G10  20157486.063   105928289.939        -412.704          46.000  
G25  20797390.666   109291050.338        -301.046          30.000  
G31  21872333.698   114939931.032        1161.417          31.000  
G32  21861882.334   114884980.832         563.441          40.000    21861890.428    85790764.197         420.849          30.000  
J01  38087014.708                         487.952          35.000    38087023.702   149461656.176         364.684          29.000  
J02  37869868.735   199007497.922       -1313.067          30.000  
R12  19071921.683   101878783.003        -978.549          40.000  
> 2021  9 12 10 29 35.9999473  0 16
C06  36691369.893   191061579.665        -754.199          34.000  
C08  37807535.588   196873866.119       -2375.454          25.000  
C09  37675482.406   196186101.296        -857.324          30.000  
C24  24370100.431   126901370.627       -3313.681          28.000  
C25  21801540.707   113526354.972        -754.192          42.000  
C33  22241507.125   115817358.282        -849.218          42.000  
E21  24163109.327   126978027.142       -1048.499          36.000  
G10  20157504.350   105928387.693        -413.337          46.000  
G12  22373109.718   117571550.8411      -2039.983          30.000  
G23  21115052.553   110960373.5361      -2824.734          25.000  
G25  20797383.771   109291038.652        -304.566          33.000  
G31  21872052.193   114938455.055        1160.390          34.000  
G32  21861717.448   114884101.620         563.051          39.000    21861722.844    85790107.581         421.630          28.000  
J01  38086860.915   200147823.7371        487.265          32.000    38086870.808   149461055.904         365.019          29.000  
J02  37870057.305   199008495.395       -1312.806          30.000  
R12  19072042.800   101879429.517        -979.029          41.000  
> 2021  9 12 10 29 36.9999468  0 14
C06  36691364.497   191061553.350        -753.902          32.000  
C08  37807840.177   196875461.175       -2375.781          23.000  
C09  37675497.696   196186177.844        -857.209          27.000  
C24  24370587.893   126903903.618       -3313.146          27.000  
C25  21801535.611   113526328.815        -754.211          41.000  
C33  22241519.117   115817426.714        -849.451          42.000  
E21  24163160.592   126978288.316       -1049.605          36.000  
G10  20157433.000   105928013.441        -413.760          46.000  
G12  22373342.957   117572803.074       -2040.420          29.000  
G25  20797293.233   109290554.814        -305.529          31.000  
G32  21861464.123   114882749.890         563.934          41.000  
J01  38086621.980   200146547.937         488.370          34.000    38086627.676   149460102.800         364.915          29.000  
J02  37870157.436   199009020.521       -1312.927          25.000  
R12  19072072.779   101879590.024        -979.732          41.000  
> 2021  9 12 10 29 37.9999462  0 13
C06  36691326.723   191061371.143        -754.780          36.000  
C08  37808118.984   196876899.821       -2375.185          26.000  
C09  37675482.706   196186097.613        -856.589          28.000  
C24  24371045.976   126906280.230       -3313.628          27.000  
C25  21801501.135   113526147.168        -755.723          43.000  
C33  22241503.228   115817339.678        -849.716          44.000  
E21  24163183.076   126978392.634       -1049.687          40.000  
G10  20157331.070   105927482.429        -414.243          46.000  
G25  20797171.518   109289914.472        -306.650          31.000  
G32  21861176.622   114881240.933         561.888          41.000  
J01  38086350.668   200145114.953         488.072          36.000    38086354.865   149459032.317         364.536          30.000  
J02  37870227.587   199009388.962       -1314.368          29.000  
R12  19072082.072   101879639.126        -980.894          41.000  
> 2021  9 12 10 29 38.9999462  0 16
C06  36691472.422   191062125.735        -755.008          35.000  
C08  37808574.968   196879274.945       -2375.651          25.000  
C09  37675647.592   196186954.239        -856.549          29.000  
C24  24371683.934   126909594.338       -3315.172          29.000  
C25  21801646.534   113526903.001        -756.090          42.000  
C33  22241667.214   115818190.042        -850.201          43.000  
E21  24163380.939   126979443.011       -1049.879          39.000  
G10  20157411.414   105927897.630        -414.957          47.000  
G12  22373935.047   117575939.5181      -2042.130          28.000  
G23  21116343.759   110967118.0491      -2826.086          28.000  
G25  20797228.478   109290220.359        -306.903          32.000  
G31  21871052.086   114933243.6781       1158.497          25.000  
G32  21861065.699   114880677.343         563.576          40.000  
J01                                                                  38086262.829   149458668.277         364.388          29.000  
J02  37870477.014   199010703.717       -1315.432          29.000  
R12  19072262.847   101880605.484        -982.221          42.000  
> 2021  9 12 10 29 39.9999457  0 13
C06  36691467.925   191062099.618        -752.935          34.000  
C09  37675661.682   196187030.203        -856.065          27.000  
C24  24372172.596   126912129.157       -3314.929          29.000  
C25  21801644.436   113526878.823        -757.887          41.000  
C33  22241681.904   115818260.284        -850.564          43.000  
E21  24163429.206   126979706.200       -1050.305          38.000  
G10  20157340.364   105927525.842        -416.446          47.000  
G12  22374170.984   117577193.986       -2042.418          29.000  
G25  20797140.339   109289739.321        -307.744          32.000  
G31  21870680.643   114931297.621        1158.152          28.000  
G32  21860806.978   114879326.103         562.510          40.000  
J01  38086011.003   200143352.3241        486.024          33.000    38086020.297   149457716.080         363.873          29.000  
R12  19072296.124   101880783.413        -983.502          41.000  
> 2021  9 12 10 29 40.9999452  0 15
C06  36691461.630   191062073.853        -755.357          33.000  
C09  37675676.672   196187105.020        -854.757          26.000  
C24  24372661.558   126914663.635       -3315.135          29.000  
C25  21801637.241   113526855.249        -757.360          39.000  
C33  22241695.395   115818331.087        -853.029          42.000  
E21  24163478.372   126979970.040       -1052.229          37.000  
G10  20157269.613   105927154.859        -418.036          44.000  
G12  22374407.220   117578449.184       -2043.430          24.000  
G23  21117123.520   110971195.3721      -2826.761          27.000  
G25  20797050.102   109289259.011        -308.642          30.000  
G31  21870310.699   114929351.825        1157.664          31.000  
G32  21860545.559   114877975.305         562.623          40.000  
J01  38085770.570   200142077.381         487.630          33.000    38085777.165   149456763.305         364.422          29.000  
J02  37870672.779   199011758.1851      -1314.191          23.000  
R12  19072331.200   101880970.240        -983.809          40.000  
> 2021  9 12 10 29 41.9999447  0 15
C06  36691459.531   191062048.401        -755.895          33.000  
C08  37809499.228   196884057.5001      -2374.614          20.000  
C09  37675691.362   196187179.778        -856.602          28.000  
C24  24373149.320   126917198.956       -3316.476          28.000  
C25  21801636.341   113526832.724        -758.326          39.000  
C33  22241709.485   115818402.776        -852.868          43.000  
E21  24163530.536   126980234.924       -1053.244          38.000  
G10  20157200.361   105926785.069        -418.610          45.000  
G23  21117515.049   110973236.238       -2829.075          27.000  
G25  20796955.068   109288779.956        -308.567          30.000  
G31  21869940.155   114927406.882        1156.799          30.000  
G32  21860293.134   114876624.868         561.753          38.000  
J01  38085525.639   200140802.935         487.164          34.000    38085535.532   149455811.895         363.512          29.000  
J02  37870773.809   199012285.633       -1316.061          27.000  
R12  19072364.777   101881150.243        -985.898          40.000  
> 2021  9 12 10 29 42.9999444  0 16
C06  36691516.192   191062335.160        -755.514          34.000  
C08  37809865.575   196885962.811       -2373.757          23.000  
C09  37675764.811   196187568.359        -857.557          29.000  
C24  24373695.841   126920047.123       -3316.842          28.000  
C25  21801693.002   113527122.948        -759.515          42.000  
C33  22241782.634   115818787.197        -852.880          43.000  
E21  24163643.258   126980815.406       -1054.117          38.000  
G10  20157189.268   105926731.081        -419.469          46.000  
G12  22374942.650   117581276.8991      -2044.440          29.000  
G23  21117965.337   110975593.137       -2829.736          30.000  
G25  20796920.591   109288616.795        -310.317          31.000  
G31  21869631.369   114925777.994        1155.807          29.000  
G32  21860096.170   114875589.660         562.571          41.000    21860102.766    85783750.1471        420.361          29.000  
J01                                                                  38085352.959   149455095.278         363.485          30.000  
J02  37870931.500   199013129.577       -1316.904          27.000  
R12  19072461.010   101881663.819        -985.984          40.000  
> 2021  9 12 10 29 43.9999439  0 13
C06  36691512.594   191062309.665        -756.855          36.000  
C08  37810172.862   196887556.653       -2375.206          25.000  
C09  37675778.901   196187645.839        -857.945          29.000  
C24  24374185.103   126922582.939       -3315.483          23.000  
C25  21801689.404   113527101.454        -759.298          43.000  
C33  22241798.223   115818859.776        -854.579          42.000  
E21  24163697.520   126981081.247       -1053.494          37.000  
G10  20157119.117   105926362.641        -419.679          45.000  
G23  21118355.367   110977635.069       -2830.028          30.000  
G31  21869260.826   114923834.917        1154.999          27.000  
G32  21859841.047   114874239.516         562.544          43.000    21859847.043    85782741.679         420.660          30.000  
J01  38085106.829   200138569.4001        487.027          33.000    38085110.726   149454143.558         363.445          29.000  
R12  19072496.386   101881852.410        -986.362          40.000  
> 2021  9 12 10 29 44.9999434  0 14
C06  36691507.498   191062284.470        -755.327          34.000  
C08  37810478.351   196889151.817       -2375.812          25.000  
C09  37675793.591   196187722.820        -857.903          30.000  
C24  24374672.565   126925117.639       -3315.684          25.000  
C25  21801685.507   113527080.768        -760.356          42.000  
C33  22241813.513   115818933.103        -854.199          42.000  
E21  24163744.888   126981347.935       -1053.461          37.000  
G10  20157047.766   105925995.202        -420.740          43.000  
G23  21118744.198   110979677.490       -2830.449          32.000  
G31  21868889.683   114921892.279        1154.464          30.000  
G32  21859583.225   114872889.707         562.862          41.000    21859590.720    85781733.121         420.259          29.000  
J01  38084863.098   200137295.384         485.428          32.000    38084868.194   149453192.257         361.810          28.000  
J02  37871131.161   199014190.0841      -1320.077          20.000  
R12  19072533.560   101882051.284        -988.377          39.000  
> 2021  9 12 10 29 45.9999429  0 14
C06  36691503.900   191062259.187        -755.017          33.000  
C08  37810782.940   196890746.675       -2375.871          24.000  
C09  37675807.981   196187799.985        -857.961          29.000  
C24  24375161.527   126927653.130       -3316.521          21.000  
C25  21801680.111   113527060.617        -760.874          40.000  
C33  22241828.203   115819006.879        -855.118          43.000  
E21  24163793.154   126981615.182       -1055.366          36.000  
G10  20156979.414   105925628.509        -421.333          43.000  
G23  21119134.527   110981720.417       -2830.907          30.000  
G25  20796648.979   109287187.2581       -311.320          26.000  
G31  21868519.739   114919950.204        1153.886          27.000  
G32                                                                  21859333.498    85780725.618         419.515          24.000  
J01  38084618.467   200136021.398         484.788          33.000    38084625.962   149452241.848         363.021          27.000  
R12  19072571.034   101882251.852        -989.895          37.000  
> 2021  9 12 10 29 46.9999427  0 16
C06  36691586.943   191062703.028        -756.402          34.000  
C08  37811178.666   196892810.167       -2375.704          26.000  
C09  37675912.908   196188345.789        -858.147          30.000  
C24  24375741.325   126930657.554       -3316.717          24.000  
C25  21801766.151   113527509.874        -762.433          40.000  
C33  22241931.331   115819550.028        -856.232          43.000  
E21  24163935.556   126982356.124       -1056.041          37.000  
G10  20157000.999   105925735.682        -422.627          44.000  
G12  22376003.015   117586785.0021      -2048.667          27.000  
G23  21119614.795   110984236.352       -2832.153          30.000  
G25  20796647.181   109287184.936        -314.360          23.000  
G31  21868241.531   114918481.408        1153.027          24.000  
G32  21859164.116   114870662.8061        561.453          29.000    21859166.814    85780071.187         418.054          29.000  
J01  38084467.672   200135220.761         485.201          35.000    38084473.368   149451643.420         363.364          27.000  
J02  37871430.354   199015725.0281      -1317.967          27.000  
R12  19072696.947   101882923.788        -990.911          38.000  
> 2021  9 12 10 29 47.9999424  0 15
C06  36691638.507   191062990.561        -756.001          34.000  
C09  37675987.557   196188735.546        -858.199          30.000  
C24  24376290.545   126933506.621       -3318.768          25.000  
C25  21801823.712   113527803.668        -762.245          41.000  
C33  22242004.181   115819937.620        -856.047          44.000  
E21  24164047.978   126982940.188       -1057.487          39.000  
G10  20156991.405   105925686.131        -423.560          46.000  
G12  22376304.307   117588361.898       -2050.682          31.000  
G23  21120063.284   110986596.415       -2833.174          28.000  
G25  20796618.700   109287026.479        -314.187          28.000  
G31  21867934.544   114916855.819        1152.359          23.000  
G32                                                                  21858969.850    85779299.902         418.709          31.000  
J01  38084282.400   200134262.719         484.663          36.000    38084291.394   149450928.555         361.066          27.000  
J02  37871589.844   199016570.016       -1317.386          26.000  
R12  19072794.079   101883442.787        -991.956          41.000  
> 2021  9 12 10 29 48.9999419  0 15
C06  36691636.109   191062965.682        -759.208          33.000  
C09  37676002.846   196188813.124        -857.932          30.000  
C24  24376777.408   126936044.860       -3319.348          24.000  
C25  21801821.013   113527785.638        -763.492          40.000  
C33  22242018.871   115820013.220        -857.826          43.000  
E21  24164100.441   126983209.490       -1057.900          38.000  
G10  20156922.153   105925322.019        -424.791          45.000  
G12  22376546.539   117589625.666       -2054.324          29.000  
G23  21120450.616   110988641.705       -2833.711          28.000  
G25  20796529.063   109286552.964        -313.643          28.000  
G31  21867564.600   114914916.348        1151.951          25.000  
G32                                                                  21858713.528    85778292.868         418.006          28.000  
J01  38084044.065   200132989.467         484.736          34.000    38084049.461   149449979.168         362.077          25.000  
J02  37871692.073   199017100.130       -1318.503          25.000  
R12  19072821.061   101883586.817        -992.899          40.000  
> 2021  9 12 10 29 49.9999416  0 15
C06  36691691.271   191063253.821        -758.131          33.000  
C09  37676078.094   196189202.796        -858.107          29.000  
C24  24377324.529   126938895.001       -3318.150          24.000  
C25  21801878.274   113528080.881        -765.141          40.000  
C33  22242093.519   115820402.144        -857.685          42.000  
E21  24164210.465   126983795.062       -1059.043          38.000  
G10  20156912.260   105925274.310        -426.627          44.000  
G12  22376851.128   117591206.992       -2054.105          23.000  
G23  21120898.506   110991003.630       -2835.001          30.000  
G25  20796497.285   109286395.887        -316.333          25.000  
G31  21867253.715   114913292.785        1150.245          28.000  
G32  21858513.266   114867247.8611        560.487          37.000    21858517.463    85777521.189         419.000          28.000  
J01  38083860.892   200132031.891         484.483          33.000    38083865.688   149449263.887         363.002          25.000  
J02  37871855.160   199017945.422       -1318.131          20.000  
R12  19072914.296   101884085.359        -993.544          37.000  
> 2021  9 12 10 29 50.9999411  0 16
C06  36691687.074   191063229.977        -755.116          32.000  
C08  37812533.128   196899815.3991      -2375.649          18.000  
C09  37676093.383   196189280.527        -859.078          29.000  
C24  24377811.992   126941433.719       -3320.596          24.000  
C25  21801877.075   113528064.922        -764.684          41.000  
C33  22242108.209   115820479.677        -858.335          43.000  
E21  24164262.029   126984066.445       -1059.524          38.000  
G10  20156842.708   105924912.590        -426.640          45.000  
G12  22377094.560   117592473.352       -2054.330          27.000  
G23  21121287.037   110993052.057       -2837.153          29.000  
G31  21866883.172   114911354.936        1150.032          27.000  
G32  21858255.145                         559.384          38.000    21858260.841    85776514.370         418.671          25.000  
J01  38083618.360   200130759.745         483.568          35.000    38083623.756   149448315.406         359.161          24.000  
J02  37871957.689   199018475.256       -1317.525          24.000  
R01  20403853.106   109070288.5511      -1082.666          26.000  
R12  19072958.066   101884319.075        -995.845          39.000  
> 2021  9 12 10 29 51.9999406  0 17
C06  36691682.577   191063206.494        -756.916          34.000  
C08  37812839.516   196901411.591       -2377.384          19.000  
C09  37676108.973   196189359.001        -859.082          31.000  
C24  24378300.054   126943973.207       -3319.631          24.000  
C25  21801873.777   113528049.709        -765.122          42.000  
C33  22242122.299   115820557.992        -858.646          43.000  
E21  24164313.894   126984338.700       -1060.163          38.000  
G10  20156772.857   105924551.853        -427.731          45.000  
G12  22377338.591   117593739.236       -2053.517          28.000  
G23  21121676.767   110995101.317       -2836.992          30.000  
G25  20796314.111   109285455.9961       -319.058          24.000  
G31  21866512.329   114909417.518        1149.262          28.000  
G32  21857998.822   114864558.8641        558.755          41.000    21858004.818    85775508.167         417.238          27.000  
J01  38083374.928   200129488.024         484.324          35.000    38083382.423   149447367.275         361.940          26.000  
J02  37872057.820   199019006.443       -1320.137          25.000  
R01  20403909.168   109070588.446       -1083.826          25.000  
R12  19072993.142   101884505.913        -997.048          40.000  
> 2021  9 12 10 29 52.9999401  0 13
C06  36691678.679   191063183.119        -756.924          35.000  
C08  37813144.405   196903009.816       -2380.792          19.000  
C09  37676125.461   196189437.400        -859.047          29.000  
C25  21801868.081   113528035.305        -767.920          42.000  
C33  22242138.188   115820636.946        -859.926          43.000  
E21  24164368.156   126984611.709       -1061.591          39.000  
G10  20156705.403   105924192.097        -429.081          47.000  
G12  22377577.825   117595005.202       -2053.884          28.000  
G23  21122066.498   110997151.208       -2837.978          30.000  
G31  21866141.485   114907481.251        1147.552          29.000  
G32  21857743.699   114863211.694         558.686          43.000    21857748.496    85774503.154         416.291          28.000  
J01  38083134.495   200128216.542         482.929          36.000    38083139.591   149446417.069         360.740          28.000  
R12  19073032.115   101884714.310        -997.352          42.000  
> 2021  9 12 10 29 53.9999398  0 15
C06  36691734.441   191063472.468        -758.343          34.000  
C08  37813510.751   196904922.321       -2380.943          20.000  
C09  37676202.808   196189828.394        -860.380          29.000  
C24  24379342.432   126949634.4601      -3321.056          23.000  
C25  21801924.742   113528334.172        -767.120          41.000  
C33  22242212.836   115821029.080        -860.865          43.000  
E21  24164479.679   126985200.856       -1061.997          39.000  
G10  20156696.409   105924148.626        -429.392          46.000  
G12  22377877.018   117596587.063       -2054.947          27.000  
G23  21122514.687   110999516.672       -2838.606          28.000  
G31  21865827.003   114905861.120        1147.808          26.000  
G32  21857550.033   114862180.187         558.720          43.000    21857552.731    85773732.944         417.561          30.000  
J01  38082951.321   200127260.690         482.630          36.000    38082957.317   149445703.995         359.425          29.000  
J02  37872311.744   199020387.6191      -1322.290          23.000  
R12  19073127.149   101885222.021        -999.495          42.000  
> 2021  9 12 10 29 54.9999393  0 12
C06  36691730.244   191063449.877        -758.698          33.000  
C09  37676219.596   196189908.716        -861.129          29.000  
C25  21801922.643   113528321.623        -768.134          42.000  
C33  22242227.526   115821109.710        -861.592          43.000  
E21  24164530.943   126985475.659       -1063.297          37.000  
G10  20156627.757   105923791.072        -430.786          47.000  
G12  22378117.152   117597854.397       -2055.244          28.000  
G23  21122902.319   111001567.996       -2839.167          29.000  
G32  21857296.708   114860833.973         558.504          40.000    21857297.308    85772728.611         415.797          31.000  
J01  38082712.087   200125990.051         482.340          35.000    38082715.685   149444756.573         359.295          29.000  
J02  37872413.674   199020922.947       -1322.302          24.000  
R12  19073161.925   101885408.275       -1000.683          41.000  
> 2021  9 12 10 29 55.9999391  0 15
C06  36691817.483   191063896.150        -759.459          35.000  
C08  37814214.364   196908592.1121      -2381.931          22.000  
C09  37676325.423   196190457.449        -860.911          31.000  
C25  21802011.681   113528778.507        -769.939          42.000  
C33  22242334.852   115821659.669        -862.771          43.000  
E21  24164670.347   126986224.182       -1063.857          37.000  
G10  20156651.441   105923907.371        -431.809          47.000  
G12  22378451.121   117599593.627       -2055.539          25.000  
G23  21123380.188   111004092.309       -2839.836          29.000  
G25  20796104.556   109284370.2011       -321.692          23.000  
G31  21865173.156   114902465.1211       1145.279          24.000  
G32  21857131.523   114859961.016         557.490          38.000    21857131.223    85772076.755         417.212          29.000  
J01  38082558.293   200125192.694         481.996          34.000    38082563.690   149444161.614         360.714          28.000  
J02  37872605.841   199021930.152       -1322.522          28.000  
R12  19073287.538   101886079.194       -1001.968          40.000  
> 2021  9 12 10 29 56.9999386  0 12
C06  36691812.387   191063874.678        -759.083          35.000  
C08  37814520.452   196910193.676       -2382.678          24.000  
C09  37676340.112   196190538.226        -861.794          32.000  
C25  21802009.883   113528768.047        -770.462          43.000  
C33  22242350.441   115821742.236        -863.691          43.000  
E21  24164724.309   126986501.127       -1065.703          37.000  
G10  20156585.186   105923552.296        -433.160          45.000  
G23  21123770.818   111006145.005       -2840.857          29.000  
G31  21864804.111   114900532.825        1143.576          24.000  
G32  21856876.399   114858616.108         555.756          43.000    21856875.200    85771071.744         416.130          30.000  
J01  38082314.862   200123923.265         482.219          34.000    38082321.158   149443212.788         360.637          28.000  
R12  19073320.215   101886254.034       -1003.181          37.000  
> 2021  9 12 10 29 57.9999383  0 13
C06  36691866.949   191064166.110        -760.442          35.000  
C09  37676416.260   196190931.856        -861.627          31.000  
C16  73340209.130                       -2139.789          24.000  
C25  21802065.644   113529071.164        -772.361          43.000  
C33  22242426.588   115822138.347        -865.624          42.000  
E21  24164839.430   126987094.522       -1066.297          37.000  
G10  20156578.591   105923513.750        -435.279          46.000  
G12  22378995.244   117602449.8281      -2061.792          27.000  
G23  21124221.706   111008514.034       -2842.686          30.000  
G32  21856679.436   114857587.092         556.179          42.000    21856680.635    85770303.825         414.918          29.000  
J01  38082137.984   200122969.813         480.458          36.000    38082139.483   149442499.283         360.715          28.000  
J02  37872869.358   199023313.2001      -1323.270          24.000  
R12  19073418.247   101886776.796       -1005.664          38.000  
> 2021  9 12 10 29 58.9999378  0 14
C06  36691865.450   191064145.817        -760.690          36.000  
C08  37815196.184   196913709.5931      -2383.687          25.000  
C09  37676431.549   196191011.736        -860.441          29.000  
C16  73340059.233                       -2139.789          22.000  
C25  21802063.545   113529063.055        -772.614          41.000  
C33  22242442.777   115822223.125        -865.157          42.000  
E21  24164893.692   126987373.817       -1067.453          37.000  
G10  20156509.639   105923161.311        -435.782          45.000  
G12  22379237.476   117603724.347       -2063.053          29.000  
G23  21124612.935   111010569.966       -2845.197          26.000  
G32  21856419.815   114856243.570         555.603          38.000    21856427.610    85769300.554         415.957          27.000  
J01  38081896.951   200121701.781         481.017          36.000    38081898.750   149441550.264         360.028          28.000  
J02  37872970.988   199023849.259       -1325.557          24.000  
R12  19073456.321   101886980.979       -1006.503          38.000  
> 2021  9 12 10 29 59.9999373  0 16
C06  36691860.054   191064125.897        -760.344          37.000  
C08  37815501.973   196915312.116       -2382.357          25.000  
C09  37676445.639   196191091.895        -861.142          30.000  
C16  73339909.337                       -2139.789          24.000  
C23  24002246.391   124985910.0891       1715.998          24.000  
C25  21802063.545   113529055.977        -773.911          41.000  
C33  22242459.865   115822308.788        -866.719          43.000  
E21  24164945.856   126987654.135       -1069.051          37.000  
G10  20156442.785   105922810.087        -437.079          45.000  
G12  22379479.409   117605000.249       -2063.882          29.000  
G23  21125003.864   111012626.756       -2843.733          26.000  
G31  21863766.230   114895058.3231       1141.455          27.000  
G32  21856164.992   114854900.674         554.862          41.000    21856172.487    85768296.077         415.661          32.000  
J01  38081656.218   200120434.321         479.108          35.000    38081658.317   149440602.783         357.855          27.000  
J02  37873076.215   199024387.189       -1325.391          24.000  
R12  19073496.193   101887193.261       -1007.714          38.000  
> 2021  9 12 10 30  0.9999368  0 15
C06  36691856.756   191064106.758        -759.914          34.000  
C08  37815807.161   196916913.723       -2381.973          24.000  
C09  37676459.430   196191173.801        -863.205          31.000  
C16  37338865.241                        -739.789          27.000  
C23  24001768.521   124983413.307        1716.684          23.000  
C25  21802062.946   113529049.769        -776.487          41.000  
C33  22242476.354   115822395.352        -874.854          42.000  
E21  24164997.720   126987935.354       -1070.488          38.000  
G10  20156376.531   105922460.095        -442.052          45.000  
G12  22379723.140   117606276.730       -2064.497          28.000  
G31  21863401.082   114893130.575        1139.278          28.000  
G32  21855913.766   114853558.432         548.977          38.000    21855915.565    85767292.886         415.044          33.000  
J01  38081413.086   200119167.322         473.366          33.000    38081416.984   149439656.697         357.035          26.000  
J02  37873180.243   199024924.716       -1325.194          27.000  
R12  19073533.368   101887391.798       -1009.651          36.000  
> 2021  9 12 10 30  1.9999365  0  9
C16  37338918.904                        -744.220          20.000  
C24  24383420.209   126971072.1121      -3324.406          20.000  
C25  21802121.106   113529357.388        -778.911          34.000  
C33  22242552.202   115822795.593        -871.147          38.000  
E21  24165106.245   126988533.074       -1071.100          30.000  
G10  20156361.841   105922426.761        -440.586          39.000  
G32                                                                  21855718.901    85766527.108         414.370          25.000  
J01  38081230.213   200118216.507         478.093          30.000    38081237.108   149438948.160         355.461          21.000  
J02  37873343.630   199025777.682       -1325.207          25.000  
> 2021  9 12 10 30  2.9999360  0 13
C06  36691911.918   191064380.2631       -762.645          18.000  
C08  37816483.793   196920426.7121      -2381.256          19.000  
C09  37676547.869   196191655.5151       -866.379          18.000  
C25  21802119.307   113529353.879        -776.678          28.000  
C33  22242570.189   115822885.526        -866.879          34.000  
E21  24165158.709   126988816.976       -1072.482          31.000  
G10  20156292.589                        -449.683          33.000  
G23  21126239.309   111019119.5311      -2849.949          18.000  
G25  20795627.886   109281781.3451       -332.951          25.000  
G32  21855462.878   114851192.9321        553.705          29.000    21855459.880    85765524.813         414.378          26.000  
J01  38080989.180   200116951.341         476.915          27.000    38080996.075   149438004.409         355.243          18.000  
J02  37873447.058   199026314.862       -1325.284          27.000  
R12  19073671.872   101888132.0241      -1011.819          29.000  
> 2021  9 12 10 30  3.9999357  0 11
C06  36691966.180   191064675.115        -763.407          20.000  
C25  21802178.366   113529663.649        -778.652          31.000  
C33  22242651.433   115823287.663        -869.081          30.000  
E21  24165274.429   126989418.232       -1074.784          24.000  
G10  20156294.388                        -443.986          33.000  
G12  22380567.655   117610744.4431      -2068.924          22.000  
G23  21126690.796   111021497.953       -2850.731          19.000  
G32  21855266.814   114850166.709         553.384          30.000    21855262.617    85764758.096         412.816          27.000  
J01  38080809.604   200116001.258         477.810          21.000    38080815.900   149437296.966         354.888          21.000  
J02  37873612.544   199027167.398       -1324.878          24.000  
R12  19073769.604   101888654.316       -1014.351          28.000  
> 2021  9 12 10 30  4.9999352  0 11
C06  36691962.883   191064658.492        -764.246          21.000  
C25  21802177.766   113529660.923        -777.612          29.000  
C33  22242668.521   115823378.472        -871.816          26.000  
E21  24165330.790   126989702.917       -1072.125          24.000  
G10  20156231.731   105921705.1081       -448.362          35.000  
G23  21127082.025   111023560.002       -2849.076          19.000  
G25  20795520.860   109281187.8731       -333.633          23.000  
G31  21862078.698   114886061.4341       1135.896          20.000  
G32                                                                  21855006.294    85763756.562         412.690          28.000  
J01  38080569.171   200114735.488         478.494          17.000    38080575.766   149436354.645         352.930          21.000  
R12  19073811.875   101888880.208       -1014.434          28.000  
> 2021  9 12 10 30  5.9999350  0 15
C06  36692049.822   191065110.050        -762.962          26.000  
C09  37676750.229   196192697.1091       -869.572          20.000  
C16  37339033.125   194434181.6641       -742.432          19.000  
C23  23999574.340   124972024.2091       1711.937          28.000  
C25  21802266.805   113530126.853        -779.147          37.000  
C33  22242774.947   115823937.521        -871.423          33.000  
E21  24165471.392   126990460.632       -1074.154          31.000  
G10  20156257.813                        -444.557          36.000  
G12  22381136.662   117613781.3031      -2070.165          24.000  
G23  21127566.190   111026095.838       -2850.760          19.000  
G25  20795524.758   109281207.331        -336.005          28.000  
G32  21854843.507   114847957.9991        551.562          37.000    21854838.110    85763108.859         412.047          30.000  
J01  38080419.874   200113942.637         476.993          31.000    38080424.970   149435764.616         355.645          31.000  
J02  37873911.137   199028716.4341      -1327.037          24.000  
R12  19073941.085   101889569.740       -1015.694          33.000  
> 2021  9 12 10 30  6.9999345  0 12
C06  36692045.326   191065093.144        -763.964          25.000  
C16  37339026.230   194434143.217        -741.356          19.000  
C23  23999094.672   124969531.131        1712.639          30.000  
C25  21802266.505   113530125.942        -780.221          42.000  
C33  22242792.035   115824028.742        -872.353          39.000  
G10  20156188.861                        -445.132          41.000  
G23  21127958.019   111028160.182       -2851.534          24.000  
G25  20795438.118   109280756.061        -337.234          31.000  
G32  21854585.086                         551.809          37.000    21854582.987    85762108.549         412.209          31.000  
J01  38080180.340   200112677.788         476.596          32.000    38080183.937   149434820.629         356.238          30.000  
J02  37874013.666   199029256.192       -1328.602          25.000  
R12  19073981.857   101889787.477       -1017.165          36.000  
> 2021  9 12 10 30  7.9999340  0 14
C06  36692041.128   191065076.269        -763.724          29.000  
C09  37676781.707   196192870.0341       -866.466          27.000  
C25  21802267.404   113530125.889        -781.133          43.000  
C33  22242806.426                        -873.406          39.000  
E21  24165584.714   126991035.1761      -1076.778          34.000  
G10  20156121.108   105921164.5051       -445.915          43.000  
G12  22381619.627   117616348.3011      -2071.741          27.000  
G23  21128352.246   111030224.051       -2852.039          26.000  
G25  20795351.478   109280305.714        -337.029          32.000  
G31  21861052.808   114880764.0441       1134.753          29.000  
G32  21854328.163                         552.911          38.000    21854328.463    85761108.391         412.180          28.000  
J01  38079940.206   200111413.721         476.108          33.000    38079943.803   149433876.316         355.926          27.000  
J02  37874115.595   199029795.949       -1327.480          24.000  
R12  19074020.830   101889996.130       -1018.515          40.000  
> 2021  9 12 10 30  8.9999334  0 14
C06  36692007.852   191064903.078        -763.489          33.000  
C09  37676766.717   196192799.717        -866.201          33.000  
C25  21802236.526                        -780.749          44.000  
C33  22242796.233                        -872.496          39.000  
E21  24165610.496                       -1072.781          36.000  
G10  20156028.172   105920665.323        -445.545          42.000  
G12  22381833.379   117617474.754       -2072.113          33.000  
G23  21128717.094   111032131.085       -2853.521          31.000  
G25  20795237.557                        -338.027          35.000  
G31  21860658.281   114878684.556        1133.450          29.000  
G32  21854034.067   114843783.4991        552.178          36.000    21854043.960    85759991.055         411.821          27.000  
J01  38079672.791   200109991.888         477.218          33.000    38079672.491   149432815.945         352.472          23.000  
J02  37874187.845   199030178.488       -1328.526          26.000  
R12  19074039.417   101890095.020       -1019.308          41.000  
> 2021  9 12 10 30  9.9999332  0 17
C06  36692093.892   191065353.949        -762.039          31.000  
C08  37818837.164   196932752.3841      -2389.083          24.000  
C09  37676870.745   196193353.425        -865.015          31.000  
C16  37339070.599   194434340.0411       -742.003          20.000  
C23  23997722.522   124962370.2481       1709.529          23.000  
C25  21802326.763   113530437.2701       -783.127          43.000  
C33  22242899.961   115824629.5791       -875.444          36.000  
E21  24165752.598   126991902.8481      -1078.050          37.000  
G10  20156053.355   105920796.501        -450.759          46.000  
G12  22382166.449   117619232.112       -2074.237          28.000  
G23  21129200.359   111034669.940       -2855.479          29.000  
G25  20795241.154   109279738.4021       -341.808          36.000  
G31  21860380.673   114877235.873        1133.284          27.000  
G32                                                                  21853879.974    85759344.491         410.903          29.000  
J01  38079523.494   200109199.853         475.697          36.000    38079522.295   149432227.759         353.307          25.000  
J02  37874380.012   199031191.691       -1328.443          29.000  
R12  19074176.422   101890827.035       -1021.198          43.000  
> 2021  9 12 10 30 10.9999327  0 15
C06  36692089.995   191065336.044        -763.766          30.000  
C08  37819147.149   196934360.266       -2389.314          21.000  
C09  37676886.934   196193437.757        -864.881          24.000  
C16  37339061.606   194434301.684        -741.966          30.000  
C23  23997246.152   124959878.623        1713.555          21.000  
C25  21802330.361   113530439.820        -783.287          42.000  
C33  22242922.745   115824724.166        -875.623          41.000  
E21  24165805.061   126992192.874       -1077.410          32.000  
G10  20155986.501   105920456.962        -448.637          42.000  
G25  20795157.212   109279292.388        -341.086          28.000  
G31  21860016.426   114875315.425        1131.923          24.000  
G32  21853626.349   114841578.1031        550.125          42.000    21853628.448    85758346.280         410.403          25.000  
J01                                                                  38079280.663   149431284.866         355.390          32.000  
J02  37874482.841   199031732.472       -1328.973          29.000  
R12  19074218.693   101891053.287       -1022.541          40.000  
> 2021  9 12 10 30 11.9999324  0 14
C06  36692146.955   191065632.800        -766.714          30.000  
C08  37819517.993   196936281.592       -2389.499          28.000  
C16  37339115.568   194434574.963        -741.812          29.000  
C23  23996828.841   124957697.856        1710.958          17.000  
C25  21802390.619   113530755.450        -783.646          45.000  
C33  22243002.490   115825131.650        -875.490          42.000  
E21  24165923.180   126992798.790       -1078.184          35.000  
G10  20155985.602   105920433.412        -449.132          45.000  
G12  22382711.771   117622120.9321      -2075.395          28.000  
G25  20795130.830   109279160.209        -340.205          28.000  
G32                                                                  21853434.182    85757582.659         410.310          26.000  
J01  38079092.093                         475.137          34.000    38079100.187   149430576.042         355.456          31.000  
J02  37874645.329   199032588.998       -1329.201          35.000  
R12  19074320.023   101891594.762       -1023.654          41.000  
> 2021  9 12 10 30 12.9999319  0 16
C06  36692142.758   191065620.838        -769.102          16.000  
C08  37819826.479   196937890.575       -2389.454          27.000  
C16  37339110.772   194434536.817        -742.881          27.000  
C23  23996350.672   124955207.312        1709.600          17.000  
C25  21802392.718   113530759.506        -785.182          43.000  
C33  22243021.077   115825227.389        -876.898          39.000  
E21  24165980.440   126993090.151       -1079.509          37.000  
G10  20155922.345   105920095.551        -450.567          48.000  
G12  22382956.702   117623408.426       -2074.712          31.000  
G23  21130442.699   111041189.9981      -2857.345          26.000  
G25  20795045.390   109278713.549        -341.174          28.000  
G31  21859349.987   114871786.6601       1132.823          23.000  
G32  21853173.363                         549.036          36.000    21853179.059    85756583.180         410.946          28.000  
J01  38078852.259   200105717.6551        474.655          32.000    38078860.953   149429633.083         353.452          32.000  
J02  37874748.757   199033131.200       -1330.732          31.000  
R12  19074358.996   101891802.471       -1023.239          41.000  
> 2021  9 12 10 30 13.9999316  0 15
C06  36692201.817   191065920.777        -767.951          26.000  
C08  37820196.423   196939811.311       -2388.724          27.000  
C16  37339164.135   194434811.011        -742.189          30.000  
C23  23995930.963   124953031.431        1706.609          19.000  
C25  21802452.676   113531076.871        -785.811          43.000  
C33  22243098.124   115825636.432        -877.474          42.000  
E21  24166091.663   126993697.930       -1080.515          34.000  
G10  20155912.752   105920074.123        -451.946          45.000  
G12  22383261.590   117625011.391       -2076.672          28.000  
G23  21130895.685   111043577.495       -2861.392          22.000  
G31  21859047.197   114870182.054        1130.858          24.000  
G32  21852980.896   114838179.8601        549.841          38.000    21852985.093    85755818.978         411.434          27.000  
J01  38078673.883   200104770.938         474.074          34.000    38078681.078                         353.572          35.000  
J02  37874908.546                       -1330.990          33.000  
R12  19074461.825   101892352.293       -1025.513          38.000  
> 2021  9 12 10 30 14.9999311  0 14
C06  36692200.018   191065906.529        -765.766          31.000  
C08  37820505.209   196941420.424       -2390.645          25.000  
C16  37339155.740   194434772.627        -741.716          26.000  
C23  23995453.993   124950545.450        1704.444          23.000  
C25  21802452.676   113531082.692        -786.751          42.000  
C33  22243115.512   115825733.779        -877.442          42.000  
E21  24166145.925   126993991.141       -1080.104          37.000  
G10  20155846.798   105919738.416        -452.131          42.000  
G12  22383505.322   117626299.856       -2076.197          28.000  
G25  20794930.269   109278134.3731       -341.197          23.000  
G32  21852730.270   114836843.110         548.470          37.000    21852731.169    85754819.641         409.874          26.000  
J01  38078433.149   200103509.144         473.748          34.000    38078440.944   149427982.1111        352.667          35.000  
J02  37875011.675   199034531.3441      -1331.620          35.000  
R12  19074503.496   101892574.173       -1027.207          38.000  
> 2021  9 12 10 30 15.9999306  0 13
C06  36692197.920   191065891.039        -765.055          32.000  
C08  37820814.895   196943030.559       -2391.095          25.000  
C16  37339147.046   194434734.922        -743.081          27.000  
C25  21802451.177   113531089.386        -788.058          43.000  
C33  22243134.398   115825832.027        -878.677          41.000  
E21  24166201.387   126994285.238       -1081.391          35.000  
G10  20155784.141   105919403.803        -454.315          43.000  
G12  22383750.852   117627589.787       -2078.593          29.000  
G25  20794843.629   109277689.330        -343.622          24.000  
G32  21852476.945   114835506.760         547.141          36.000    21852478.744    85753822.515         407.741          25.000  
J01  38078193.615   200102248.226         472.517          30.000    38078200.211   149427040.241         352.595          34.000  
J02  37875111.506   199035074.881       -1329.971          34.000  
R12  19074543.069   101892785.841       -1028.119          38.000  
> 2021  9 12 10 30 16.9999301  0 13
C06  36692196.721   191065875.706        -765.305          33.000  
C08  37821125.180   196944640.504       -2390.992          26.000  
C09  37677109.080   196194572.6861       -866.328          16.000  
C16  37339139.552   194434698.563        -746.012          26.000  
C25  21802451.477   113531096.952        -788.933          43.000  
C33  22243152.686   115825930.993        -879.845          40.000  
E21  24166258.647   126994580.170       -1083.111          37.000  
G10  20155721.185   105919070.179        -455.058          44.000  
G12  22383997.881   117628881.772       -2080.454          30.000  
G32  21852220.922   114834170.808         548.274          37.000    21852226.019    85752824.918         412.091          27.000  
J01  38077954.081   200100986.736         473.290          29.000    38077960.377   149426098.710         352.991          34.000  
J02  37875217.932   199035618.978       -1331.641          33.000  
R12  19074590.136   101893036.858       -1029.487          41.000  
> 2021  9 12 10 30 17.9999299  0 13
C06  36692286.659   191066329.889        -767.788          34.000  
C08  37821525.103   196946719.835       -2391.761          22.000  
C25  21802542.314   113531573.717        -790.076          42.000  
C33  22243260.911   115826499.045        -880.471          40.000  
E21  24166406.745   126995348.652       -1084.432          39.000  
G10  20155748.765   105919210.221        -455.709          44.000  
G12  22384333.648   117630647.780       -2082.027          31.000  
G25  20794762.985   109277279.4071       -347.943          24.000  
G31  21857698.730   114862991.3601       1126.586          26.000  
G32  21852054.837   114833307.999         547.678          33.000    21852062.932    85752179.593         408.482          26.000  
J01  38077805.384   200100198.517         472.352          29.000    38077810.480   149425510.336         353.097          34.000  
J02  37875411.298   199036636.073       -1333.458          32.000  
R12  19074727.741   101893772.705       -1031.212          41.000  
> 2021  9 12 10 30 18.9999293  0 15
C06  36692255.780                        -767.457          34.000  
C08  37821809.306   196948175.962       -2393.166          22.000  
C09  37677205.613   196195057.6051       -868.016          16.000  
C16  37339191.416   194434942.3471       -748.229          17.000  
C25  21802512.635   113531426.886        -790.290          41.000  
C33  22243251.318   115826443.438        -881.158          39.000  
E21  24166433.726   126995487.774       -1085.058          39.000  
G10  20155656.729   105918721.131        -456.206          44.000  
G12  22384550.698   117631784.983       -2082.943          31.000  
G23  21132926.779   111054268.2661      -2866.088          15.000  
G25  20794648.464   109276681.528        -347.472          23.000  
G32  21851771.234   114831815.392         548.010          34.000  
J01                                                                  38077540.068   149424451.763         353.261          34.000  
J02  37875489.844   199037023.470       -1333.115          32.000  
R12  19074732.837   101893799.309       -1032.340          40.000  
> 2021  9 12 10 30 19.9999288  0 14
C06  36692253.981   191066191.8911       -767.776          33.000  
C08  37822122.589   196949788.941       -2393.600          25.000  
C25  21802513.534   113531437.039        -791.837          41.000  
C33  22243270.504   115826544.792        -881.987          38.000  
E21  24166490.087   126995785.362       -1085.312          38.000  
G10  20155592.873   105918390.601        -457.872          44.000  
G12  22384799.226   117633080.479       -2083.252          30.000  
G23  21133323.405   111056347.733       -2866.855          15.000  
G25  20794563.024   109276241.929        -348.873          22.000  
G31  21856949.848   114859005.8291       1123.594          25.000  
G32  21851517.010   114830480.789         548.374          35.000  
J01                                                                  38077300.234   149423511.034         350.934          34.000  
J02  37875595.971   199037568.887       -1333.641          32.000  
R12  19074779.005   101894046.205       -1033.059          40.000  
> 2021  9 12 10 30 20.9999286  0 14
C06  36692341.221   191066646.815        -767.428          34.000  
C08  37822524.311   196951870.770       -2394.243          27.000  
C09  37677333.025   196195701.9861       -868.924          24.000  
C25  21802605.570   113531916.329        -792.546          40.000  
C33  22243379.629   115827115.246        -882.907          38.000  
E21  24166636.086   126996556.374       -1086.417          39.000    24166636.686    94835073.8041       -811.316          35.000  
G10  20155621.653   105918533.718        -458.634          43.000  
G12  22385137.392   117634848.680       -2084.110          30.000  
G25  20794569.619   109276277.376        -351.686          24.000  
G31  21856679.136   114857568.266        1121.810          24.000  
G32  21851359.918   114829619.283         543.229          35.000  
J01  38077141.344   200096734.8041        471.486          32.000    38077150.637   149422923.533         351.633          34.000  
J02  37875789.337   199038587.360       -1333.554          32.000  
R12  19074912.113   101894756.708       -1034.574          39.000  
> 2021  9 12 10 30 21.9999281  0 17
C06  36692335.225   191066633.950        -768.183          36.000  
C08  37822835.796   196953484.814       -2394.833          27.000  
C09  37677350.413   196195790.610        -868.919          28.000  
C13  36915963.011   192231107.7441      -2160.732          33.000  
C24  24393721.078   127024633.1391      -3340.929          25.000  
C25  21802610.367   113531927.797        -792.518          41.000  
C33  22243399.415   115827217.929        -882.769          41.000  
E21  24166692.447   126996855.568       -1084.404          41.000    24166693.346    94835297.164        -813.006          38.000  
G10  20155560.196   105918204.893        -459.922          43.000  
G12  22385384.121   117636145.548       -2085.655          31.000  
G23  21134208.992   111060979.3641      -2866.893          16.000  
G31  21856316.687   114855658.492        1121.986          25.000  
G32  21851110.191   114828285.701         546.814          29.000  
J01  38076901.809   200095475.529         471.480          39.000    38076912.002   149421983.333         350.700          35.000  
J02  37875888.568   199039133.408       -1334.145          31.000  
R01  20406269.434   109083205.2541      -1112.185          23.000  
R12  19074957.382   101894999.104       -1035.733          37.000  
> 2021  9 12 10 30 22.9999278  0 15
C06  36692392.785   191066934.052        -768.697          31.000  
C08  37823204.540   196955410.807       -2396.496          24.000  
C09  37677428.059   196196191.680        -869.833          25.000  
C13  36916286.187   192232794.988       -2157.487          31.000  
C16  37339304.737   194435576.9541       -744.078          25.000  
C24  24394271.197   127027505.225       -3340.898          24.000  
C25  21802679.319   113532252.629        -793.400          40.000  
C33  22243481.858   115827633.467        -884.196          41.000  
E21  24166809.666   126997470.584       -1088.174          35.000    24166811.764    94835756.544        -811.742          36.000  
G10  20155552.401   105918192.420        -460.229          42.000  
G12  22385692.308   117637759.036       -2087.110          29.000  
G23  21134664.376   111063372.756       -2866.536          25.000  
J01  38076724.032   200094530.996         471.740          31.000    38076732.726   149421278.603         352.029          24.000  
J02  37876054.953   199039995.898       -1337.362          30.000  
R12  19075055.714   101895524.264       -1036.587          35.000  
> 2021  9 12 10 30 23.9999273  0 16
C06  36692390.087   191066922.715        -769.801          25.000  
C08  37823511.828   196957025.566       -2394.653          21.000  
C09  37677445.747   196196282.124        -871.985          23.000  
C13  36916550.304   192234171.874       -2158.098          33.000  
C16  37339295.743   194435541.198        -745.858          27.000  
C24  24394760.459   127030065.516       -3340.839          27.000  
C25  21802683.516   113532265.924        -794.373          36.000  
C33  22243500.445   115827737.752        -884.944          39.000  
E21  24166868.725   126997771.413       -1089.746          37.000    24166870.224    94835981.196        -810.720          28.000  
G10  20155490.344   105917865.723        -462.520          37.000  
G12  22385938.138   117639057.993       -2086.966          25.000  
G23  21135059.503   111065451.002       -2864.992          24.000  
G25  20794389.444   109275292.5871       -356.058          25.000  
G31  21855651.447   114852154.2731       1121.704          24.000  
J01  38076481.800   200093271.552         471.125          26.000    38076491.693   149420337.506         355.017          21.000  
R12  19075095.286   101895735.286       -1037.514          28.000  
> 2021  9 12 10 30 24.9999268  0 17
C06  36692387.689   191066912.283        -770.619          24.000  
C08  37823819.115   196958640.145       -2394.993          28.000  
C09  37677461.936   196196373.202        -871.543          20.000  
C13  36916815.920   192235549.965       -2159.522          31.000  
C16  37339288.249   194435507.125        -746.679          30.000  
C24  24395251.819   127032625.844       -3341.132          26.000  
C25  21802678.120   113532279.967        -794.802          36.000  
C33  22243518.433   115827842.538        -885.587          40.000  
E21  24166928.683   126998072.656       -1089.821          37.000    24166926.285    94836206.367        -813.442          30.000  
G10  20155433.084   105917540.085        -462.269          40.000  
G12  22386183.368   117640357.852       -2087.371          27.000  
G23  21135454.629   111067528.527       -2865.577          25.000  
G25  20794310.898   109274861.699        -359.180          25.000  
G31  21855286.900   114850245.206        1121.624          27.000  
J01  38076244.664   200092012.697         471.447          26.000    38076251.859   149419393.664         353.585          28.000  
R01  20406519.760   109084543.1831      -1113.461          17.000  
R12  19075138.756   101895967.510       -1038.985          30.000  
> 2021  9 12 10 30 25.9999263  0 15
C06  36692385.890   191066902.289        -770.561          23.000  
C13  36917078.239   192236929.430       -2160.085          32.000  
C16  37339277.756   194435472.923        -747.392          23.000  
C24  24395741.380   127035187.996       -3343.079          17.000  
C25  21802681.418   113532294.802        -794.540          39.000  
C33  22243540.917   115827948.111        -885.610          40.000  
E21  24166983.545   126998374.994       -1088.828          36.000    24166983.845    94836432.057        -814.188          31.000  
G10  20155371.327   105917215.299        -462.987          43.000  
G12  22386430.697   117641658.447       -2089.536          30.000  
G25  20794227.856   109274433.482        -360.047          22.000  
G31  21854923.251   114848335.942        1120.663          28.000  
G32  21850141.862                         544.659          40.000  
J01  38076005.130   200090754.007         470.439          35.000    38076012.325   149418452.342         353.539          29.000  
R01  20406576.421   109084846.097       -1113.996          24.000  
R12  19075182.826   101896203.399       -1040.180          37.000  
> 2021  9 12 10 30 26.9999260  0 14
C06  36692442.850   191067203.103        -768.339          27.000  
C08  37824504.440   196962183.2341      -2396.434          24.000  
C13  36917403.813   192238621.136       -2159.991          27.000  
C16  37339330.819   194435751.743        -747.886          26.000  
C24  24396290.899   127038063.360       -3344.958          18.000  
C25  21802740.777   113532622.392        -797.006          38.000  
C33  22243621.861   115828366.230        -886.862          43.000  
E21  24167100.764   126998992.864       -1091.390          33.000    24167101.064    94836893.400        -814.470          31.000  
G10  20155368.329   105917206.251        -464.034          43.000  
G23  21136301.843   111072001.6511      -2868.760          22.000  
G32  21849949.695   114822253.5791        544.138          38.000  
J01  38075826.454   200089811.028         470.180          37.000    38075833.349   149417747.396         351.428          33.000  
R01  20406701.435   109085515.191       -1117.088          25.000  
R12  19075289.852   101896774.824       -1041.458          33.000  
> 2021  9 12 10 30 27.9999255  0 16
C06  36692440.152   191067190.482        -768.017          29.000  
C08  37824816.225   196963798.440       -2395.099          24.000  
C13  36917669.129   192240000.499       -2159.885          26.000  
C16  37339323.924   194435718.412        -746.937          27.000  
C25  21802747.072   113532638.737        -797.393          31.000  
C33  22243641.647   115828473.236        -888.498          42.000  
E21  24167158.924   126999296.791       -1092.933          35.000    24167157.725    94837120.067        -814.471          34.000  
G10  20155307.771   105916883.339        -465.955          39.000  
G12  22386981.115   117644577.5421      -2090.312          26.000  
G23  21136699.667   111074083.398       -2870.277          14.000  
G25  20794129.823   109273893.3831       -359.984          21.000  
G31  21854260.111   114844836.7041       1115.962          31.000  
G32  21849704.764   114820921.111         543.724          39.000  
J01  38075586.920   200088555.432         467.032          34.000    38075594.414   149416807.521         351.350          33.000  
R01  20406759.894   109085826.892       -1116.534          26.000  
R12  19075335.120   101897016.462       -1043.202          34.000  
> 2021  9 12 10 30 28.9999252  0 16
C06  36692496.513   191067490.366        -768.672          32.000  
C08  37825187.068   196965725.810       -2397.076          25.000  
C09  37677656.501   196197361.4161       -874.410          18.000  
C13  36917995.004   192241691.971       -2159.974          33.000  
C16  37339374.889   194435996.875        -746.756          26.000  
C24  24397338.374   127043506.7091      -3345.701          16.000  
C25  21802812.727   113532967.780        -797.375          41.000  
C33  22243723.191   115828892.456        -888.071          42.000  
E21  24167277.642   126999915.787       -1092.360          40.000    24167274.944    94837582.474        -816.420          33.000  
G10  20155308.071   105916876.154        -465.106          41.000  
G25  20794107.639   109273780.336        -358.776          31.000  
G31  21853958.220   114843246.636        1119.219          22.000  
G32  21849513.197   114819904.183         544.967          41.000  
J01  38075408.243   200087614.118         469.632          37.000    38075416.038   149416103.771         350.628          32.000  
R01  20406876.214   109086448.686       -1113.847          22.000  
R12  19075439.148   101897572.024       -1043.858          39.000  
> 2021  9 12 10 30 29.9999247  0 18
C06  36692494.415   191067478.007        -767.928          31.000  
C08  37825493.756   196967341.992       -2396.594          27.000  
C09  37677675.688   196197454.201        -871.602          25.000  
C13  36918260.320   192243070.252       -2158.022          33.000  
C16  37339369.792   194435962.782        -745.967          25.000  
C24  24397828.535   127046071.358       -3343.447          23.000  
C25  21802817.224   113532984.453        -798.943          38.000  
C33  22243744.776   115828999.791        -888.073          41.000  
E21  24167334.902   127000219.894       -1093.900          35.000    24167335.202    94837809.932        -815.859          33.000  
G10  20155246.313   105916553.998        -467.009          42.000  
G12  22387540.228   117647499.1581      -2091.452          30.000  
G23  21137548.380   111078564.6331      -2871.205          19.000  
G25  20794026.095   109273351.688        -359.132          30.000  
G31  21853596.370   114841338.907        1120.101          28.000  
G32  21849250.279   114818572.263         541.878          39.000  
J01  38075172.606   200086355.988         470.556          32.000    38075176.804   149415163.852         351.482          31.000  
R01  20406952.361   109086856.587       -1117.801          23.000  
R12  19075500.006   101897897.534       -1044.870          34.000  
> 2021  9 12 10 30 30.9999245  0 16
C06  36692581.055   191067933.850        -768.370          25.000  
C08  37825895.777   196969426.724       -2397.062          23.000  
C13  36918614.075   192244916.730       -2159.472          27.000  
C16  37339453.134   194436396.429        -745.750          30.000  
C24  24398408.933   127049101.546       -3341.535          24.000  
C25  21802907.761   113533471.221        -797.672          37.000  
C33  22243853.900   115829576.468        -888.477          36.000  
E21  24167483.299   127000998.157       -1092.347          37.000    24167482.700    94838390.609        -816.795          34.000  
G10  20155274.794   105916706.294        -467.460          42.000    20155278.991    79093644.5911       -349.436          29.000  
G12  22387877.795   117649275.976       -2092.430          31.000  
G23  21138034.643   111081121.226       -2871.699          24.000  
G25  20794034.190   109273396.113        -360.576          26.000  
G31  21853322.360   114839903.270        1120.590          27.000  
G32  21849082.695   114817713.465         544.194          37.000  
J01  38075023.310   200085570.832         469.406          33.000  
R12  19075637.011   101898629.462       -1045.842          37.000  
> 2021  9 12 10 30 31.9999240  0 16
C06  36692578.057   191067921.461        -768.395          32.000  
C08  37826205.163   196971042.743       -2396.988          26.000  
C13  36918877.893   192246296.447       -2159.971          30.000  
C16  37339446.839   194436361.773        -746.111          32.000  
C24  24398900.892   127051662.342       -3341.474          25.000  
C25  21802910.759   113533489.627        -798.875          38.000  
C33  22243874.886   115829685.134        -889.953          38.000  
E21  24167541.759   127001303.939       -1094.324          36.000    24167540.260    94838619.356        -815.097          32.000  
G10  20155215.435   105916386.183        -464.881          43.000    20155218.732    79093405.800        -349.634          30.000  
G12  22388125.723   117650581.407       -2093.547          26.000  
G25  20793952.047   109272968.997        -360.845          31.000  
G31  21852956.913   114837995.681        1119.234          28.000  
G32  21848829.970   114816382.042         543.502          41.000  
J01  38074784.375   200084314.259         470.453          34.000  
R01  20407157.719   109087954.3621      -1120.169          21.000  
R12  19075683.179   101898876.528       -1044.235          37.000  
> 2021  9 12 10 30 32.9999235  0 13
C06  36692575.059   191067909.373        -768.391          36.000  
C08  37826514.549   196972659.223       -2398.062          32.000  
C13  36919142.609   192247675.959       -2160.243          31.000  
C16  37339440.543   194436327.215        -745.371          32.000  
C25  21802919.753   113533508.574        -798.917          34.000  
C33  22243896.771   115829794.243        -889.933          41.000  
E21  24167599.019   127001610.457       -1094.661          39.000    24167597.820    94838847.229        -816.424          31.000  
G10  20155153.078   105916066.824        -469.318          27.000    20155157.875    79093167.640        -350.767          31.000  
G25  20793870.203   109272542.600        -362.080          29.000  
G31  21852597.162   114836089.574        1117.909          27.000  
G32  21848579.043   114815050.276         543.375          46.000  
J01  38074542.443                         469.901          35.000  
R12  19075726.349   101899106.508       -1045.580          28.000  
> 2021  9 12 10 30 33.9999229  0 15
C06  36692543.880   191067741.997        -769.060          31.000  
C08  37826792.157   196974120.852       -2398.673          27.000  
C13  36919377.047   192248900.062       -2161.355          27.000  
C16  37339401.870   194436136.252        -747.018          23.000  
C25  21802893.971   113533372.164        -800.454          40.000  
C33  22243886.578   115829747.788        -890.506          42.000  
E21  24167627.799   127001759.950       -1094.823          39.000    24167626.600    94838958.620        -817.697          26.000  
G10  20155060.442   105915590.755        -469.206          32.000    20155069.136    79092811.593        -349.615          32.000  
G12  22388589.502   117653034.9621      -2094.304          27.000  
G23  21139187.645   111087216.1441      -2873.333          21.000  
G25  20793764.077   109271959.784        -363.304          29.000  
G32  21848299.937   114813561.290         543.990          45.000  
J01  38074278.326   200081656.7841        468.338          36.000  
R01  20407238.363   109088384.6361      -1122.144          18.000  
R12  19075741.039   101899185.091       -1047.406          35.000  
> 2021  9 12 10 30 34.9999224  0 14
C06  36692539.983   191067730.283        -768.934          31.000  
C08  37827101.243   196975737.946       -2397.662          25.000  
C13  36919643.563   192250280.752       -2161.115          29.000  
C24  24400351.588   127059185.6541      -3343.182          13.000  
C25  21802895.769   113533392.224        -801.200          38.000  
C33  22243906.964   115829857.827        -890.967          44.000  
E21  24167685.659   127002067.394       -1095.403          41.000    24167684.460    94839187.546        -816.988          27.000  
G10                                                                  20155009.777    79092572.461        -349.811          22.000  
G12  22388839.229   117654342.033       -2094.716          26.000  
G23  21139584.570   111089301.421       -2873.352          24.000  
G31  21851831.192   114832121.9611       1116.196          22.000  
G32  21848049.310   114812229.948         544.535          41.000  
J01  38074035.194   200080399.944         467.894          35.000  
R12  19075787.507   101899433.442       -1048.591          38.000  
> 2021  9 12 10 30 35.9999222  0 13
C06  36692626.623   191068186.307        -769.031          30.000  
C08  37827501.466   196977823.334       -2398.001          28.000  
C09  37677933.210   196198773.6041       -869.846          18.000  
C13  36919997.618   192252129.299       -2160.493          31.000  
C25  21802989.305                        -797.838          37.000  
C33  22244017.287   115830436.131        -888.043          43.000  
E21  24167836.155   127002847.665       -1088.178          40.000    24167833.157    94839769.678        -817.823          30.000  
G10  20155031.962                        -470.393          36.000    20155038.857    79092688.519        -351.952          28.000  
G12  22389175.296   117656122.195       -2095.975          26.000  
G25  20793702.919   109271584.3901       -365.234          24.000  
G32  21847882.626   114811371.380         542.108          40.000  
J01  38073887.396   200079615.552         472.921          35.000  
R12  19075927.810   101900182.802       -1047.909          37.000  
> 2021  9 12 10 30 36.9999219  0 16
C06  36692682.984   191068487.004        -770.254          29.000  
C09  37678006.659   196199176.079        -871.173          26.000  
C13  36920317.796   192253822.196       -2161.910          29.000  
C16  37339534.078   194436810.8191       -745.497          25.000  
C24  24401485.703   127065090.6231      -3342.140          18.000  
C25  21803054.659                        -802.411          39.000  
C33  22244097.332   115830859.518        -892.147          37.000  
E21  24167959.969   127003471.592       -1096.727          37.000    24167951.875    94840235.838        -819.777          31.000  
G10  20155032.262                        -471.703          40.000  
G12  22389485.282   117657745.555       -2096.932          28.000  
G23  21140530.415   111094262.6811      -2875.226          23.000  
G25  20793682.533   109271477.006        -365.656          27.000  
G32  21847682.964   114810355.015         542.463          36.000    21847688.360    85735034.9411        407.536          31.000  
J01  38073709.619   200078673.697         468.061          31.000  
R01  20407550.447   109090052.9361      -1124.083          18.000  
R12  19076042.930   101900797.497       -1051.734          37.000  
> 2021  9 12 10 30 37.9999214  0 16
C06  36692678.487   191068476.110        -769.395          27.000  
C09  37678021.648   196199267.959        -873.624          27.000  
C13  36920582.812   192255204.174       -2163.109          26.000  
C16  37339530.781   194436775.003        -745.692          26.000  
C24  24401976.763   127067653.226       -3343.561          19.000  
C25  21803059.756   113534236.2941       -802.574          42.000  
C33  22244117.718   115830971.025        -892.153          39.000  
E21  24168016.031   127003781.050       -1097.601          41.000    24168011.234    94840467.677        -820.054          29.000  
G10  20154972.003   105915091.6781       -471.774          47.000  
G12  22389732.311   117659055.559       -2098.847          25.000  
G23  21140927.640   111096350.542       -2875.880          28.000  
G31  21850879.351   114827201.3951       1113.715          30.000  
G32  21847427.541   114809024.126         541.881          40.000    21847433.237    85734040.320         406.595          26.000  
J01  38073472.483   200077417.730         468.413          38.000  
R01  20407615.502   109090401.417       -1122.176          25.000  
R12  19076087.300   101901034.394       -1052.043          42.000  
> 2021  9 12 10 30 38.9999209  0 13
C06  36692675.489   191068464.280        -768.561          30.000  
C09  37678037.837   196199360.232        -871.385          24.000  
C13  36920847.829   192256586.890       -2163.212          27.000  
C16  37339527.783   194436740.273        -746.232          28.000  
C24  24402470.521   127070216.788       -3346.187          20.000  
C25  21803064.852   113534258.970        -804.369          40.000  
C33  22244140.802   115831083.228        -893.197          45.000  
E21  24168072.092   127004091.108       -1097.717          41.000    24168070.293    94840699.354        -820.268          33.000  
G10  20154911.145   105914776.975        -473.070          45.000  
G31  21850514.504   114825300.128        1113.247          30.000  
G32  21847177.514   114807693.549         542.564          37.000    21847177.514    85733046.884         402.957          21.000  
R01  20407678.158   109090735.970       -1122.038          22.000  
R12  19076137.665   101901304.116       -1052.708          41.000  
> 2021  9 12 10 30 39.9999206  0 17
C06  36692732.150   191068764.328        -768.719          32.000  
C08  37828861.024   196984922.8591      -2402.724          18.000  
C09  37678113.085   196199764.165        -872.448          25.000  
C13  36921171.605   192258281.582       -2163.774          26.000  
C16  37339583.244   194437019.026        -747.535          26.000  
C24  24403024.538   127073095.316       -3346.932          24.000  
C25  21803128.108   113534594.555        -806.033          40.000  
C33  22244225.643                        -895.968          43.000  
E21  24168189.311   127004716.475       -1100.606          38.000    24168189.011    94841167.832        -821.795          34.000  
G10  20154911.445   105914778.296        -475.732          46.000  
G12  22390288.726   117661991.6321      -2098.823          26.000  
G25  20793498.760   109270526.7551       -367.262          33.000  
G31  21850207.516   114823714.531        1112.502          29.000  
G32  21846985.347   114806678.165         540.826          40.000    21846985.047    85732290.678         403.411          26.000  
J01  38073051.875   200075220.1221        466.429          36.000  
R01  20407799.574   109091384.679       -1122.851          23.000  
R12  19076247.389   101901889.893       -1054.424          41.000  
> 2021  9 12 10 30 40.9999201  0 18
C06  36692731.551   191068752.620        -767.828          32.000  
C08  37829173.708   196986544.112       -2400.925          24.000  
C09  37678127.175   196199856.027        -872.697          29.000  
C13  36921437.221   192259665.403       -2165.673          31.000  
C16  37339579.047   194436986.254        -748.232          23.000  
C24  24403517.996   127075661.338       -3346.313          21.000  
C25  21803132.306   113534618.743        -804.972          43.000  
C33  22244242.731   115831633.9551       -893.405          39.000  
E21  24168249.569   127005027.662       -1098.602          37.000    24168248.670    94841400.734        -821.238          32.000  
G10  20154851.487   105914465.604        -474.865          44.000  
G12  22390542.050   117663303.537       -2100.093          29.000  
G23  21142186.469   111102932.4221      -2877.375          28.000  
G25  20793415.118   109270107.018        -368.714          29.000  
G31  21849841.170   114821814.579        1111.973          29.000  
G32  21846730.223   114805347.686         540.214          39.000    21846733.821    85731297.786         404.460          32.000  
J01  38072814.739   200073965.377         467.438          34.000  
R01  20407859.533   109091705.808       -1125.021          22.000  
R12  19076294.156   101902139.847       -1054.882          41.000  
> 2021  9 12 10 30 41.9999196  0 16
C06  36692729.152   191068740.551        -769.732          28.000  
C08  37829484.593   196988164.466       -2401.834          22.000  
C09  37678143.664   196199947.645        -871.966          30.000  
C13  36921700.738   192261050.417       -2165.656          27.000  
C25  21803137.702   113534643.297        -805.941          47.000  
C33  22244264.316   115831747.929        -895.410          42.000  
E21  24168309.228   127005339.620       -1100.440          38.000    24168308.029    94841633.089        -820.741          26.000  
G10  20154792.428   105914153.344        -475.567          46.000  
G12  22390793.276   117664617.019       -2102.471          28.000  
G23  21142583.994   111105022.664       -2878.912          27.000  
G25  20793330.577   109269688.404        -369.964          31.000  
G31  21849474.823   114819915.230        1110.952          31.000  
G32                                                                  21846481.396    85730304.874         405.246          31.000  
J01  38072574.005   200072710.006         466.898          35.000  
R01  20407917.992   109092018.111       -1123.308          22.000  
R12  19076338.226   101902375.587       -1056.663          40.000  
> 2021  9 12 10 30 42.9999191  0 15
C06  36692729.152   191068729.923        -770.289          29.000  
C09  37678159.253   196200038.730        -870.808          31.000  
C13  36921965.755   192262435.282       -2165.007          28.000  
C25  21803142.499   113534668.442        -806.008          46.000  
C33  22244284.702   115831862.448        -895.260          42.000  
E21  24168367.088   127005652.176       -1102.018          36.000    24168367.387    94841865.932        -820.795          30.000  
G10  20154733.069   105913841.741        -476.755          47.000  
G12  22391042.704   117665931.446       -2101.954          27.000  
G23  21142980.919   111107113.536       -2879.121          27.000  
G25  20793248.434   109269271.235        -371.136          33.000  
G31  21849111.775   114818016.515        1110.500          32.000  
G32  21846235.266   114802687.4631        542.245          27.000  
J01  38072341.966                         468.195          36.000  
R01  20407980.049   109092349.340       -1123.719          23.000  
R12  19076383.195   101902615.605       -1057.260          39.000  
> 2021  9 12 10 30 43.9999186  0 15
C06  36692729.452   191068719.445        -769.906          34.000  
C09  37678174.543   196200129.779        -872.277          29.000  
C24  24405001.069   127083358.1421      -3343.351          18.000  
C25  21803145.796   113534694.249        -806.702          43.000  
C33  22244303.889   115831977.597        -895.327          37.000  
E21  24168426.447   127005965.180       -1099.366          32.000    24168426.746    94842098.445        -822.226          31.000  
G10  20154673.110   105913531.159        -476.657          44.000  
G12  22391292.431   117667245.625       -2101.832          26.000  
G23  21143376.345   111109205.610       -2881.274          25.000  
G25  20793174.685                        -370.258          32.000  
G31  21848756.221   114816117.485        1112.047          31.000  
J01  38072104.830   200070252.5791        467.277          31.000  
J02  37878632.568   199053584.6781      -1338.927          26.000  
R01  20408044.505   109092694.479       -1125.851          26.000  
R12  19076429.962   101902864.854       -1057.963          40.000  
> 2021  9 12 10 30 44.9999183  0 15
C06  36692789.111   191069020.939        -770.042          34.000  
C08  37830481.403   196993346.4531      -2404.346          20.000  
C09  37678249.790   196200533.637        -872.517          27.000  
C13  36922561.143   192265514.8961      -2163.602          28.000  
C25  21803210.851   113535032.854        -807.346          44.000  
C33  22244384.833   115832405.345        -896.601          35.000  
E21                                                                                                                                  24168546.663    94842567.574        -822.016          28.000  
G10  20154674.309   105913536.274        -478.646          44.000  
G23  21143834.128   111111615.022       -2882.718          23.000  
G25  20793158.496   109268770.2571       -372.839          31.000  
G31  21848454.630   114814533.368        1110.457          30.000  
J01  38071925.554   200069312.015         468.102          31.000  
J02  37878797.154   199054451.314       -1339.366          27.000  
R01  20408175.514   109093394.820       -1128.485          25.000  
R12  19076536.988   101903436.812       -1059.076          39.000  
> 2021  9 12 10 30 45.9999181  0 18
C06  36692877.250                        -768.779          34.000  
C08  37830881.026   196995434.875       -2399.244          20.000  
C09  37678355.317   196201093.942        -873.355          28.000  
C13  36922917.596   192267366.575       -2164.308          28.000  
C16  37339698.964   194437600.1851       -750.163          17.000  
C23  23981446.490   124877595.1071       1689.537          28.000  
C25  21803306.785   113535528.069        -807.875          44.000  
C33  22244500.553   115832989.676        -897.006          36.000  
E21                                                                                                                                  24168696.560    94843154.246        -822.568          32.000  
G10  20154706.087   105913699.651        -479.134          45.000  
G12  22391937.884   117670660.6391      -2099.921          19.000  
G23  21144321.291   111114182.124       -2881.596          20.000  
G25  20793163.892   109268827.298        -372.468          31.000  
G32  21845607.501                         541.818          35.000  
J01  38071776.558   200068528.456         468.626          32.000  
J02  37878990.521   199055476.333       -1340.575          27.000  
R01  20408328.108   109094210.806       -1126.870          24.000  
R12  19076679.989   101904201.122       -1060.619          39.000  
> 2021  9 12 10 30 46.9999176  0 17
C06  36692876.950                        -770.455          35.000  
C08  37831193.110   196997052.529       -2398.089          21.000  
C09  37678371.206   196201186.312        -872.109          26.000  
C13  36923184.411   192268750.104       -2164.536          28.000  
C23  23980974.017   124875124.570        1689.820          29.000  
C24  24406623.846   127091816.7321      -3340.344          17.000  
C25  21803311.581   113535555.582        -809.000          44.000  
C33  22244526.035   115833106.205        -898.342          37.000  
E21  24168754.120   127007696.7081      -1102.998          31.000    24168756.818    94843389.312        -823.783          31.000  
G10  20154646.728   105913391.187        -479.985          44.000  
G12  22392189.410   117671974.020       -2101.845          19.000  
G23  21144718.516   111116275.803       -2881.603          21.000  
G25  20793086.846   109268412.721        -372.509          31.000  
G32  21845358.673                         540.463          36.000  
J02  37879093.949   199056028.536       -1338.802          27.000  
R01  20408392.864   109094556.594       -1124.796          25.000  
R12  19076729.455   101904464.784       -1060.531          38.000  
> 2021  9 12 10 30 47.9999171  0 19
C06  36692875.151   191069419.3281       -769.794          37.000  
C08  37831507.292   196998671.198       -2400.044          21.000  
C09  37678386.196   196201277.647        -871.822          23.000  
C13  36923451.227   192270134.133       -2164.994          29.000  
C16  37339686.373   194437539.4231       -747.767          19.000  
C23  23980499.745   124872654.187        1689.151          29.000  
C24  24407116.705   127094377.687       -3341.945          18.000  
C25  21803317.278   113535583.714        -808.576          44.000  
C33  22244548.520   115833223.316        -897.448          37.000  
E21  24168815.277   127008011.714       -1102.738          35.000    24168817.676    94843625.626        -825.470          31.000  
G10  20154589.168   105913083.562        -480.331          44.000  
G12  22392443.334   117673289.174       -2103.494          28.000  
G25  20793008.600   109267998.919        -374.851          32.000  
G31  21847457.820   114809316.3131       1107.312          26.000  
G32  21845105.648   114796783.9511        540.831          39.000  
J01  38071295.990   200066017.3091        467.524          31.000  
J02  37879197.078   199056580.334       -1340.354          25.000  
R01  20408451.623   109094870.913       -1128.940          23.000  
R12  19076785.816   101904766.437       -1061.961          39.000  
> 2021  9 12 10 30 48.9999168  0 17
C06  36692934.210   191069720.677        -768.862          36.000  
C08  37831880.834   197000602.700       -2399.087          22.000  
C09  37678463.243   196201680.621        -871.545          25.000  
C13  36923779.799   192271831.205       -2166.297          30.000  
C23  23980086.631   124870497.149        1688.355          27.000  
C24  24407668.623   127097252.315       -3344.348          18.000  
C25  21803381.433   113535924.612        -809.791          44.000  
C33  22244632.461   115833653.080        -899.623          39.000  
E21  24168935.794   127008642.072       -1105.344          33.000    24168938.192    94844098.093        -825.495          30.000  
G10  20154590.667   105913091.714        -482.008          45.000    20154594.265    79090957.7681       -359.464          29.000  
G12  22392755.418   117674923.307       -2107.912          26.000  
G23  21145577.421   111120779.6121      -2880.668          15.000  
G25  20792988.214   109267900.967        -375.076          32.000  
G32  21844912.282   114795770.023         540.716          39.000    21844921.276    85724179.8331        404.467          30.000  
J02  37879359.565   199057448.488       -1341.069          26.000  
R01  20408577.836   109095545.599       -1128.758          24.000  
R12  19076890.144   101905323.069       -1062.324          39.000  
> 2021  9 12 10 30 49.9999163  0 19
C06  36692932.411   191069709.705        -769.388          37.000  
C08  37832191.419   197002222.605       -2401.620          23.000  
C09  37678480.031   196201772.054        -872.485          23.000  
C13  36924046.315   192273216.651       -2165.975          30.000  
C16  37339729.243   194437785.1911       -748.150          20.000  
C23  23979614.159   124868028.455        1687.995          29.000  
C24  24408162.081   127099816.871       -3345.799          20.000  
C25  21803387.129   113535953.851        -809.646          44.000  
C33  22244657.944   115833771.095        -898.560          39.000  
E21  24168997.551   127008959.294       -1104.976          35.000    24168998.151    94844335.307        -825.516          29.000  
G10  20154532.807   105912785.501        -481.916          45.000    20154535.505    79090729.560        -360.461          29.000  
G12  22393013.539   117676243.740       -2108.705          27.000  
G23  21145970.149   111122871.564       -2880.468          14.000  
G25  20792912.666   109267488.639        -376.818          33.000  
G31  21846791.981   114805842.6471       1106.102          25.000  
G32  21844665.253   114794441.085         541.024          38.000    21844668.251    85723187.169         404.419          31.000  
J02  37879463.593   199058003.368       -1343.400          25.000  
R01  20408639.593   109095875.052       -1128.378          24.000  
R12  19076939.610   101905587.481       -1063.812          39.000  
> 2021  9 12 10 30 50.9999158  0 16
C06  36692929.114   191069698.623        -770.183          39.000  
C08  37832502.603   197003842.425       -2400.163          19.000  
C09  37678495.620   196201861.927        -869.026          19.000  
C13  36924311.931   192274601.610       -2165.459          31.000  
C25  21803393.125   113535983.428        -810.985          43.000  
C33  22244679.529   115833889.413        -899.627          38.000  
E21  24169059.608                       -1106.492          37.000    24169058.409    94844572.405        -825.867          32.000  
G10  20154474.648   105912479.813        -482.656          45.000    20154477.046    79090501.933        -360.501          27.000  
G12  22393267.763   117677564.132       -2107.510          28.000  
G23  21146366.775   111124966.114       -2883.723          17.000  
G25  20792835.320   109267076.950        -377.729          34.000  
G31  21846432.529   114803949.363        1105.094          26.000  
G32  21844412.528   114793112.073         540.317          41.000    21844415.226    85722194.495         404.276          33.000  
J01  38070639.745   200062566.7971        466.787          31.000  
J02  37879570.919   199058557.709       -1341.538          26.000  
R12  19076988.176   101905847.551       -1064.518          39.000  
> 2021  9 12 10 30 51.9999153  0 14
C06  36692927.315   191069687.658        -769.984          38.000  
C13  36924576.048   192275986.138       -2165.008          31.000  
C16  37339712.455   194437719.4091       -746.990          26.000  
C23  23978663.816   124863092.6121       1686.789          29.000  
C24  24409152.295   127104951.8101      -3350.228          21.000  
C25  21803398.821   113536013.668        -811.539          43.000  
C33  22244702.013   115834008.302        -899.503          39.000  
E21  24169118.667   127009584.0891      -1105.320          37.000    24169119.267    94844809.536        -824.889          30.000  
G10  20154417.087   105912174.989        -482.895          45.000    20154420.085    79090276.666        -364.137          26.000  
G12  22393523.186   117678884.462       -2108.344          28.000  
G25  20792755.275   109266666.164        -376.503          35.000  
G32  21844159.803   114791783.300         541.048          42.000    21844162.801    85721202.780         401.424          31.000  
J02  37879675.546   199059111.136       -1340.912          25.000  
R12  19077039.740   101906122.916       -1065.906          39.000  
> 2021  9 12 10 30 52.9999150  0 15
C06  36692985.175   191069988.856        -769.583          38.000  
C13  36924900.423   192277682.981       -2165.965          27.000  
C16  37339764.919   194437998.143        -746.716          26.000  
C23  23978251.902   124860936.846        1688.056          30.000  
C24  24409704.813   127107833.074       -3350.044          22.000  
C25  21803465.075   113536356.708        -812.343          43.000  
C33  22244785.056   115834439.862        -900.489          40.000  
E21  24169238.584   127010217.354       -1107.066          36.000    24169240.083    94845281.553        -825.242          29.000  
G10  20154420.385   105912185.934        -484.040          45.000    20154422.783    79090285.486        -360.071          23.000  
G12  22393838.568   117680520.563       -2109.375          30.000  
G25  20792732.791   109266571.166        -378.212          35.000  
G32  21843968.535   114790769.631         540.114          41.000    21843970.034    85720448.122         403.215          31.000  
J01  38070208.943                         465.961          33.000  
J02  37879840.732   199059979.662       -1340.998          27.000  
R12  19077146.167   101906691.216       -1066.880          39.000  
> 2021  9 12 10 30 53.9999148  0 15
C06  36693073.314   191070446.182        -769.546          38.000  
C13  36925253.279   192279536.738       -2165.406          29.000  
C16  37339847.661   194438432.886        -747.201          28.000  
C23  23977870.266   124858936.952        1686.934          31.000  
C24  24410286.111   127110869.614       -3348.354          23.000  
C25  21803561.309   113536856.359        -813.117          42.000  
C33  22244897.478   115835028.026        -901.010          38.000  
E21  24169390.579   127011008.737       -1106.356          38.000    24169390.879    94845872.063        -826.017          29.000  
G10  20154451.264   105912355.163        -484.408          45.000    20154453.662    79090406.944        -356.373          23.000  
G23  21147716.141   111132044.3301      -2888.883          18.000  
G25  20792747.181   109266634.430        -377.065          34.000  
G32  21843803.350   114789913.639         540.634          41.000    21843806.647    85719809.317         402.929          31.000  
J01  38070060.845   200059517.2401        467.117          31.000  
J02  37880034.698   199061005.084       -1340.549          27.000  
R12  19077293.664   101907478.888       -1068.233          39.000  
> 2021  9 12 10 30 54.9999142  0 15
C06  36693041.536   191070278.874        -769.489          39.000  
C13  36925486.518   192280765.754       -2165.699          27.000  
C16  37339810.487   194438243.318        -746.827          28.000  
C23  23977367.514   124856313.644        1686.060          31.000  
C24  24410747.791   127113281.222       -3348.785          24.000  
C25  21803536.126   113536731.953        -812.597          41.000  
C33  22244892.681   115834992.001        -900.373          37.000  
E21  24169422.357   127011170.259       -1106.247          38.000    24169421.757    94845993.863        -828.619          27.000  
G10  20154363.425   105911894.714        -485.184          44.000  
G23  21148087.883   111133988.476       -2889.578          19.000  
G25  20792633.559   109266068.095        -379.702          34.000  
G32  21843517.947   114788427.380         541.171          42.000    21843523.343                         405.380          32.000  
J01  38069787.435   200058104.888         463.108          30.000  
J02  37880108.746   199061399.935       -1341.373          27.000  
R12  19077318.247   101907610.366       -1067.847          38.000  
> 2021  9 12 10 30 55.9999137  0 15
C06  36693040.337   191070267.721        -769.426          38.000  
C13  36925750.635   192282150.679       -2165.650          27.000  
C16  37339803.892   194438209.739        -747.033          29.000  
C23  23976895.341   124853847.015        1685.872          30.000  
C24  24411240.350   127115849.640       -3349.551          25.000  
C25  21803543.621   113536764.229        -813.646          40.000  
C33  22244913.967   115835112.659        -901.432          38.000  
E21  24169485.014   127011489.962       -1107.747          38.000    24169482.915    94846234.736        -827.813          28.000  
G10  20154304.965   105911592.599        -485.969          43.000  
G12  22394654.004   117684800.3591      -2110.107          30.000  
G25  20792553.515   109265660.212        -380.681          32.000  
G32  21843267.021   114787098.810         540.731          41.000    21843271.518    85717685.0181        402.182          34.000  
J01  38069554.196   200056850.367         467.593          27.000  
J02  37880212.774   199061953.441       -1340.752          25.000  
R12  19077360.218   101907834.139       -1069.256          37.000  
> 2021  9 12 10 30 56.9999132  0 15
C06  36693037.639   191070256.854        -768.368          36.000  
C13  36926010.855   192283536.314       -2168.583          27.000  
C16  37339793.699   194438175.397        -746.229          27.000  
C23  23976423.467   124851381.398        1684.745          32.000  
C24  24411732.010   127118418.469       -3348.269          24.000  
C25  21803549.317   113536797.426        -813.863          40.000  
C33  22244939.449   115835234.244        -902.791          32.000  
E21  24169547.071   127011810.521       -1108.188          39.000    24169543.473    94846474.362        -827.886          28.000  
G10  20154248.004   105911291.552        -487.317          42.000  
G12  22394904.031   117686124.532       -2112.859          27.000  
G23  21148882.333   111138184.8551      -2885.931          18.000  
G25  20792476.768   109265253.388        -379.900          33.000  
G31  21844426.618   114793228.5501       1105.565          24.000  
G32  21843014.596   114785770.635         539.936          41.000    21843019.992    85716693.276         402.727          33.000  
R12  19077406.386   101908080.791       -1070.313          36.000  
> 2021  9 12 10 30 57.9999127  0 14
C06  36693036.739   191070245.925        -771.460          36.000  
C13  36926274.972   192284923.680       -2167.758          26.000  
C16  37339785.904   194438141.232        -746.340          26.000  
C23  23975950.995   124848916.349        1684.059          31.000  
C24  24412223.369   127120986.433       -3348.863          25.000  
C25  21803555.013   113536830.955        -815.305          40.000  
C33  22244963.432   115835355.806        -903.557          30.000  
E21  24169607.929   127012131.434       -1109.825          39.000    24169603.732    94846713.687        -827.674          32.000  
G10  20154190.144   105910991.050        -487.262          42.000  
G12  22395154.357   117687450.128       -2113.350          28.000  
G32  21842765.468   114784442.460         539.982          39.000    21842766.667    85715701.488         403.520          34.000  
J01  38069084.421   200054342.6901        466.530          26.000  
J02  37880427.726   199063060.8551      -1341.967          30.000  
R12  19077457.951   101908356.180       -1070.415          35.000  
> 2021  9 12 10 30 58.9999124  0 17
C06  36693092.800   191070547.304        -769.618          35.000  
C09  37678831.088   196203528.4501       -873.551          19.000  
C13  36926595.750   192286623.032       -2168.547          24.000  
C16  37339838.668   194438419.769        -745.568          27.000  
C23  23975535.782   124846763.864        1685.027          30.000  
C24  24412774.688   127123867.108       -3349.213          23.000  
C25  21803622.166   113537177.324        -815.175          40.000  
C33  22245044.076   115835789.981        -903.485          32.000  
E21  24169727.246   127012768.349       -1110.112          38.000    24169723.648    94847187.901        -827.905          32.000  
G10  20154193.442   105911006.528        -488.743          41.000  
G12  22395463.443   117689091.966       -2116.195          27.000  
G25  20792382.933   109264757.1301       -383.058          30.000  
G31  21843788.960   114789760.3231       1101.999          22.000  
G32  21842567.605   114783429.596         539.839          41.000    21842573.001    85714945.040         401.754          31.000  
J01  38068908.743   200053402.504         467.453          27.000  
J02  37880593.811   199063930.292       -1341.904          30.000  
R12  19077564.977   101908928.213       -1071.004          34.000  
> 2021  9 12 10 30 59.9999119  0 14
C06  36693091.901   191070536.780        -770.010          35.000  
C09  37678848.176   196203621.188        -872.832          26.000  
C13  36926863.764   192288012.764       -2170.865          23.000  
C16  37339828.175   194438384.377        -745.848          21.000  
C24  24413266.647   127126436.520       -3350.351          21.000  
C25  21803630.860   113537212.293        -816.112          41.000  
C33  22245066.861   115835912.960        -903.214          30.000  
E21  24169787.504   127013090.765       -1108.387          34.000    24169784.506    94847427.894        -829.279          29.000  
G10  20154138.880   105910707.826        -489.742          44.000  
G12  22395712.571   117690421.236       -2117.206          25.000  
G25  20792308.284   109264352.829        -381.942          30.000  
G32  21842315.180   114782102.018         539.906          39.000    21842319.977    85713953.706         403.039          32.000  
J01  38068672.506   200052147.896         466.268          30.000  
R12  19077611.744   101909178.439       -1073.389          38.000  
> 2021  9 12 10 31  0.9999114  0 17
C06  36693088.004   191070526.238        -770.476          35.000  
C09  37678866.164   196203713.231        -872.429          28.000  
C13  36927129.080   192289401.963       -2169.183          26.000  
C16  37339817.382   194438348.599        -744.435          21.000  
C23  23974577.645   124841833.7761       1683.236          22.000  
C24  24413761.005   127129006.028       -3350.429          23.000  
C25  21803639.554   113537247.437        -816.640          42.000  
C33  22245089.045   115836035.871        -903.975          33.000  
E21  24169848.962   127013415.710       -1109.964          35.000    24169845.964    94847669.378        -830.437          33.000  
G10  20154081.020   105910409.461        -489.865          45.000  
G12  22395964.996   117691750.926       -2116.391          23.000  
G23  21150551.878   111146899.6941      -2891.353          25.000  
G25  20792236.934   109263948.762        -381.321          30.000  
G32  21842064.254   114780774.230         539.049          40.000    21842067.251    85712961.136         402.095          28.000  
J01  38068434.471   200050893.717         466.370          33.000  
J02  37880811.160   199065038.6991      -1342.145          30.000  
R12  19077659.411   101909433.258       -1074.215          38.000  
> 2021  9 12 10 31  1.9999112  0 14
C06  36693175.243   191070983.512        -769.339          31.000  
C09  37678975.888   196204274.199        -873.613          26.000  
C23  23974193.311   124839837.669        1683.012          30.000  
C24  24414343.502   127132043.053       -3348.645          24.000  
C25  21803734.289   113537749.848        -816.230          38.000  
C33  22245202.966   115836627.887        -904.526          31.000  
E21  24170000.057   127014210.336       -1109.899          31.000    24169997.059    94848264.230        -830.747          32.000  
G10  20154113.398                        -490.172          40.000  
G23  21151044.137   111149476.602       -2892.946          24.000  
G25  20792248.626   109264018.898        -385.283          26.000  
G32  21841904.164   114779919.735         537.421          39.000    21841905.064    85712323.081         403.244          31.000  
J01  38068287.573   200050112.910         465.834          31.000  
J02  37881009.623   199066065.385       -1342.384          28.000  
R12  19077796.416   101910164.910       -1073.128          35.000  
> 2021  9 12 10 31  2.9999109  0 13
C06  36693232.804   191071284.608        -771.152          32.000  
C09  37679055.633   196204679.429        -872.907          28.000  
C16  37339960.084   194439062.1561       -748.383          27.000  
C23  23973777.499   124837685.117        1683.952          25.000  
C25  21803799.644   113538099.012        -818.796          44.000  
C33  22245286.009   115837064.218        -905.133          41.000  
E21  24170120.574   127014847.971       -1110.982          40.000    24170117.876    94848741.857        -831.779          31.000  
G10  20154116.995   105910602.7521       -492.981          43.000  
G12  22396623.640   117695194.2381      -2115.883          28.000  
G25  20792228.540   109263931.295        -385.223          26.000  
G32  21841706.301   114778907.624         539.248          35.000    21841711.997    85711566.341         403.949          28.000  
J02  37881173.609   199066935.733       -1343.296          30.000  
R12  19077906.140   101910750.882       -1075.757          38.000  
> 2021  9 12 10 31  3.9999104  0 18
C06  36693230.705                        -770.639          36.000  
C08  37836877.175   197026656.1671      -2404.939          29.000  
C09  37679072.721   196204771.452        -872.313          27.000  
C16  37339957.985   194439030.094        -748.762          28.000  
C23  23973302.028   124835222.808        1680.543          27.000  
C24  24415395.174   127137494.7121      -3351.427          26.000  
C25  21803807.138   113538137.779        -818.311          44.000  
C33  22245309.093   115837189.803        -907.940          40.000  
E21  24170180.832   127015172.928       -1114.197          39.000    24170180.232    94848985.629        -830.945          33.000  
G10  20154059.735   105910308.455        -492.407          44.000  
G12  22396874.866   117696522.355       -2115.831          26.000  
G23  21151904.541   111153998.8641      -2891.732          24.000  
G25  20792149.694   109263529.053        -386.191          29.000  
G31  21842132.007   114781108.8401       1098.890          23.000  
G32  21841455.375   114777581.246         539.661          39.000    21841459.572    85710574.927         403.480          30.000  
J01  38067852.574                         465.918          38.000  
J02  37881279.436   199067491.441       -1342.578          27.000  
R12  19077958.304   101911029.348       -1078.597          40.000  
> 2021  9 12 10 31  4.9999099  0 16
C06  36693228.307   191071271.3721       -770.399          32.000  
C08  37837189.859   197028280.109       -2404.348          25.000  
C09  37679089.809   196204862.451        -871.894          24.000  
C13  36928360.028   192295732.4361      -2170.973          22.000  
C16  37339953.488   194438999.076        -749.645          27.000  
C23  23972827.757   124832762.165        1680.265          28.000  
C24  24415888.932   127140066.008       -3352.072          24.000  
C25  21803813.134   113538175.669        -819.213          39.000  
C33  22245331.278   115837316.597        -907.077          32.000  
E21  24170245.887   127015499.106       -1114.101          32.000    24170242.589    94849228.160        -830.986          30.000  
G10  20154003.674   105910013.579        -493.376          43.000  
G25  20792072.048   109263127.909        -387.338          28.000  
G32  21841203.250   114776254.479         538.903          39.000    21841207.147    85709582.902         404.717          30.000  
J01  38067618.136   200046662.7301        466.467          32.000  
J02  37881386.162   199068045.754       -1341.882          29.000  
R12  19078008.969   101911300.482       -1077.845          35.000  
> 2021  9 12 10 31  5.9999094  0 17
C06  36693225.908   191071261.175        -771.143          33.000  
C08  37837501.643   197029904.234       -2403.974          19.000  
C13  36928625.045   192297121.849       -2170.101          22.000  
C16  37339947.792   194438967.689        -748.487          28.000  
C23  23972353.785   124830302.149        1679.951          27.000  
C24  24416380.591   127142637.533       -3351.611          25.000  
C25  21803820.629   113538214.321        -819.257          38.000  
C33  22245354.661   115837443.204        -907.690          31.000  
E21  24170307.944                       -1113.342          34.000    24170305.246    94849471.376        -833.100          33.000  
G10  20153948.812   105909719.625        -493.907          44.000  
G12  22397379.717   117699182.6911      -2118.690          25.000  
G25  20791994.402   109262727.907        -388.365          30.000  
G31  21841406.209   114777343.0051       1093.652          17.000  
G32  21840944.529   114774927.919         540.356          34.000    21840953.822    85708590.602         403.461          29.000  
J01  38067383.699   200045409.792         465.560          33.000  
J02  37881494.987   199068600.272       -1342.898          30.000  
R12  19078063.831   101911592.657       -1078.514          34.000  
> 2021  9 12 10 31  6.9999089  0 16
C06  36693225.908   191071251.239        -770.886          32.000  
C08  37837813.427   197031527.923       -2404.296          21.000  
C09  37679116.790   196205044.1351       -872.707          25.000  
C13  36928891.560   192298511.987       -2172.026          20.000  
C16  37339943.895   194438935.289        -747.998          27.000  
C23  23971880.712   124827841.191        1680.192          26.000  
C25  21803829.623   113538253.746        -820.572          39.000  
C33  22245378.645   115837570.304        -907.729          33.000  
E21  24170372.100   127016153.0581      -1115.200          37.000    24170367.603    94849715.290        -831.664          32.000  
G10  20153894.549   105909426.643        -495.760          45.000  
G12  22397633.341   117700513.519       -2120.173          23.000  
G25  20791918.255   109262329.239        -389.945          29.000  
G32  21840690.605   114773601.755         538.726          33.000    21840701.097    85707599.813         401.868          30.000  
J01  38067147.762   200044157.067         463.490          31.000  
J02  37881602.013   199069155.880       -1343.776          30.000  
R12  19078119.892   101911892.207       -1079.967          36.000  
> 2021  9 12 10 31  7.9999086  0 15
C06  36693285.567   191071553.852        -770.297          33.000  
C08  37838184.570   197033463.938       -2404.308          24.000  
C09  37679191.139   196205448.553        -873.326          27.000  
C16  37339998.457   194439215.357        -749.451          25.000  
C23  23971470.896   124825693.003        1679.046          28.000  
C25  21803899.175   113538606.283        -820.822          42.000  
C33  22245466.784   115838010.249        -908.635          38.000  
E21  24170493.516   127016795.801       -1115.512          38.000    24170489.618    94850195.661        -832.902          31.000  
G10  20153898.446   105909449.737        -496.263          45.000  
G12  22397944.825   117702159.128       -2115.969          18.000  
G25  20791902.066   109262247.138        -391.129          31.000  
G32  21840499.337   114772591.183         538.600          32.000    21840509.230    85706845.536         401.199          30.000  
J01  38066969.385   200043219.852         464.252          30.000  
J02  37881766.898   199070027.142       -1343.690          28.000  
R12  19078233.214   101912497.503       -1081.089          38.000  
> 2021  9 12 10 31  8.9999081  0 16
C06  36693284.068                        -771.641          34.000  
C08  37838497.253   197035088.458       -2405.475          26.000  
C09  37679206.728   196205540.323        -872.016          26.000  
C16  37339991.862   194439184.638        -749.432          25.000  
C23  23970999.922   124823233.225        1679.316          27.000  
C24  24417917.927   127150667.4631      -3354.162          20.000  
C25  21803905.770   113538647.112        -821.814          42.000  
C33  22245494.665                        -908.953          37.000  
E21  24170553.474   127017123.909       -1116.794          38.000    24170553.474    94850446.042        -837.508          32.000  
G10  20153842.985   105909158.455        -497.058          46.000  
G25  20791828.617   109261850.706        -391.082          33.000  
G31  21840413.296   114772005.6731       1096.510          21.000  
G32  21840250.809   114771265.092         540.236          29.000    21840257.105    85705855.313         402.038          32.000  
J01  38066724.455   200041968.329         463.414          28.000  
J02  37881873.025   199070583.094       -1343.479          27.000  
R12  19078292.573   101912814.633       -1082.755          37.000  
> 2021  9 12 10 31  9.9999078  0 15
C06  36693339.829   191071847.5101       -771.058          34.000  
C09  37679282.575   196205944.832        -874.086          26.000  
C16  37340046.724   194439465.738        -748.724          25.000  
C23  23970589.806   124821085.782        1679.277          26.000  
C24  24418471.944   127153552.993       -3353.351          21.000  
C25  21803972.324   113539001.295        -822.079          40.000  
C33  22245580.105   115838570.6291       -908.545          34.000  
E21  24170676.389   127017767.547       -1117.642          32.000    24170675.190    94850927.061        -832.688          31.000  
G10  20153846.582   105909183.450        -496.588          45.000  
G12  22398510.534   117705132.1771      -2117.613          17.000  
G25  20791812.128   109261770.656        -393.288          31.000  
G32  21840053.845   114770254.529         537.117          29.000    21840065.237    85705100.464         401.637          31.000  
J01  38066548.177   200041032.139         464.056          27.000  
J02  37882039.110   199071454.112       -1344.166          28.000  
R12  19078402.597   101913402.787       -1084.401          34.000  
> 2021  9 12 10 31 10.9999073  0 14
C06  36693338.630   191071838.351        -771.723          35.000  
C08  37839180.780   197038650.5081      -2409.438          18.000  
C09  37679297.265   196206038.696        -875.150          20.000  
C16  37340043.426   194439433.947        -748.729          28.000  
C23  23970118.232   124818626.532        1677.997          27.000  
C24  24418964.503   127156125.625       -3352.283          24.000  
C25  21803980.119   113539043.705        -824.049          39.000  
C33  22245606.787   115838700.139        -909.865          29.000  
E21  24170738.746   127018098.132       -1119.249          26.000  
G10  20153788.123   105908894.138        -499.218          38.000  
G31  21839759.749   114768556.3991       1094.119          16.000  
G32  21839802.919   114768929.743         536.893          32.000    21839814.311    85704111.708         400.874          27.000  
J02  37882146.136   199072010.543       -1343.827          29.000  
R12  19078454.161   101913677.886       -1085.686          31.000  
> 2021  9 12 10 31 11.9999068  0 14
C06  36693335.033   191071829.323        -772.928          35.000  
C13  36930336.260   192306097.8481      -2171.618          20.000  
C16  37340038.329   194439402.035        -748.758          27.000  
C23  23969648.458   124816167.842        1677.791          26.000  
C25  21803989.112   113539086.626        -823.134          38.000  
C33  22245628.672   115838830.574        -912.047          27.000  
E21  24170800.503   127018429.639       -1117.575          26.000  
G10  20153735.659   105908605.624        -499.487          39.000  
G12  22399014.785   117707798.9971      -2124.627          16.000  
G25  20791654.137   109260982.1751       -394.076          29.000  
G32                                                                  21839562.486    85703122.738         400.207          27.000  
J01  38066074.505   200038526.6561        465.225          30.000  
J02  37882253.162   199072566.795       -1344.941          28.000  
R12  19078505.725   101913953.301       -1087.053          31.000  
> 2021  9 12 10 31 12.9999066  0 15
C06  36693424.970   191072288.640        -771.479          35.000  
C09  37679422.579   196206693.7501       -873.650          25.000  
C13  36930693.313   192307957.738       -2172.826          20.000  
C16  37340124.370   194439838.913        -749.234          22.000  
C23  23969269.520   124814179.221        1676.423          24.000  
C25  21804087.444   113539598.608        -825.244          39.000  
C33  22245742.593   115839430.366        -912.335          31.000  
E21  24170950.999   127019232.645       -1119.259          26.000  
G10  20153774.332   105908790.547        -500.794          41.000    20153775.532    79087743.9541       -373.735          33.000  
G12  22399357.148   117709608.317       -2125.417          16.000  
G25  20791670.026   109261061.564        -394.778          31.000  
G32  21839388.906   114766754.3671        535.803          31.000    21839400.298    85702486.988         399.958          29.000  
J01  38065926.108   200037747.009         464.626          30.000  
J02  37882448.327   199073596.833       -1346.035          28.000  
R12  19078648.726   101914717.852       -1087.454          31.000  
> 2021  9 12 10 31 13.9999060  0 13
C06  36693393.492   191072123.562        -771.569          36.000  
C08  37840175.492   197043852.4211      -2409.854          17.000  
C09  37679411.486   196206631.348        -874.362          25.000  
C16  37340089.594   194439651.280        -747.232          20.000  
C24  24420511.132   127164155.8931      -3354.244          22.000  
C25  21804066.759   113539486.775        -825.393          40.000  
C33  22245736.597   115839405.660        -911.916          35.000  
E21  24170985.475   127019407.510       -1120.112          28.000  
G10  20153689.191   105908346.059        -501.510          44.000    20153691.290                        -376.472          34.000  
G32  21839111.897   114765272.683         537.322          33.000    21839118.193    85701380.809         401.326          25.000  
J01  38065658.993   200036336.887         464.523          30.000  
J02  37882524.774   199073997.218       -1345.754          26.000  
R12  19078671.810   101914840.373       -1087.686          34.000  
> 2021  9 12 10 31 14.9999055  0 15
C06  36693393.192   191072114.878        -771.425          37.000  
C08  37840488.175   197045482.158       -2410.820          17.000  
C09  37679427.375   196206724.682        -874.249          24.000  
C16  37340083.598   194439617.643        -747.212          23.000  
C23  23968289.498   124809110.6501       1675.180          24.000  
C25  21804072.455   113539532.071        -825.962          39.000  
C33  22245762.079   115839537.698        -913.566          33.000  
E21  24171049.031   127019740.952       -1120.945          23.000  
G10  20153634.029   105908060.216        -502.211          44.000    20153637.327    79087200.0481       -373.639          32.000  
G12  22399841.013   117712128.4021      -2127.989          18.000  
G25  20791502.143   109260120.8581       -398.188          33.000  
G32  21838857.374                         536.128          38.000    21838866.068    85700391.977         398.293          23.000  
J01  38065421.857   200035084.964         463.333          33.000  
J02  37882629.102   199074555.437       -1346.774          29.000  
R12  19078723.375   101915116.348       -1089.662          33.000  
> 2021  9 12 10 31 15.9999050  0 14
C06  36693391.694   191072106.320        -771.459          38.000  
C13  36931476.071   192311976.5351      -2172.729          25.000  
C16  37340077.302   194439584.906        -748.419          26.000  
C23  23967817.026   124806654.562        1674.548          23.000  
C24  24421503.745   127169304.0391      -3353.900          22.000  
C25  21804081.748   113539577.909        -826.755          38.000  
C33  22245790.859                        -912.647          33.000  
G10  20153577.369   105907775.153        -503.325          43.000    20153582.765    79086987.169        -376.076          32.000  
G12  22400095.237   117713469.163       -2128.808          17.000  
G25  20791422.997                        -400.977          30.000  
G32  21838607.047   114762646.9731        537.110          35.000    21838613.043    85699405.425         397.902          26.000  
J01  38065185.321   200033833.930         462.755          34.000  
J02  37882736.128   199075113.901       -1346.356          28.000  
R12  19078776.738   101915401.705       -1090.305          33.000  
> 2021  9 12 10 31 16.9999045  0 13
C06  36693388.396   191072098.023        -771.329          38.000  
C13  36931745.884   192313368.952       -2172.422          27.000  
C16  37340069.808   194439553.354        -749.733          26.000  
C24  24421994.205   127171877.066       -3353.448          22.000  
C25  21804091.641   113539624.468        -827.111          40.000  
C33  22245817.541   115839804.5281       -913.317          33.000  
G10  20153523.406   105907491.032        -504.004          41.000    20153529.102    79086775.009        -375.181          32.000  
G12  22400356.656   117714808.084       -2125.300          18.000  
G25  20791350.448   109259276.8321       -399.358          28.000  
G32  21838355.521   114761323.399         537.322          37.000    21838360.318    85698418.453         399.272          25.000  
J01  38064948.185                         462.531          33.000  
J02  37882844.652   199075672.769       -1346.731          28.000  
R12  19078832.799   101915700.640       -1091.290          35.000  
> 2021  9 12 10 31 17.9999045  0 15
C06  36693536.193   191072870.350        -772.059          37.000  
C09  37679631.234   196207795.0311       -875.928          14.000  
C13  36932164.694   192315542.433       -2173.902          26.000  
C16  37340211.010   194440303.683        -750.869          27.000  
C23  23967026.173   124802526.0521       1672.819          25.000  
C24  24422639.658   127175232.088       -3356.854          23.000  
C25  21804250.232   113540452.215        -827.780          41.000  
C33  22245996.517   115840719.031        -913.481          32.000  
G10  20153619.340   105907995.467        -504.512          40.000    20153624.436    79087151.696        -376.717          30.000  
G12  22400767.971   117716934.544       -2128.279          18.000  
G25  20791426.295   109259676.208        -399.601          28.000  
G32  21838254.491   114760787.685         535.897          35.000    21838258.688    85698017.678         401.704          27.000  
J01  38064862.444                         461.640          32.000  
J02  37883100.975   199077020.099       -1347.473          29.000  
R12  19079038.756   101916801.348       -1092.553          35.000  
> 2021  9 12 10 31 18.9999040  0 13
C06  36693533.495   191072862.290        -772.759          37.000  
C13  36932435.707   192316936.314       -2174.527          29.000  
C16  37340203.815   194440273.086        -749.556          26.000  
C24  24423134.016   127177809.073       -3357.385          24.000  
C25  21804261.624   113540500.099        -829.403          41.000  
C33  22246021.999   115840853.488        -914.163          33.000  
G10  20153566.276   105907713.069        -505.256          40.000    20153570.174    79086940.794        -376.379          31.000  
G12  22401025.193   117718275.739       -2129.870          16.000  
G25  20791351.947   109259288.216        -399.817          28.000  
G32  21838001.766   114759464.570         535.519          36.000    21838007.462    85697028.004         400.629          26.000  
J01  38064620.512   200030941.2281        461.500          31.000    38064621.111   149373747.3371        345.320          26.000  
J02  37883208.900   199077579.433       -1347.889          29.000  
R12  19079093.618   101917093.597       -1093.455          35.000  
> 2021  9 12 10 31 19.9999035  0 15
C06  36693531.996   191072854.127        -771.651          38.000  
C08  37842198.191   197054392.4821      -2408.110          18.000  
C13  36932703.421   192318330.494       -2174.898          29.000  
C16  37340195.720   194440241.437        -749.436          27.000  
C23  23966086.024   124797619.2701       1672.098          25.000  
C24  24423629.573   127180386.318       -3358.729          22.000  
C25  21804270.917   113540548.507        -829.488          41.000  
C33  22246047.482   115840988.302        -917.873          33.000  
G10  20153509.616   105907431.297        -506.742          39.000    20153516.511    79086730.355        -379.769          30.000  
G12  22401280.316   117719616.415       -2127.917          17.000  
G25  20791276.399   109258900.054        -400.163          28.000  
G32  21837753.538   114758141.450         535.743          37.000    21837755.936    85696039.515         400.019          28.000  
J01  38064378.879   200029691.398         462.722          32.000    38064382.776   149372814.339         344.260          27.000  
J02  37883316.226   199078139.760       -1348.259          29.000  
R12  19079149.080   101917390.679       -1094.495          36.000  
> 2021  9 12 10 31 20.9999030  0 15
C06  36693531.996   191072846.187        -772.586          37.000  
C08  37842510.575   197056019.762       -2407.752          19.000  
C13  36932973.235   192319724.387       -2173.732          28.000  
C16  37340188.525   194440210.472        -750.538          27.000  
C24  24424124.830   127182965.172       -3359.649          22.000  
C25  21804278.412   113540597.634        -830.803          42.000  
C33  22246075.662   115841123.937        -914.425          32.000  
G10  20153457.752   105907150.478        -507.177          38.000    20153462.848    79086520.676        -378.428          29.000  
G12  22401536.939   117720957.147       -2128.071          17.000  
G25  20791201.151   109258513.386        -401.966          27.000  
G31  21836314.834   114750870.5211       1090.868          24.000  
G32  21837501.412   114756818.591         534.570          38.000    21837503.811    85695050.553         401.264          28.000  
J01  38064146.540   200028441.843         462.447          32.000    38064145.041   149371881.344         344.202          27.000  
J02  37883425.051   199078700.481       -1349.578          30.000  
R12  19079206.041   101917694.848       -1095.579          37.000  
> 2021  9 12 10 31 21.9999025  0 13
C06  36693530.797   191072838.329        -772.332          38.000  
C13  36933241.249   192321118.138       -2174.978          28.000  
C16  37340181.930   194440180.440        -750.344          28.000  
C24  24424619.788   127185544.291       -3358.946          24.000  
C25  21804289.205   113540647.383        -830.411          42.000  
C33  22246103.843   115841260.049        -916.425          31.000  
G10  20153405.588   105906870.431        -507.852          38.000    20153409.185    79086311.622        -379.631          28.000  
G12  22401792.062   117722297.099       -2130.625          16.000  
G31  21835953.284   114748709.029        1088.684          23.000  
G32  21837249.587   114755496.012         533.455          39.000    21837252.285    85694062.107         399.219          28.000  
J01  38063907.305   200027192.367         461.017          32.000    38063907.605   149370948.686         344.338          26.000  
J02  37883532.376   199079262.334       -1349.569          28.000  
R12  19079263.900   101918003.231       -1096.557          38.000  
> 2021  9 12 10 31 22.9999022  0 12
C06  36693588.957   191073142.732        -771.752          38.000  
C13  36933568.622   192322825.231       -2176.390          28.000  
C16  37340235.593   194440462.202        -750.199          28.000  
C24  24425175.303   127188434.778       -3359.059          24.000  
C25  21804359.356   113541009.901        -831.318          42.000  
C33  22246192.282   115841708.790        -916.909          31.000  
G10  20153413.682   105906906.181        -508.974          39.000    20153416.680    79086338.324        -380.869          29.000  
G25  20791109.414   109258060.7491       -405.054          27.000  
G32  21837059.518   114754488.654         534.552          38.000    21837061.017    85693310.568         398.387          27.000  
J01  38063732.526   200026258.177         462.389          31.000    38063729.828   149370252.122         343.896          27.000  
J02  37883700.860   199080139.145       -1348.710          29.000  
R12  19079386.815   101918660.604       -1097.529          37.000  
> 2021  9 12 10 31 23.9999017  0 12
C06  36693588.357   191073134.899        -774.058          38.000  
C13  36933837.237   192324221.265       -2176.618          30.000  
C16  37340229.597   194440431.568        -749.696          28.000  
C25  21804368.650   113541060.750        -831.276          42.000  
C33  22246215.665   115841845.897        -917.048          31.000  
G10  20153360.919   105906627.658        -510.019          39.000    20153364.216    79086130.330        -380.627          30.000  
G25  20791032.967   109257679.597        -407.802          24.000  
G31  21835295.240   114745274.7461       1087.045          22.000  
G32  21836806.493   114753166.262         534.712          39.000    21836809.192    85692324.098         397.404          28.000  
J01  38063495.390   200025008.878         460.954          31.000    38063492.093   149369319.902         344.859          28.000  
J02  37883808.785   199080699.725       -1348.206          28.000  
R12  19079437.180   101918929.087       -1098.248          37.000  
> 2021  9 12 10 31 24.9999012  0 12
C06  36693585.959   191073127.028        -772.093          38.000  
C13  36934106.450   192325617.300       -2177.200          30.000  
C16  37340222.702   194440399.732        -749.068          28.000  
C24  24426169.415   127193591.4651      -3358.953          23.000  
C25  21804377.344   113541112.137        -832.156          42.000  
C33  22246243.846   115841983.437        -918.467          31.000  
G10  20153307.855   105906349.754        -510.418          41.000    20153311.753    79085922.809        -379.961          29.000  
G25  20790959.818   109257298.385        -406.481          25.000    20790983.801    81588286.2421       -304.220          22.000  
G32  21836554.068   114751843.886         535.252          39.000    21836557.666    85691337.892         398.763          28.000  
J01  38063260.353   200023759.701         461.012          30.000    38063254.058   149368386.513         346.023          27.000  
J02  37883916.111   199081260.076       -1348.431          28.000  
R12  19079491.743   101919220.305       -1099.796          37.000  
> 2021  9 12 10 31 25.9999009  0 16
C06  36693643.819   191073431.371        -772.369          38.000  
C09  37679914.538   196209178.5321       -878.081          18.000  
C13  36934435.922   192327325.947       -2176.752          30.000  
C16  37340277.564   194440680.395        -748.784          29.000  
C23  23963394.487   124783530.3701       1670.406          25.000  
C24  24426724.630   127196483.096       -3360.760          24.000  
C25  21804448.394   113541476.317        -832.348          42.000  
C33  22246329.586   115842433.673        -919.060          33.000  
G10  20153312.052   105906387.746        -510.652          40.000    20153318.048    79085951.135        -379.970          30.000  
G12  22402931.573   117728305.8031      -2133.390          19.000  
G25  20790945.428   109257231.509        -405.210          24.000    20790970.611    81588236.193        -303.151          23.000  
G31  21834644.690   114741842.9481       1083.484          26.000  
G32  21836364.899   114750836.763         534.666          39.000    21836366.098    85690585.497         400.370          30.000  
J01  38063079.878   200022825.623         461.558          31.000    38063076.281   149367687.865         345.176          27.000  
J02  37884081.596   199082135.263       -1347.228          28.000  
R12  19079609.861   101919851.602       -1100.144          37.000  
> 2021  9 12 10 31 26.9999004  0 13
C06  36693642.020   191073423.301        -771.782          38.000  
C09  37679936.423   196209275.469        -876.890          19.000  
C13  36934704.236   192328721.731       -2176.252          29.000  
C16  37340272.467   194440649.468        -749.926          29.000  
C24  24427220.787   127199063.480       -3362.289          24.000  
C25  21804459.187   113541528.615        -833.355          43.000  
C33  22246356.568   115842571.937        -919.456          34.000  
G10  20153260.788   105906111.148        -511.641          38.000    20153264.985    79085744.500        -382.093          29.000  
G25  20790871.379   109256849.032        -405.623          26.000    20790898.061    81587950.530        -302.344          24.000  
G32  21836113.073   114749514.435         534.461          39.000    21836115.172    85689598.480         398.131          29.000  
J01  38062838.245   200021576.456         462.162          32.000    38062838.245   149366754.268         344.898          26.000  
J02  37884187.123   199082695.454       -1348.240          28.000  
R12  19079668.620   101920166.008       -1101.250          38.000  
> 2021  9 12 10 31 27.9999002  0 14
C06  36693730.759   191073883.592        -772.423          37.000  
C09  37680047.646   196209839.277        -875.267          24.000  
C13  36935060.690   192330585.606       -2175.655          28.000  
C16  37340356.109   194441087.172        -750.120          30.000  
C23  23962547.873   124779098.0001       1668.271          27.000  
C24  24427806.581   127202113.758       -3362.454          23.000  
C25  21804559.318   113542049.796        -833.645          43.000  
C33  22246472.288   115843179.053        -918.844          35.000  
G10  20153299.161   105906307.891        -512.174          37.000    20153302.459    79085892.257        -382.402          26.000  
G25  20790891.166   109256940.602        -407.132          26.000    20790915.449    81588018.810        -304.373          25.000  
G32  21835951.186   114748664.868         533.824          39.000    21835953.584    85688964.559         400.141          28.000  
J01  38062688.949   200020799.907         461.150          32.000    38062690.748   149366173.871         344.732          27.000  
J02  37884382.588   199083728.605       -1348.591          27.000  
R12  19079810.422   101920922.907       -1102.325          39.000  
> 2021  9 12 10 31 28.9998996  0 15
C06  36693699.281   191073719.427        -773.106          37.000  
C09  37680038.052   196209777.947        -875.171          22.000  
C13  36935299.624   192331825.070       -2176.741          28.000  
C16  37340320.134   194440900.458        -749.613          30.000  
C23  23962049.318   124776492.906        1668.776          26.000  
C24  24428272.159   127204538.938       -3361.902          23.000  
C25  21804538.932   113541947.072        -834.194          44.000  
C33  22246466.292   115843162.222        -919.086          34.000  
G10  20153217.318   105905875.215        -512.344          37.000    20153220.016    79085568.686        -382.773          25.000  
G25  20790787.737   109256403.612        -409.296          26.000    20790813.220    81587618.518        -305.678          24.000  
G31  21833639.486   114736542.5231       1084.285          26.000  
G32  21835666.683   114747185.224         532.822          38.000    21835671.779    85687858.723         398.358          29.000  
J01  38062425.131   200019393.314         460.590          31.000    38062423.932   149365124.622         342.391          28.000  
J02  37884461.133   199084132.070       -1349.677          26.000  
R12  19079842.800   101921096.305       -1103.060          39.000  
> 2021  9 12 10 31 29.9998991  0 16
C06  36693695.383   191073711.304        -771.606          36.000  
C09  37680056.939   196209872.149        -875.622          24.000  
C13  36935568.538   192333220.763       -2176.182          29.000  
C16  37340315.038   194440868.890        -749.537          30.000  
C23  23961579.843   124774043.622        1667.904          28.000  
C24  24428769.215   127207119.131       -3360.192          24.000  
C25  21804549.724   113542000.908        -835.049          44.000  
C33  22246493.273   115843301.845        -921.025          34.000  
G10  20153163.355   105905600.668        -513.245          37.000    20153167.253    79085363.369        -383.632          25.000  
G12  22404016.522   117734010.8611      -2135.116          21.000  
G25  20790716.387   109256025.374        -409.549          26.000    20790740.970    81587336.247        -306.861          24.000  
G31  21833284.831   114734671.660        1081.719          23.000  
G32  21835409.161   114745862.221         533.185          37.000    21835420.553    85686871.501         399.052          26.000  
J01  38062191.293   200018144.292         463.586          30.000    38062185.897   149364192.820         344.681          24.000  
J02  37884569.059   199084693.284       -1347.583          27.000  
R12  19079892.565   101921361.846       -1103.823          39.000  
> 2021  9 12 10 31 30.9998986  0 16
C06  36693694.784   191073703.317        -771.352          33.000  
C09  37680074.927   196209966.948        -874.017          18.000  
C13  36935838.351   192334616.859       -2177.180          29.000  
C16  37340310.541   194440838.151        -749.440          29.000  
C23  23961108.570   124771594.767        1668.326          27.000  
C24  24429263.273   127209698.747       -3359.827          23.000  
C25  21804560.817   113542055.334        -835.070          43.000  
C33  22246522.353   115843441.819        -920.574          34.000  
E21                                                                                                                                  24172408.890    94857725.0721       -844.260          35.000  
G10  20153111.491   105905326.887        -514.469          37.000    20153115.389    79085158.996        -383.812          28.000  
G25  20790646.835   109255647.729        -410.522          27.000  
G31  21832931.076   114732802.954        1079.232          23.000  
G32  21835158.834   114744541.011         533.724          30.000    21835168.727    85685885.193         399.088          27.000  
J01  38061949.960   200016895.300         460.519          31.000    38061946.962   149363259.768         342.247          23.000  
J02  37884674.885   199085253.189       -1348.418          25.000  
R12  19079951.025   101921673.862       -1103.702          38.000  
> 2021  9 12 10 31 31.9998981  0 15
C06  36693697.182   191073695.124        -772.293          36.000  
C09  37680092.914   196210060.340        -874.432          19.000  
C13  36936108.464   192336013.535       -2177.306          30.000  
C16  37340306.943   194440807.319        -750.253          27.000  
C23  23960638.195   124769146.275        1666.519          27.000  
C24  24429758.830   127212275.862       -3358.183          22.000  
C25  21804570.110   113542110.157        -835.053          43.000  
C33  22246544.837   115843582.004        -920.882          35.000  
E21                                                                                                                                  24172473.945    94857980.471        -843.196          37.000  
G10  20153061.126   105905053.768        -516.032          38.000    20153063.225    79084954.742        -383.973          28.000  
G12  22404528.867   117736709.0221      -2138.275          22.000  
G25  20790577.882   109255271.341        -411.827          24.000  
G32  21834909.707   114743219.583         533.633          41.000    21834916.002    85684898.062         399.612          28.000  
J01  38061716.122   200015646.147         462.001          32.000    38061709.227   149362328.210         344.436          26.000  
R12  19080013.382   101922006.775       -1105.908          37.000  
> 2021  9 12 10 31 32.9998979  0 16
C06  36693786.820   191074154.991        -771.183          38.000  
C09  37680200.240   196210622.320        -874.011          26.000  
C13  36936469.115   192337878.122       -2176.719          32.000  
C16  37340391.485   194441245.529        -750.326          27.000  
C24  24430347.622   127215322.868       -3360.376          25.000  
C25  21804670.840   113542633.660        -835.529          43.000  
C33  22246660.857   115844191.965        -922.794          30.000  
E21                                                                                                                                  24172629.237    94858589.127        -846.828          36.000  
G10  20153100.099   105905253.838        -514.948          39.000    20153101.298    79085104.742        -386.092          26.000  
G12  22404873.929   117738532.807       -2139.282          28.000  
G25  20790599.467   109255368.172        -412.243          27.000  
G31  21832307.508   114729538.3331       1080.800          24.000  
G32  21834750.817   114742370.493         534.666          41.000    21834753.814    85684262.910         399.563          32.000  
J01  38061570.123   200014869.394         460.482          30.000    38061562.628   149361747.796         344.641          29.000  
J02  37884980.674   199086849.5941      -1350.693          24.000  
R12  19080157.282   101922776.369       -1106.506          39.000  
> 2021  9 12 10 31 33.9998976  0 15
C06  36693845.280   191074458.730        -772.302          35.000  
C09  37680276.687   196211028.274        -874.653          27.000  
C13  36936802.184   192339586.822       -2176.801          25.000  
C16  37340446.047   194441526.932        -748.893          27.000  
C23  23959841.647   124765032.8681       1667.213          25.000  
C24  24430902.538   127218214.137       -3359.617          24.000  
C25  21804740.392   113543001.640        -835.690          45.000  
C33  22246747.197   115844646.019        -922.227          29.000  
E21                                                                                                                                  24172754.250    94859079.493        -844.277          31.000  
G10  20153106.695   105905297.031        -515.739          38.000    20153109.093    79085137.669        -385.891          21.000  
G25  20790592.572   109255307.362        -412.001          28.000  
G32  21834564.046                         535.120          38.000    21834561.947    85683510.048         399.850          32.000  
J01  38061390.847   200013935.759         461.561          26.000    38061386.950   149361051.154         341.195          25.000  
J02  37885146.159   199087727.846       -1351.306          28.000  
R12  19080269.404   101923375.196       -1108.167          39.000  
> 2021  9 12 10 31 34.9998971  0 15
C06  36693842.581   191074450.458        -771.770          32.000  
C09  37680294.075   196211121.730        -874.154          26.000  
C16  37340445.448   194441495.673        -749.077          25.000  
C23  23959369.773   124762585.168        1666.852          22.000  
C24  24431400.194   127220794.085       -3361.507          24.000  
C25  21804751.485   113543058.055        -837.350          42.000  
C33  22246772.380   115844788.036        -922.355          34.000  
E21                                                                                                                                  24172819.006    94859334.305        -843.339          26.000  
G10  20153054.830   105905025.959        -517.386          40.000    20153057.229    79084934.569        -383.921          26.000  
G12  22405443.534   117741552.0841      -2140.057          24.000  
G25  20790523.620   109254932.182        -412.695          25.000  
G32  21834310.421   114740087.1621        533.263          35.000    21834310.421    85682522.393         400.099          27.000  
J01  38061153.112   200012686.377         461.857          27.000    38061149.215   149360120.934         341.851          23.000  
J02  37885248.988   199088290.180       -1348.462          26.000  
R12  19080328.763   101923692.343       -1107.984          37.000  
