     3.03           OBSERVATION DATA    M: Mixed            RINEX VERSION / TYPE
rinex ON            NSL                 20191210 173850 UTC PGM / RUN BY / DATE
                                                            MARKER NAME
                                                            MARKER TYPE
rinex ON User                                               OBSERVER / AGENCY
 -2417191.0542  5385863.2519  2406532.5715                  APPROX POSITION XYZ
XXXXXXXX            Xiaomi              MI 8                REC # / TYPE / VERS
XXXXXXXX            MI 8                                    ANT # / TYPE
        0.0000        0.0000        0.0000                  APPROX POSITION XYZ
        0.0000        0.0000        0.0000                  ANTENNA: DELTA H/E/N
G    8 C1C L1C D1C S1C C5X L5X D5X S5X                      SYS / # / OBS TYPES
R    4 C1C L1C D1C S1C                                      SYS / # / OBS TYPES
E    8 C1C L1C D1C S1C C5X L5X D5X S5X                      SYS / # / OBS TYPES
C    4 C2I L2I D2I S2I                                      SYS / # / OBS TYPES
J    8 C1C L1C D1C S1C C5X L5X D5X S5X                      SYS / # / OBS TYPES
S    4 C1C L1C D1C S1C                                      SYS / # / OBS TYPES
  2019    12    10    09    39    4.0002309     GPS         TIME OF FIRST OBS
                                                            END OF HEADER
> 2019 12 10 09 39  4.0002309  0 32
G03  23405304.445      -11564.221         792.111          20.151    23405248.983      245974.705         596.579           8.017
G10  25652010.283          91.980       -3285.850          16.863                                                            
G14  20522564.924       17150.768        -367.397          27.741                                                            
G16  20645850.675      -70158.523        1329.163          26.613                                                            
G22  23152291.002       12335.371        -244.829          31.557                                                            
G23  25769704.905         -90.625        3260.485           7.000                                                            
G26  20248755.778       31767.493        -620.223          33.825    20248759.376       75061.420        -463.141          31.736
G27  23957154.907       -2175.909        3495.607           7.000                                                            
G29  23746095.920       81336.553       -1570.547          37.299                                                            
G31  21741946.164       42732.027        -798.203          35.535                                                            
G32  21717282.238      120015.290       -2307.925          40.619    21717270.247      286698.847       -1723.409          33.552
R09  21306965.295       96326.718       -1954.255          32.862                                                            
R07  19391116.110       70193.461       -1334.732          34.767                                                            
J01  36118169.112        7708.413        -159.037          25.918    36118167.913       10825.385        -118.525          24.244
J02  39872069.241       18477.855        -350.638          41.121    39872070.440       44174.495        -261.718          26.650
J04  37048648.454       11505.127        -217.418          27.473    37048645.157       26589.236        -162.814          33.297
C01  36964085.396        3515.813         -63.885          24.056                                                            
C02  37073532.727           0.213        -107.317           7.000                                                            
C03  36356552.083        3701.306         -70.751          27.490                                                            
C04  38523499.936           0.069         -70.244          18.781                                                            
C05  39293524.059        4963.854        -101.470          17.186                                                            
C06  35778199.668       -4843.953          95.929          23.094                                                            
C07  36190173.264       20548.360        -419.088          27.780                                                            
C09  36090258.434     4068004.863         541.367          36.359                                                            
C10  37015692.869        6686.184        -137.174          24.813                                                            
C13  41493690.416        2166.005        -538.977           7.000                                                            
C16  36085469.849       -3091.463          62.652          27.185                                                            
C20  24820693.891         -64.070        1886.827           7.000                                                            
C23  23224506.808       86392.440       -1051.150          24.586                                                            
C25  26004778.466       87268.039       -1811.163          25.433                                                            
C28  24618944.959     -187427.090        2299.894          31.931                                                            
E05  23607399.937      -23773.594         517.098          30.697    23607400.836      -34948.525         385.583          23.715
> 2019 12 10 09 39  5.0002309  0 31
G03  23405165.041      -12346.396         786.341          17.081    23405119.773      245407.322         570.397           7.000
G10  25652636.249          91.824       -3283.899          13.116                                                            
G14  20522628.480       17512.429        -363.533          25.223                                                            
G16  20645575.765      -71486.415        1327.892          28.795                                                            
G22  23152342.567       12576.907        -241.024          36.346                                                            
G23  25769084.034         -90.524        3262.436           7.000                                                            
G26  20248879.892       32388.290        -620.797          39.623    20248875.695       75525.247        -463.827          32.064
G27  23956489.667       -2175.792        3496.582          19.163                                                            
G29  23746391.215       82909.535       -1571.697          40.469                                                            
G31  21742095.161       43530.434        -798.407          32.847                                                            
G32  21717712.141      122324.747       -2309.457          39.015    21717711.841      288423.057       -1724.211          34.927
R09  21307332.541       98281.255       -1954.537          33.789                                                            
R07  19391353.245       71528.976       -1335.515          35.039                                                            
J01  36118218.278        7867.850        -159.437          27.858    36118198.491       10944.208        -118.391          24.328
J02  39872136.394       18828.881        -351.026          37.573    39872139.092       44437.243        -262.748          26.773
J04  37048675.735       11722.936        -217.810          29.965    37048688.327       26751.943        -162.707          33.199
C02  37073553.413           0.205        -105.366           7.000                                                            
C03  36356564.974        3773.754         -70.782          26.607                                                            
C04  38523513.726           0.066         -70.244          22.717                                                            
C05  39293539.649        5063.455        -101.470          18.902                                                            
C06  35778184.079       -4936.448          92.936          24.767                                                            
C07  36190249.711       20967.375        -419.015          30.087                                                            
C09  36090154.706     4067463.738         541.125          34.871                                                            
C10  37015721.349        6822.020        -133.589          25.014                                                            
C13  41493793.844        2699.231        -540.646           7.000                                                            
C16  36085458.457       -3150.840          59.376          27.812                                                            
C20  24820331.442         -63.996        1886.827           8.545                                                            
C23  23224710.667       87446.073       -1053.633          32.793                                                            
C25  26005122.628       89079.970       -1812.111          28.165                                                            
C28  24618497.968     -189726.099        2299.027          29.935                                                            
E05  23607303.104      -24290.284         516.690          33.704    23607303.404      -35334.158         385.633          29.914
> 2019 12 10 09 39  6.0002309  0 31
G03  23405007.950      -13131.282         791.010          18.067    23404933.602      244809.958         566.243          10.710
G10  25653262.516          91.915       -3284.875          17.898                                                            
G14  20522700.130       17873.672        -367.211          26.938                                                            
G16  20645345.525      -72813.641        1327.225          31.158                                                            
G22  23152402.525       12820.423        -246.925          34.449                                                            
G23  25768464.064         -90.574        3260.485           7.000                                                            
G26  20248995.612       33009.790        -621.501          40.242    20248993.513       75989.244        -463.997          32.144
G27  23955824.728       -2175.854        3495.607          16.419                                                            
G29  23746688.010       84482.537       -1573.001          41.130                                                            
G31  21742255.550       44329.059        -798.625          32.327                                                            
G32  21718153.435      124634.362       -2309.615          43.615    21718155.534      290148.257       -1725.199          31.630
R09  21307663.212      100235.821       -1954.566          32.608                                                            
R07  19391612.266       72865.619       -1336.643          37.002                                                            
J01  36118234.167        8027.540        -159.690          26.749    36118224.274       11063.632        -119.424          22.901
J02  39872208.944       19179.952        -351.070          35.014    39872206.546       44699.254        -262.011          32.417
J04  37048738.092       11941.122        -218.186          33.120    37048730.897       26913.651        -162.926          29.423
C02  37073574.399           0.211        -107.317           7.000                                                            
C03  36356561.376        3846.491         -70.838          28.952                                                            
C04  38523528.116           0.068         -70.244           7.000                                                            
C05  39293510.569        5164.291         -99.519          17.698                                                            
C06  35778171.787       -5028.604          89.006          23.915                                                            
C07  36190326.159       21386.951        -419.577          28.899                                                            
C09  36090047.980     4066923.010         540.728          33.791                                                            
C10  37015747.131        6952.580        -133.098          25.070                                                            
C13  41493897.872        3240.518        -538.543           7.000                                                            
C16  36085446.765       -3209.883          59.837          24.880                                                            
C20  24819970.192         -64.007        1884.876           7.000                                                            
C23  23224922.321       88500.108       -1054.035          31.222                                                            
C25  26005467.090       90892.934       -1812.295          27.911                                                            
C28  24618091.150     -192024.908        2298.809          30.519                                                            
E05  23607200.275      -24806.137         515.853          35.473    23607207.770      -35719.555         385.397          29.510
> 2019 12 10 09 39  7.0002309  0 31
G03  23404855.955      -13923.489         796.826          17.619    23404784.305      244224.603         566.739          10.218
G10  25653887.583          91.786       -3284.875           7.000                                                            
G14  20522775.078       18239.903        -368.850          25.204                                                            
G16  20645073.313      -74140.135        1326.495          31.152                                                            
G22  23152435.502       13064.734        -244.692          32.166                                                            
G23  25767843.493         -90.446        3260.485           7.000                                                            
G26  20249116.728       33631.782        -621.992          40.504    20249112.231       76453.668        -464.424          34.017
G27  23955159.488       -2175.718        3495.607           8.372                                                            
G29  23746980.907       86056.044       -1573.508          39.391                                                            
G31  21742400.649       45127.722        -798.663          32.021                                                            
G32  21718596.528      126944.702       -2310.340          42.175    21718589.333      291873.221       -1725.864          29.877
R09  21308057.439      102190.752       -1954.931          36.207                                                            
R07  19391874.585       74203.223       -1337.604          39.396                                                            
J01  36118271.041        8187.510        -159.969          27.265    36118257.251       11183.202        -119.570          20.853
J02  39872268.603       19531.151        -351.199          34.759    39872268.003       44961.317        -262.063          31.020
J04  37048773.768       12157.689        -222.059          31.522    37048771.369       27076.683        -163.032          29.518
C02  37073596.283           0.214        -107.317           7.000                                                            
C03  36356582.961        3919.072         -71.106          32.541                                                            
C04  38523542.506           0.069         -70.244          15.588                                                            
C05  39293581.020        5265.884        -101.470          15.602                                                            
C06  35778143.607       -5119.596          92.406          23.413                                                            
C07  36190408.002       21806.393        -419.442          30.031                                                            
C09  36089943.052     4066382.547         540.463          34.092                                                            
C10  37015771.115        7084.201        -136.675          25.828                                                            
C13  41494002.200        3779.061        -538.543           7.000                                                            
C16  36085435.673       -3268.421          58.862          27.390                                                            
C20  24819608.043         -63.933        1884.876           7.000                                                            
C23  23225118.685       89554.233       -1054.181          28.690                                                            
C25  26005819.945       92706.122       -1813.559          25.673                                                            
C28  24617627.371     -194323.458        2298.241          30.249                                                            
E05  23607104.941      -25321.673         515.536          35.929    23607105.841      -36104.526         384.971          30.128
> 2019 12 10 09 39  8.0002309  0 32
G03  23404709.657      -14717.011         789.755          19.515    23404635.308      243639.211         585.355          14.425
G10  25654512.650          91.863       -3284.875           7.000                                                            
G14  20522852.425       18616.691        -371.422          28.742                                                            
G16  20644827.783      -75466.778        1326.642          30.701                                                            
G22  23152479.272       13307.195        -243.254          32.655                                                            
G23  25767222.023         -90.523        3260.485           7.000                                                            
G26  20249233.647       34254.139        -622.357          38.990    20249230.350       76918.303        -464.634          33.595
G27  23954494.549       -2175.800        3495.607          21.401                                                            
G29  23747288.194       87630.656       -1576.445          35.972                                                            
G31  21742540.952       45925.805        -798.084          33.732                                                            
G32  21719032.427      129255.847       -2311.145          40.537    21719034.525      293599.187       -1725.966          35.766
R09  21308399.802      104144.589       -1953.837          32.887                                                            
R07  19392114.419       75541.530       -1338.307          40.917                                                            
J01  36118297.423        8347.046        -160.088          26.790    36118293.226       11302.629        -119.427          24.040
J02  39872347.448       19882.110        -350.959          35.182    39872336.656       45223.642        -262.326          32.542
J04  37048825.332       12374.999        -217.310          30.673    37048813.340       27239.356        -162.673          29.076
C01  36964139.359        3751.166         -62.250          25.745                                                            
C02  37073617.269           0.209        -107.317           7.000                                                            
C03  36356595.852        3991.552         -71.058          34.050                                                            
C04  38523555.697           0.067         -70.244          19.539                                                            
C05  39293601.106        5367.384        -101.470          10.550                                                            
C06  35778130.416       -5209.152          93.368          26.614                                                            
C07  36190500.038       22225.843        -419.450          33.557                                                            
C09  36089839.324     4065841.960         540.586          34.992                                                            
C10  37015794.798        7219.392        -134.868          24.148                                                            
C13  41494105.628        4317.604        -538.543           7.000                                                            
C16  36085417.385       -3325.334          57.406          27.313                                                            
C20  24819245.594         -63.978        1884.876          10.016                                                            
C23  23225317.447       90607.574       -1052.436          28.761                                                            
C25  26006180.896       94515.866       -1812.550          26.148                                                            
C28  24617179.481     -196621.869        2298.412          31.460                                                            
E05  23607006.909      -25837.039         515.366          37.476    23607007.809      -36489.505         384.978          31.056
> 2019 12 10 09 39  9.0002309  0 32
G03  23404552.565      -15508.667         786.722          22.687    23404483.014      243051.892         585.336          12.237
G10  25655138.617          91.927       -3283.899          11.318                                                            
G14  20522917.480       18986.728        -370.037          28.674                                                            
G16  20644567.863      -76792.217        1325.439          29.637                                                            
G22  23152531.136       13552.985        -244.767          31.451                                                            
G23  25766600.853         -90.640        3263.412           7.000                                                            
G26  20249350.566       34876.894        -622.755          38.218    20249349.367       77383.316        -465.013          36.943
G27  23953829.309       -2175.901        3496.582           7.000                                                            
G29  23747584.090       89205.815       -1575.159          40.740                                                            
G31  21742705.838       46724.178        -798.372          35.539                                                            
G32  21719480.017      131566.971       -2311.124          41.312    21719468.925      295324.985       -1725.798          37.156
R09  21308787.433      106099.126       -1954.536          33.046                                                            
R07  19392363.246       76880.576       -1339.047          38.715                                                            
J01  36118341.193        8506.871        -159.825          31.210    36118314.511       11422.522        -119.893          20.239
J02  39872407.107       20232.976        -350.866          36.834    39872401.711       45485.604        -261.962          36.277
J04  37048861.307       12589.919        -217.186          30.698    37048851.114       27402.636        -163.281          28.548
C01  36964142.357        3810.474         -62.276          27.717                                                            
C02  37073638.254           0.208        -105.366           7.000                                                            
C03  36356605.146        4064.030         -70.776          32.104                                                            
C04  38523569.788           0.068         -70.244           7.000                                                            
C05  39293570.227        5466.477        -101.470           7.000                                                            
C06  35778119.623       -5302.179          92.017          25.042                                                            
C07  36190574.387       22645.399        -419.556          33.521                                                            
C09  36089735.896     4065301.314         540.646          35.554                                                            
C10  37015819.082        7355.125        -134.561          23.916                                                            
C13  41494209.656        4854.978        -538.542           7.000                                                            
C16  36085406.293       -3383.993          58.660          28.674                                                            
C20  24818883.445         -64.055        1886.827           7.000                                                            
C23  23225562.678       91661.539       -1053.965          29.578                                                            
C25  26006518.762       96328.082       -1810.432          28.719                                                            
C28  24616732.791     -198920.179        2298.309          31.134                                                            
E05  23606905.280      -26351.922         514.883          36.599    23606910.076      -36874.096         384.592          31.010
> 2019 12 10 09 39 10.0002309  0 32
G03  23404401.770      -16291.015         784.913          21.654    23404337.614      242466.566         570.664          10.677
G10  25655763.684          91.812       -3284.875           7.000                                                            
G14  20522984.334       19358.367        -367.475          27.249                                                            
G16  20644317.237      -78116.744        1324.527          30.532                                                            
G22  23152571.908       13798.812        -245.628          34.189                                                            
G23  25765979.683         -90.485        3261.460          10.644                                                            
G26  20249467.186       35500.375        -623.482          36.001    20249468.085       77849.002        -465.687          36.918
G27  23953164.369       -2175.745        3495.607           7.000                                                            
G29  23747884.781       90780.537       -1574.722          40.902                                                            
G31  21742847.940       47523.229        -801.422          33.910                                                            
G32  21719915.915      133878.130       -2311.158          40.464    21719911.418      297050.767       -1725.782          35.059
R09  21309152.281      108053.916       -1954.791          31.617                                                            
R07  19392612.074       78221.063       -1340.486          34.848                                                            
J01  36118370.572        8666.688        -159.817          32.455    36118348.388       11541.518        -118.996          20.644
J02  39872470.063       20583.191        -350.215          33.732    39872469.164       45747.376        -261.772          36.753
J04  37048905.377       12804.751        -219.452          31.491    37048894.284       27565.266        -162.629          30.659
C01  36964144.455        3870.157         -61.918          28.034                                                            
C02  37073659.240           0.214        -107.317           7.000                                                            
C03  36356621.934        4137.169         -70.408          32.219                                                            
C04  38523583.878           0.072         -72.195           7.000                                                            
C05  39293590.313        5567.553         -99.519           7.000                                                            
C06  35778109.430       -5393.100          89.286          23.704                                                            
C07  36190656.530       23065.137        -419.737          32.387                                                            
C09  36089632.767     4064760.917         540.397          35.568                                                            
C10  37015842.765        7491.766        -137.174          25.513                                                            
C13  41494313.385        5392.346        -536.593           7.000                                                            
C16  36085399.098       -3442.823          58.829          29.791                                                            
C20  24818520.995         -63.948        1884.876          10.237                                                            
C23  23225753.346       92715.790       -1054.149          26.560                                                            
C25  26006863.823       98139.209       -1810.453          25.010                                                            
C28  24616307.385     -201219.285        2298.769          31.904                                                            
E05  23606806.348      -26865.944         514.021          34.252    23606814.143      -37257.965         383.868          33.536
> 2019 12 10 09 39 11.0002309  0 32
G03  23404257.270      -17076.667         782.661          22.711    23404189.217      241884.485         588.538          10.175
G10  25656387.552          91.875       -3283.899          14.960                                                            
G14  20523065.577       19729.986        -372.360          24.782                                                            
G16  20644074.704      -79440.602        1323.858          34.636                                                            
G22  23152632.466       14043.339        -240.693          32.975                                                            
G23  25765358.214         -90.562        3261.460           7.000                                                            
G26  20249588.602       36124.145        -623.769          39.641    20249585.304       78314.889        -465.887          33.247
G27  23952498.231       -2175.827        3495.607          18.483                                                            
G29  23748181.276       92355.532       -1574.995          38.493                                                            
G31  21743007.729       48321.776        -798.547          34.314                                                            
G32  21720353.912      136189.317       -2311.187          37.044    21720348.815      298777.000       -1726.233          34.169
R09  21309518.627      110008.491       -1955.528          32.816                                                            
R07  19392861.202       79562.370       -1341.307          38.613                                                            
J01  36118385.862        8826.924        -161.078          29.496    36118379.266       11660.854        -120.414          20.677
J02  39872546.211       20933.300        -350.109          31.820    39872534.819       46008.722        -261.346          35.748
J04  37048942.851       13026.602        -219.129          29.623    37048939.553       27728.152        -162.886          32.107
C01  36964156.747        3929.361         -62.162          27.585                                                            
C02  37073679.925           0.210        -107.317           7.000                                                            
C03  36356639.023        4210.279         -70.578          31.504                                                            
C04  38523597.668           0.069         -72.195          14.909                                                            
C05  39293609.800        5669.415        -101.470           7.000                                                            
C06  35778095.040       -5483.333          90.417          24.669                                                            
C07  36190738.373       23484.874        -419.737          33.399                                                            
C09  36089529.339     4064220.322         540.596          35.987                                                            
C10  37015868.847        7628.471        -136.373          27.187                                                            
C13  41494416.513        5931.281        -538.543           9.722                                                            
C16  36085386.807       -3500.532          58.547          28.178                                                            
C20  24818158.546         -63.992        1884.876           7.000                                                            
C23  23225938.617       93769.680       -1052.555          24.983                                                            
C25  26007215.479       99950.581       -1809.402          26.622                                                            
C28  24615858.596     -203518.641        2299.356          30.357                                                            
E05  23606718.209      -27379.705         513.761          35.896    23606713.412      -37641.617         383.652          32.801
> 2019 12 10 09 39 12.0002309  0 32
G03  23404096.581      -17859.813         783.169          21.875    23404034.224      241293.869         575.942           7.000
G10  25657012.320          91.952       -3283.899          12.483                                                            
G14  20523136.628       20101.430        -371.444          26.266                                                            
G16  20643821.680      -80764.375        1323.773          32.879                                                            
G22  23152684.330       14289.149        -246.406          30.157                                                            
G23  25764736.744         -90.625        3260.485           7.000                                                            
G26  20249707.020       36748.730        -624.585          35.260    20249704.022       78781.225        -466.335          33.881
G27  23951832.991       -2175.909        3495.607          18.953                                                            
G29  23748483.167       93933.061       -1577.529          37.946                                                            
G31  21743162.122       49120.712        -798.936          33.448                                                            
G32  21720794.907      138502.870       -2315.157          36.784    21720789.810      300504.321       -1727.321          36.257
R09  21309877.779      111962.934       -1954.443          32.835                                                            
R07  19393107.331       80904.029       -1341.659          36.894                                                            
J01  36118419.139        8988.112        -161.188          27.461    36118362.778       11772.580        -106.660          21.830
J02  39872610.666       21284.567        -351.267          33.328    39872603.771       46271.037        -262.315          34.116
J04  37048981.524       13244.732        -218.838          26.685    37048977.027       27890.702        -162.550          32.000
C01  36964162.143        3988.045         -61.976          24.461                                                            
C02  37073700.311           0.213        -107.317           7.000                                                            
C03  36356651.314        4282.575         -70.859          33.030                                                            
C04  38523610.559           0.069         -70.244           7.000                                                            
C05  39293628.987        5770.885        -101.470           7.000                                                            
C06  35778074.954       -5575.216          92.630          25.680                                                            
C07  36190817.219       23904.823        -419.949          32.084                                                            
C09  36089425.311     4063680.475         539.847          35.661                                                            
C10  37015894.629        7764.540        -137.172          26.366                                                            
C13  41494543.325        6474.421        -538.543           7.000                                                            
C16  36085374.815       -3558.761          57.445          29.060                                                            
C20  24817796.697         -64.003        1882.925          11.113                                                            
C23  23226143.076       94823.940       -1054.846          23.394                                                            
C25  26007561.740      101763.787       -1813.453          25.489                                                            
C28  24615416.102     -205816.186        2297.544          31.556                                                            
E05  23606618.078      -27893.231         513.526          33.490    23606618.678      -38025.068         383.451          33.193
> 2019 12 10 09 39 13.0002309  0 32
G03  23403982.060      -18642.595         782.046          20.443    23403884.928      240708.594         539.014           7.000
G10  25657637.387          91.824       -3283.899           7.000                                                            
G14  20523204.381       20473.907        -372.477          26.242                                                            
G16  20643569.554      -82087.439        1323.064          35.398                                                            
G22  23152681.932       14543.163        -249.192          27.717                                                            
G23  25764116.174         -90.497        3260.485          10.207                                                            
G26  20249838.329       37373.689        -624.959          34.102    20249822.739       79247.957        -466.733          32.754
G27  23951168.051       -2175.772        3495.607           7.000                                                            
G29  23748780.262       95509.551       -1576.489          35.678                                                            
G31  21743326.408       49919.856        -799.144          33.753                                                            
G32  21721229.306      140815.492       -2312.622          37.458    21721232.304      302231.492       -1727.171          35.105
R09  21310252.519      113917.720       -1954.786          32.369                                                            
R07  19393372.647       82246.915       -1342.886          36.083                                                            
J01  36118456.613        9148.530        -160.418          25.968    36118398.753       11883.602        -118.360          17.030
J02  39872679.318       21634.862        -350.295          32.373    39872668.226       46532.627        -261.590          34.590
J04  37049048.677       13457.720        -213.129          23.579    37049020.797       28054.095        -163.393          32.686
C01  36964169.038        4046.824         -61.485          23.101                                                            
C02  37073720.997           0.209        -107.317           7.000                                                            
C03  36356663.905        4355.525         -71.021          30.566                                                            
C04  38523624.350           0.066         -70.244           7.000                                                            
C05  39293648.473        5872.356        -101.470          10.895                                                            
C06  35778064.162       -5666.191          93.355          25.313                                                            
C07  36190898.163       24324.870        -420.048          29.274                                                            
C09  36089323.681     4063140.351         540.124          36.034                                                            
C10  37015920.711        7901.165        -136.624          26.834                                                            
C13  41494649.752        7015.776        -538.543           7.000                                                            
C16  36085361.924       -3616.753          57.992          29.041                                                            
C20  24817434.847         -63.930        1882.925          14.688                                                            
C23  23226345.136       95875.323       -1058.435          23.331                                                            
C25  26007906.501      103571.698       -1811.985          21.952                                                            
C28  24614973.309     -208114.741        2298.555          33.054                                                            
E05  23606510.153      -28405.970         512.739          30.866    23606517.948      -38408.041         382.973          31.084
> 2019 12 10 09 39 14.0002309  0 32
G03  23403858.246      -19420.964         781.397          18.247    23403735.631      240123.141         585.355           7.000
G10  25658261.255          91.887       -3282.924          13.510                                                            
G14  20523288.623       20846.784        -355.504          23.296                                                            
G16  20643311.733      -83409.475        1322.036          37.258                                                            
G22  23152769.171       14788.438        -250.260          29.850                                                            
G23  25763494.404         -90.587        3261.460           8.006                                                            
G26  20249946.254       37999.343        -625.654          37.436    20249943.256       79715.081        -467.124          33.774
G27  23950501.613       -2175.854        3495.607          18.891                                                            
G29  23749087.249       97087.059       -1577.199          40.641                                                            
G31  21743463.713       50718.801        -798.945          37.307                                                            
G32  21721677.795      143128.615       -2313.137          39.852    21721670.001      303958.705       -1727.213          35.489
R09  21310631.157      115873.016       -1955.544          29.089                                                            
R07  19393611.582       83590.976       -1344.061          36.392                                                            
J01  36118477.898        9308.983        -160.453          27.016    36118428.432       12003.991        -116.003          15.652
J02  39872735.380       21983.676        -346.906          32.469    39872735.380       46794.085        -261.458          34.441
J04  37049074.459       13667.576        -216.232          26.506    37049064.566       28218.111        -165.324          33.083
C01  36964193.022        4105.660         -61.196          24.820                                                            
C02  37073741.083           0.211        -107.317          15.089                                                            
C03  36356680.394        4428.846         -70.805          31.134                                                            
C04  38523637.541           0.068         -70.244           7.000                                                            
C05  39293667.960        5973.826        -101.470           7.000                                                            
C06  35778035.382       -5755.494          91.101          24.642                                                            
C07  36190978.807       24745.149        -420.279          31.120                                                            
C09  36089216.655     4062600.299         540.053          36.587                                                            
C10  37015947.992        8038.443        -138.214          26.256                                                            
C13  41494755.279        7552.647        -551.141           7.000                                                            
C16  36085351.731       -3674.731          57.944          27.796                                                            
C20  24817072.098         -63.974        1882.925           7.000                                                            
C23  23226552.292       96929.461       -1051.051          26.267                                                            
C25  26008253.361      105382.687       -1807.237          26.982                                                            
C28  24614538.909     -210413.680        2298.940          32.828                                                            
E05  23606425.012      -28918.298         512.328          30.719    23606422.014      -38790.557         382.516          32.532
> 2019 12 10 09 39 15.0002309  0 32
G03  23403713.746      -20202.780         782.322          19.445    23403579.739      239546.767         585.336           7.000
G10  25658886.323          91.759       -3282.924          15.399                                                            
G14  20523350.380       21185.815        -335.141          23.817                                                            
G16  20643068.001      -84731.544        1322.069          39.344                                                            
G22  23152810.843       15035.026        -247.015          28.781                                                            
G23  25762872.934         -90.460        3261.460           7.000                                                            
G26  20250066.471       38625.172        -625.829          36.594    20250061.074       80182.608        -467.527          32.700
G27  23949835.474       -2175.718        3495.607          17.779                                                            
G29  23749387.341       98665.290       -1580.585          39.890                                                            
G31  21743613.909       51517.917        -799.116          36.841                                                            
G32  21722118.190      145442.997       -2318.633          39.568    21722113.694      305686.976       -1728.270          37.347
R09  21310992.107      117827.340       -1956.519          28.851                                                            
R07  19393880.196       84935.487       -1344.511          36.902                                                            
J01  36118502.781        9470.226        -161.243          25.474    36118492.888       12100.886        -114.873          14.500
J02  39872825.018       22333.234        -353.899          33.294    39872801.934       47055.993        -261.908          33.365
J04  37049110.734       13887.307        -224.577          26.995    37049103.539       28380.858        -160.503          32.060
C01  36964214.907        4165.242         -59.796          23.626                                                            
C02  37073762.368           0.214        -107.317           7.000                                                            
C03  36356694.484        4501.168         -70.901          31.689                                                            
C04  38523651.631           0.069         -70.244           7.000                                                            
C05  39293687.446        6075.296        -101.470           7.000                                                            
C06  35778004.803       -5843.148          90.358          28.053                                                            
C07  36191057.352       25165.753        -419.874          29.259                                                            
C09  36089116.525     4062060.574         539.725          35.745                                                            
C10  37015972.575        8179.185        -141.138          22.786                                                            
C13  41494828.128        8085.010        -538.543           7.000                                                            
C16  36085343.636       -3729.510          60.898          25.903                                                            
C20  24816711.448         -63.867        1880.974           7.000                                                            
C23  23226748.357       97984.122       -1052.916          27.080                                                            
C25  26008602.319      107193.879       -1809.999          27.907                                                            
C28  24614095.816     -212711.364        2297.683          32.228                                                            
E05  23606325.181      -29430.439         512.141          30.271    23606323.083      -39172.962         382.405          32.336
> 2019 12 10 09 39 16.0002309  0 32
G03  23403554.856      -20986.222         787.568          19.464    23403432.241      238944.262         586.118           7.181
G10  25659511.090          91.836       -3282.924          13.969                                                            
G14  20523429.525       21542.669        -336.615          23.207                                                            
G16  20642808.081      -86053.241        1321.697          36.431                                                            
G22  23152860.308       15280.232        -252.577          29.682                                                            
G23  25762252.364         -90.550        3262.436           7.000                                                            
G26  20250182.191       39250.835        -625.663          36.632    20250181.291       80649.757        -467.149          32.050
G27  23949171.434       -2175.800        3495.607          19.555                                                            
G29  23749688.333      100242.422       -1577.133          35.891                                                            
G31  21743767.703       52316.200        -798.283          34.499                                                            
G32  21722548.992      147755.957       -2312.960          40.022    21722551.091      307414.211       -1727.236          35.828
R09  21311354.556      119781.625       -1956.312          27.672                                                            
R07  19394123.927       86280.466       -1344.979          36.745                                                            
J01  36118530.062        9629.750        -159.883          25.442    36118536.058       12216.776        -126.195          20.544
J02  39872880.179       22682.122        -348.888          33.432    39872869.387       47316.576        -260.583          33.576
J04  37049162.598       14110.388        -222.026          25.702    37049145.510       28544.381        -163.523          30.026
C01  36964198.118        4224.871         -59.451          22.111                                                            
C02  37073783.354           0.209        -107.317           7.000                                                            
C03  36356708.574        4573.744         -71.207          31.395                                                            
C04  38523666.321           0.069         -72.195           7.000                                                            
C05  39293707.532        6176.766        -101.470           7.000                                                            
C06  35777993.710       -5937.245          88.952          25.219                                                            
C07  36191138.596       25585.194        -419.441          30.649                                                            
C09  36089009.798     4061519.746         540.827          35.870                                                            
C10  37016005.553        8315.687        -135.864          26.663                                                            
C13  41494932.456        8621.600        -536.592           7.000                                                            
C16  36085327.148       -3790.924          58.186          27.418                                                            
C20  24816349.898         -63.945        1882.925           7.000                                                            
C23  23226948.018       99037.163       -1055.430          27.591                                                            
C25  26008946.781      109004.014       -1809.803          26.922                                                            
C28  24613655.121     -215011.074        2299.711          31.382                                                            
E05  23606232.545      -29942.880         512.441          33.190    23606227.449      -39555.591         382.629          31.982
> 2019 12 10 09 39 17.0002309  0 32
G03  23403398.964      -21771.124         788.112          18.779    23403277.548      238331.073         608.183           7.000
G10  25660135.858          91.886       -3280.972           7.000                                                            
G14  20523489.784       21902.650        -361.474          18.637                                                            
G16  20642570.346      -87374.638        1321.397          35.201                                                            
G22  23152914.871       15526.409        -249.332          29.785                                                            
G23  25761631.793         -90.640        3263.412           7.000                                                            
G26  20250304.506       39877.217        -626.382          36.429    20250298.810       81117.434        -467.677          31.368
G27  23948504.995       -2175.921        3497.558          18.379                                                            
G29  23749984.528      101822.149       -1578.566          41.523                                                            
G31  21743922.396       53114.851        -798.651          37.280                                                            
G32  21722991.486      150070.560       -2313.360          38.037    21722994.784      309142.959       -1728.747          36.478
R09  21311715.806      121735.593       -1954.286          27.334                                                            
R07  19394367.059       87626.071       -1345.605          36.849                                                            
J01  36118566.637        9791.071        -161.325          26.652    36118565.737       12340.521        -123.526          20.901
J02  39872949.731       23032.242        -350.120          34.533    39872935.041       47577.890        -256.846          32.542
J04  37049194.077       14333.049        -213.196          28.735    37049187.481       28707.254        -162.872          30.784
C01  36964214.607        4283.686         -59.868          24.347                                                            
C02  37073803.740           0.208        -105.366           7.000                                                            
C03  36356722.964        4645.647         -71.603          32.398                                                            
C04  38523679.811           0.068         -70.244           7.000                                                            
C05  39293726.719        6276.287        -101.470           7.000                                                            
C06  35777982.018       -6036.313          94.456          25.932                                                            
C07  36191219.540       26004.886        -419.692          31.019                                                            
C09  36088907.569     4060979.757         539.989          35.332                                                            
C10  37016033.133        8451.545        -135.803          27.149                                                            
C13  41495035.585        9158.191        -536.592           7.000                                                            
C16  36085317.854       -3848.758          57.834          28.150                                                            
C20  24815988.049         -63.989        1882.925           7.000                                                            
C23  23227153.976      100091.157       -1052.585          27.878                                                            
C25  26009298.138      110815.441       -1811.427          27.640                                                            
C28  24613214.126     -217309.019        2297.945          31.152                                                            
E05  23606130.316      -30454.732         511.852          32.621    23606130.316      -39937.929         382.338          31.192
> 2019 12 10 09 39 18.0002309  0 32
G03  23403230.181      -22556.302         783.577          18.310    23403134.247      237757.088         616.053           7.000
G10  25660761.225          91.785       -3282.924           7.000                                                            
G14  20523552.740       22278.576        -373.444          20.514                                                            
G16  20642320.319      -88694.472        1319.834          36.798                                                            
G22  23152963.737       15776.093        -247.999          29.609                                                            
G23  25761011.523         -90.485        3261.460           7.000                                                            
G26  20250421.125       40504.631        -627.414          36.453    20250419.027       81586.031        -468.597          31.173
G27  23947841.254       -2175.745        3495.607          18.182                                                            
G29  23750290.616      103401.191       -1581.892          40.745                                                            
G31  21744068.994       53913.864        -799.013          36.885                                                            
G32  21723432.481      152385.144       -2314.585          38.160    21723432.481      310871.386       -1728.428          35.491
R09  21312060.268      123690.799       -1954.108          27.299                                                            
R07  19394619.784       88973.557       -1347.486          36.199                                                            
J01  36118597.515        9952.152        -161.635          27.664    36118596.616       12464.886        -117.563          22.778
J02  39873014.486       23381.842        -350.693          34.349    39873002.795       47839.034        -261.144          34.566
J04  37049233.050       14552.384        -218.278          29.478    37049230.352       28871.318        -164.378          31.339
C01  36964243.387        4342.736         -59.711          25.403                                                            
C02  37073825.625           0.214        -107.317          13.636                                                            
C03  36356735.556        4718.939         -72.277          32.921                                                            
C04  38523694.801           0.070         -70.244          19.142                                                            
C05  39293747.705        6377.363         -99.519           7.000                                                            
C06  35777960.134       -6133.638          91.067          27.359                                                            
C07  36191301.084       26425.373        -420.486          30.762                                                            
C09  36088803.241     4060439.937         539.820          35.341                                                            
C10  37016058.916        8589.291        -137.746          30.464                                                            
C13  41495053.572        9694.783        -536.592           7.000                                                            
C16  36085311.559       -3905.992          58.660          29.551                                                            
C20  24815627.399         -63.882        1880.974           7.000                                                            
C23  23227360.533      101145.317       -1051.876          26.642                                                            
C25  26009645.597      112626.532       -1811.082          27.677                                                            
C28  24612774.031     -219607.917        2298.897          31.046                                                            
E05  23606030.185      -30965.392         510.660          32.392    23606032.883      -40319.195         381.265          31.178
> 2019 12 10 09 39 19.0002309  0 32
G03  23403066.194      -23337.708         772.441          20.001    23402977.156      237171.006         625.980           7.000
G10  25661387.191          91.848       -3281.948           7.000                                                            
G14  20523631.286       22652.865        -375.596          26.716                                                            
G16  20642052.604      -90013.914        1316.558          34.267                                                            
G22  23153005.408       16034.132        -248.033          29.379                                                            
G23  25760391.252         -90.562        3261.460           7.000                                                            
G26  20250543.740       41132.729        -628.099          36.566    20250538.944       82054.978        -468.947          32.620
G27  23947176.315       -2175.827        3495.607          14.557                                                            
G29  23750578.716      104982.010       -1583.202          39.441                                                            
G31  21744222.788       54712.954        -799.090          34.091                                                            
G32  21723871.377      154701.271       -2316.126          38.705    21723873.775      312601.310       -1729.923          36.420
R09  21312442.203      125645.113       -1954.547          26.559                                                            
R07  19394863.515       90321.662       -1348.105          36.712                                                            
J01  36118623.897       10114.403        -164.091          26.729    36118628.394       12585.633        -120.089          23.272
J02  39873085.237       23732.367        -350.525          34.186    39873067.850       48100.817        -261.784          33.453
J04  37049279.817       14770.289        -223.468          27.621    37049269.924       29035.512        -164.194          30.938
C01  36964232.294        4401.787         -59.930          24.078                                                            
C02  37073847.509           0.210        -107.317           7.000                                                            
C03  36356753.843        4791.562         -71.976          32.625                                                            
C04  38523708.891           0.067         -70.244           7.000                                                            
C05  39293769.290        6481.174        -101.470           7.000                                                            
C06  35777954.737       -6226.779          89.539          26.129                                                            
C07  36191381.428       26845.871        -420.498          30.726                                                            
C09  36088699.813     4059900.740         539.196          35.590                                                            
C10  37016086.197        8726.266        -136.975          30.205                                                            
C13  41495186.080       10231.375        -536.592           7.000                                                            
C16  36085293.271       -3963.007          53.588          27.381                                                            
C20  24815267.648         -63.893        1879.023           7.000                                                            
C23  23227557.796      102199.512       -1055.579          26.516                                                            
C25  26009990.958      114437.756       -1809.582          27.895                                                            
C28  24612328.540     -221905.129        2297.213          32.725                                                            
E05  23605936.950      -31475.771         510.379          33.782    23605935.151      -40700.375         381.181          31.921
> 2019 12 10 09 39 20.0002309  0 32
G03  23402924.093      -24115.669         773.059          18.958    23402834.455      236589.213         591.491           9.910
G10  25662009.860          91.925       -3281.948           7.000                                                            
G14  20523703.835       23030.035        -377.170          27.849                                                            
G16  20641812.770      -91332.519        1318.605          35.368                                                            
G22  23153062.368       16293.585        -256.272          27.391                                                            
G23  25759769.483         -90.652        3262.436           7.000                                                            
G26  20250660.659       41761.205        -628.476          35.935    20250659.160       82524.317        -469.339          32.817
G27  23946509.876       -2175.909        3495.607          19.134                                                            
G29  23750884.205      106562.403       -1580.394          40.785                                                            
G31  21744383.177       55512.291        -799.337          34.311                                                            
G32  21724318.967      157017.001       -2315.730          40.109    21724314.470      314330.549       -1729.239          37.637
R09  21312787.564      127600.478       -1956.098          26.632                                                            
R07  19395130.930       91671.060       -1349.398          37.012                                                            
J01  36118657.474       10275.280        -160.876          25.931    36118655.975       12705.949        -119.907          23.008
J02  39873146.995       24081.871        -349.504          33.700    39873134.703       48361.836        -261.019          34.486
J04  37049309.197       14990.162        -219.873          27.159    37049311.895       29199.810        -164.298          32.253
C01  36964233.494        4460.604         -61.273          23.416                                                            
C02  37073867.596           0.213        -107.317           7.000                                                            
C03  36356758.040        4864.987         -72.319          30.972                                                            
C04  38523722.382           0.071         -72.195           7.000                                                            
C05  39293786.977        6583.039        -103.421           7.000                                                            
C06  35777950.240       -6316.350          88.585          25.113                                                            
C07  36191460.873       27266.544        -420.501          29.972                                                            
C09  36088595.485     4059361.231         539.510          35.578                                                            
C10  37016107.782        8864.021        -137.754          28.230                                                            
C13  41495346.170       10767.966        -536.592           7.000                                                            
C16  36085283.678       -4019.846          56.839          28.804                                                            
C20  24814904.899         -63.970        1880.974           7.000                                                            
C23  23227759.557      103253.799       -1054.287          27.604                                                            
C25  26010336.918      116248.369       -1809.493          27.044                                                            
C28  24611882.149     -224203.772        2298.643          32.603                                                            
E05  23605836.220      -31985.466         509.695          32.784    23605839.218      -41080.990         380.615          31.241
> 2019 12 10 09 39 21.0002309  0 32
G03  23402775.995      -24888.323         779.561          19.529    23402687.856      235994.713         590.634           8.648
G10  25662634.928          91.797       -3281.948           7.000                                                            
G14  20523782.081       23406.992        -377.028          26.278                                                            
G16  20641551.951      -92650.776        1318.258          33.536                                                            
G22  23153100.442       16542.920        -246.091          28.512                                                            
G23  25759147.713         -90.524        3262.436           9.970                                                            
G26  20250782.975       42390.277        -629.072          36.342    20250778.778       82994.095        -469.778          34.520
G27  23945846.136       -2175.772        3495.607          18.651                                                            
G29  23751190.893      108144.412       -1582.009          39.887                                                            
G31  21744525.278       56311.307        -799.016          31.323                                                            
G32  21724755.765      159334.066       -2317.066          38.900    21724755.165      316061.007       -1730.458          36.933
R09  21313175.196      129554.745       -1954.563          26.861                                                            
R07  19395376.160       93020.930       -1349.870          36.872                                                            
J01  36118684.155       10437.294        -162.014          25.676    36118689.552       12826.889        -120.933          23.086
J02  39873206.653       24432.016        -350.145          34.932    39873201.557       48623.299        -261.463          33.997
J04  37049358.063       15209.894        -218.072          26.326    37049354.765       29363.184        -163.374          30.612
C01  36964256.278        4520.557         -61.324          25.539                                                            
C02  37073888.581           0.209        -107.317           7.000                                                            
C03  36356777.826        4937.817         -72.615          31.323                                                            
C04  38523736.772           0.068         -72.195           7.000                                                            
C05  39293807.663        6684.117        -101.470           7.000                                                            
C06  35777934.951       -6406.182          89.542          23.868                                                            
C07  36191541.517       27686.813        -420.269          30.769                                                            
C09  36088491.757     4058822.150         539.080          35.523                                                            
C10  37016136.562        9001.280        -136.260          28.052                                                            
C13  41495449.898       11304.558        -536.592           7.000                                                            
C16  36085274.984       -4076.542          57.321          26.920                                                            
C20  24814544.248         -63.864        1879.023           7.000                                                            
C23  23227964.615      104308.450       -1051.543          26.096                                                            
C25  26010688.275      118059.774       -1811.404          27.946                                                            
C28  24611451.647     -226501.271        2297.499          31.985                                                            
E05  23605748.680      -32495.007         509.541          33.023    23605742.385      -41461.447         380.457          33.496
> 2019 12 10 09 39 22.0002309  0 32
G03  23402605.114      -25670.540         777.925          17.204    23402538.560      235409.304         616.815           7.000
G10  25663259.995          91.874       -3281.948          16.307                                                            
G14  20523847.436       23785.094        -377.238          26.749                                                            
G16  20641311.517      -93968.121        1317.345          37.407                                                            
G22  23153130.421       16791.147        -252.848          34.905                                                            
G23  25758527.143         -90.615        3263.412          12.811                                                            
G26  20250898.095       43019.566        -629.288          35.063    20250899.294       83464.115        -470.020          33.326
G27  23945180.896       -2175.874        3496.582          22.692                                                            
G29  23751489.186      109727.425       -1584.919          38.897                                                            
G31  21744688.965       57110.780        -799.474          35.330                                                            
G32  21725197.958      161650.830       -2316.764          38.812    21725195.860      317791.004       -1729.997          38.563
R09  21313527.452      131509.533       -1954.788          25.786                                                            
R07  19395638.479       94371.861       -1350.931          37.036                                                            
J01  36118721.330       10598.519        -158.585          25.603    36118673.962       12935.163        -108.087          23.350
J02  39873274.107       24781.918        -349.902          37.246    39873268.411       48884.129        -260.830          35.740
J04  37049408.128       15429.211        -219.317          30.119    37049395.537       29527.187        -167.106          32.412
C01  36964260.175        4580.033         -61.752          25.735                                                            
C02  37073909.566           0.207        -105.366           7.000                                                            
C03  36356782.923        5010.857         -72.690          30.679                                                            
C04  38523751.762           0.070         -72.195           7.000                                                            
C05  39293826.850        6784.028        -101.470           7.000                                                            
C06  35777910.968       -6495.539          92.791          25.909                                                            
C07  36191620.962       28107.415        -420.602          29.969                                                            
C09  36088389.828     4058282.689         539.461          35.512                                                            
C10  37016163.843        9138.631        -136.762          27.020                                                            
C13  41495553.026       11839.591        -536.592           7.000                                                            
C16  36085265.091       -4133.329          56.787          28.322                                                            
C20  24814182.699         -63.941        1880.974          14.727                                                            
C23  23228168.174      105362.641       -1053.533          26.964                                                            
C25  26011039.332      119870.439       -1811.257          27.728                                                            
C28  24610999.859     -228799.704        2298.433          31.561                                                            
E05  23605642.254      -33003.965         508.958          30.962    23605643.153      -41841.579         380.132          32.183
> 2019 12 10 09 39 23.0002309  0 32
G03  23402415.945      -26458.244         782.999          18.903    23402389.563      234823.150         585.355           7.410
G10  25663884.762          91.732       -3280.972          15.258                                                            
G14  20523916.388       24162.537        -376.862          25.478                                                            
G16  20641047.700      -95285.296        1317.174          33.613                                                            
G22  23153196.376       17043.302        -259.391          31.761                                                            
G23  25757905.973         -90.460        3261.460          12.274                                                            
G26  20251015.614       43649.346        -629.780          35.651    20251016.513       83934.323        -470.208          33.123
G27  23944515.657       -2175.737        3496.582          20.234                                                            
G29  23751796.473      111310.631       -1583.206          38.110                                                            
G31  21744846.656       57909.849        -799.069          32.322                                                            
G32  21725635.655      163968.789       -2317.959          40.612    21725637.154      319521.843       -1730.839          36.254
R09  21313905.790      133469.481       -1954.782          24.725                                                            
R07  19395890.904       95723.216       -1351.355          37.221                                                            
J01  36118747.411       10760.612        -162.093          26.211    36118702.443       13041.905        -128.314          19.231
J02  39873338.862       25131.542        -349.624          35.613    39873334.365       49145.334        -261.205          33.596
J04  37049448.001       15648.639        -219.833          27.844    37049437.808       29690.975        -168.588          29.953
C01  36964287.456        4639.262         -60.886          23.786                                                            
C02  37073931.152           0.214        -107.317           7.000                                                            
C03  36356802.110        5083.421         -72.363          30.730                                                            
C04  38523765.552           0.069         -70.244           7.000                                                            
C05  39293847.236        6885.104         -99.519           7.000                                                            
C06  35777896.278       -6585.425          89.036          25.242                                                            
C07  36191706.703       28527.978        -420.563          30.688                                                            
C09  36088280.104     4057743.552         539.137          35.661                                                            
C10  37016193.223        9276.299        -138.946          28.737                                                            
C13  41495657.054       12375.788        -534.641           7.000                                                            
C16  36085254.298       -4189.895          52.567          25.909                                                            
C20  24813822.348         -63.834        1879.023           7.000                                                            
C23  23228379.827      106416.441       -1054.914          25.825                                                            
C25  26011381.695      121681.719       -1813.010          27.529                                                            
C28  24610567.559     -231097.268        2297.565          30.731                                                            
E05  23605552.616      -33512.976         509.012          32.144    23605547.819      -42221.555         379.976          32.614
> 2019 12 10 09 39 24.0002309  0 31
G03  23402287.633      -27239.895         781.783          19.231    23402243.264      234233.483         585.336           7.000
G10  25664509.830          91.809       -3280.972           7.000                                                            
G14  20523998.831       24541.341        -378.804          27.981                                                            
G16  20640804.269      -96601.738        1316.442          33.932                                                            
G22  23153242.244       17295.884        -252.582          28.331                                                            
G23  25757285.402         -90.550        3262.436           7.000                                                            
G26  20251133.732       44279.488        -630.142          35.155    20251137.329       84404.862        -470.539          31.823
G27  23943850.717       -2175.800        3495.607          16.279                                                            
G29  23752089.670      112893.071       -1582.440          40.842                                                            
G31  21744993.554       58709.243        -799.393          31.628                                                            
G32  21726082.646      166286.118       -2317.329          40.765    21726077.849      321252.434       -1730.591          38.444
R09  21314286.526      135423.761       -1953.650          23.787                                                            
R07  19396147.826       97075.806       -1352.590          37.780                                                            
J01  36118781.888       10921.940        -160.937          25.838    36118743.514       13163.372        -127.019          17.588
J02  39873409.013       25480.532        -348.990          33.658    39873400.319       49405.935        -260.601          33.984
J04  37049481.877       15868.208        -219.569          26.778    37049477.381       29854.938        -163.963          30.617
C02  37073951.537           0.209        -107.317           7.000                                                            
C03  36356811.403        5156.476         -72.733          30.246                                                            
C04  38523780.242           0.069         -72.195           7.000                                                            
C05  39293866.722        6986.576        -101.470           7.000                                                            
C06  35777891.781       -6676.454          87.016          24.651                                                            
C07  36191784.649       28948.624        -420.646          30.179                                                            
C09  36088181.772     4057204.111         539.441          35.777                                                            
C10  37016217.506        9414.258        -137.960          28.316                                                            
C13  41495759.583       12910.823        -536.592           7.000                                                            
C16  36085243.206       -4246.427          56.532          28.794                                                            
C20  24813461.098         -63.878        1879.023           9.139                                                            
C23  23228569.596      107470.596       -1054.155          27.807                                                            
C25  26011726.157      123491.848       -1809.117          24.721                                                            
C28  24610119.669     -233395.853        2298.585          31.471                                                            
E05  23605454.584      -34021.193         508.217          32.249    23605451.586      -42601.231         379.676          30.357
> 2019 12 10 09 39 25.0002309  0 32
G03  23402137.737      -28014.814         776.163          21.064    23402094.267      233648.122         588.061          10.089
G10  25665133.698          91.872       -3279.997           7.000                                                            
G14  20524067.184       24919.354        -378.012          26.103                                                            
G16  20640560.237      -97918.643        1316.905          32.932                                                            
G22  23153291.710       17548.290        -252.407          26.961                                                            
G23  25756663.633         -90.626        3262.436          11.901                                                            
G26  20251254.248       44910.041        -630.553          35.778    20251258.446       84875.802        -470.940          34.064
G27  23943184.278       -2175.901        3496.582          20.059                                                            
G29  23752395.459      114476.984       -1583.913          40.062                                                            
G31  21745147.048       59507.904        -797.822          28.444                                                            
G32  21726523.641      168604.603       -2318.485          39.836    21726518.844      322983.824       -1731.390          36.147
R09  21314658.869      137378.425       -1956.166          25.334                                                            
R07  19396389.759       98428.846       -1353.040          35.524                                                            
J01  36118815.764       11083.901        -161.961          25.969    36118776.491       13296.968        -132.558          17.192
J02  39873471.670       25829.791        -349.258          35.432    39873466.274       49666.715        -260.780          33.280
J04  37049524.448       16087.559        -219.351          28.517    37049522.649       30018.659        -163.721          29.180
C01  36964314.138        4756.920         -60.526          23.663                                                            
C02  37073972.223           0.212        -107.317           7.000                                                            
C03  36356829.691        5229.137         -73.106          29.867                                                            
C04  38523793.133           0.068         -70.244           7.000                                                            
C05  39293886.209        7088.046        -101.470           7.242                                                            
C06  35777878.590       -6765.656          88.885          21.601                                                            
C07  36191868.291       29369.225        -420.601          30.832                                                            
C09  36088077.144     4056664.960         539.151          35.854                                                            
C10  37016241.489        9551.536        -137.278          28.794                                                            
C13  41495862.112       13445.071        -534.641           7.000                                                            
C16  36085234.212       -4300.414          58.238          25.083                                                            
C20  24813100.448         -63.889        1877.071           7.000                                                            
C23  23228783.648      108524.736       -1054.145          26.560                                                            
C25  26012076.314      125302.481       -1810.633          26.473                                                            
C28  24609681.372     -235693.681        2297.828          30.832                                                            
E05  23605368.543      -34529.371         508.178          33.121    23605353.854      -42980.687         379.457          32.374
> 2019 12 10 09 39 26.0002309  0 32
G03  23401998.034      -28789.166         775.062          22.299    23401944.971      233062.772         585.355           8.235
G10  25665758.765          91.744       -3279.997          17.530                                                            
G14  20524137.635       25298.647        -379.293          28.186                                                            
G16  20640304.215      -99234.273        1315.630          33.233                                                            
G22  23153326.785       17801.866        -249.344          24.797                                                            
G23  25756042.163         -90.499        3262.436          17.289                                                            
G26  20251375.664       45540.973        -630.932          33.542    20251377.463       85346.902        -471.100          32.673
G27  23942519.339       -2175.764        3496.582           7.000                                                            
G29  23752694.652      116060.794       -1583.810          41.373                                                            
G31  21745294.546       60307.151        -799.607          30.029                                                            
G32  21726965.835      170923.154       -2318.551          41.256    21726960.138      324715.148       -1731.324          38.435
R09  21315036.008      139332.715       -1954.901          22.564                                                            
R07  19396646.381       99782.881       -1354.035          36.712                                                            
J01  36118853.538       11245.663        -161.763          26.448    36118804.972       13424.596        -121.788          17.596
J02  39873536.725       26178.618        -348.828          33.234    39873533.127       49927.242        -260.527          34.170
J04  37049560.123       16306.977        -219.418          27.497    37049560.423       30182.563        -163.903          31.839
C01  36964328.528        4815.595         -60.721          22.118                                                            
C02  37073993.508           0.214        -107.317           7.000                                                            
C03  36356847.678        5301.677         -73.129          31.485                                                            
C04  38523807.823           0.072         -72.195           7.000                                                            
C05  39293906.595        7189.516        -101.470          11.076                                                            
C06  35777860.603       -6855.234          90.491          21.989                                                            
C07  36191946.837       29789.854        -420.629          29.205                                                            
C09  36087973.416     4056125.643         539.317          35.579                                                            
C10  37016269.670        9689.192        -137.655          28.470                                                            
C13  41496032.095       13979.712        -534.641           7.000                                                            
C16  36085223.420       -4356.905          56.491          28.582                                                            
C20  24812739.798         -63.816        1877.071           7.000                                                            
C23  23228976.414      109578.809       -1054.047          27.477                                                            
C25  26012416.879      127112.546       -1809.153          23.640                                                            
C28  24609237.080     -237991.883        2298.202          31.647                                                            
E05  23605262.117      -35037.130         507.759          31.775    23605256.121      -43359.862         379.175          30.453
> 2019 12 10 09 39 27.0002309  0 32
G03  23401839.743      -29565.956         777.410          23.996    23401800.770      232486.635         585.336           7.000
G10  25666382.633          91.821       -3279.997           7.000                                                            
G14  20524209.885       25678.379        -379.732          26.269                                                            
G16  20640056.886     -100549.393        1315.120          32.375                                                            
G22  23153390.941       18055.554        -253.688          29.827                                                            
G23  25755421.593         -90.575        3262.436           7.391                                                            
G26  20251496.481       46172.357        -631.384          35.296    20251500.078       85818.418        -471.516          34.054
G27  23941854.099       -2175.846        3496.582          19.987                                                            
G29  23752997.442      117645.301       -1584.508          39.560                                                            
G31  21745447.440       61106.243        -799.091          29.606                                                            
G32  21727401.733      173242.113       -2318.959          40.678    21727402.332      326446.812       -1731.665          36.034
R09  21315399.956      141287.600       -1952.520          24.797                                                            
R07  19396894.309      101137.648       -1354.766          35.636                                                            
J01  36118879.920       11407.437        -163.084          26.208    36118830.154       13540.277        -120.349          18.762
J02  39873605.377       26527.366        -348.748          36.265    39873599.082       50187.612        -260.370          33.209
J04  37049604.792       16526.609        -220.297          27.052    37049606.291       30346.711        -164.148          30.198
C01  36964327.029        4874.714         -61.655          23.721                                                            
C02  37074014.194           0.210        -107.317          16.692                                                            
C03  36356858.471        5374.336         -72.638          30.447                                                            
C04  38523821.613           0.067         -70.244          20.398                                                            
C05  39293926.081        7290.986        -101.470           7.000                                                            
C06  35777844.714       -6944.705          87.531          22.724                                                            
C07  36192029.279       30210.485        -420.631          29.726                                                            
C09  36087871.187     4055586.367         539.275          35.903                                                            
C10  37016291.854        9826.997        -137.805          28.666                                                            
C13  41496151.412       14514.352        -534.641           7.000                                                            
C16  36085215.625       -4413.262          57.511          25.179                                                            
C20  24812378.548         -63.860        1877.071           7.000                                                            
C23  23229212.351      110633.056       -1054.994          26.772                                                            
C25  26012771.533      128922.631       -1811.988          25.413                                                            
C28  24608792.787     -240290.099        2298.216          30.375                                                            
E05  23605177.576      -35544.497         507.366          31.437    23605161.387      -43738.791         378.929          32.793
> 2019 12 10 09 39 28.0002309  0 31
G03  23401709.034      -30342.432         776.476          23.621    23401653.872      231911.036         585.336           8.748
G10  25667007.700          91.898       -3279.997           7.000                                                            
G14  20524278.538       26058.468        -380.088          28.268                                                            
G16  20639821.249     -101863.978        1314.585          33.004                                                            
G22  23153433.811       18310.581        -256.884          27.838                                                            
G23  25754800.123         -90.652        3262.436           7.000                                                            
G26  20251622.094       46804.286        -631.929          33.331    20251618.196       86290.299        -471.882          33.234
G27  23941189.160       -2175.928        3496.582          18.651                                                            
G29  23753299.333      119230.549       -1585.247          42.518                                                            
G31  21745596.737       61905.549        -799.306          30.025                                                            
G32  21727851.122      175561.804       -2319.691          41.088    21727843.627      328179.020       -1732.208          38.030
R09  21315778.294      143240.026       -1957.343          22.640                                                            
R07  19397150.932      102493.326       -1355.678          36.067                                                            
J01  36118913.197       11569.854        -161.702          26.402    36118865.829       13657.166        -119.539          19.081
J02  39873669.233       26876.119        -348.752          33.328    39873665.935       50448.102        -260.490          34.087
J04  37049643.166       16745.881        -219.272          28.712    37049644.365       30510.336        -163.625          32.161
C02  37074035.779           0.213        -107.317           7.000                                                            
C03  36356874.959        5446.925         -72.693          32.203                                                            
C04  38523836.003           0.069         -70.244           7.000                                                            
C05  39293946.767        7392.456        -101.470           7.000                                                            
C06  35777816.233       -7033.548          86.758          20.688                                                            
C07  36192110.823       30631.157        -420.672          28.735                                                            
C09  36087766.859     4055047.314         539.054          35.103                                                            
C10  37016317.037        9964.640        -137.643          27.955                                                            
C13  41496171.798       15048.992        -534.641           7.000                                                            
C16  36085195.839       -4469.483          56.220          28.018                                                            
C20  24812018.797         -63.904        1877.071           7.000                                                            
C23  23229377.237      111687.816       -1056.248          27.326                                                            
C25  26013119.892      130735.527       -1808.048          22.444                                                            
C28  24608350.593     -242587.958        2297.859          31.358                                                            
E05  23605061.856      -36051.605         507.108          30.607    23605066.353      -44117.349         378.558          31.284
> 2019 12 10 09 39 29.0002309  0 32
G03  23401554.941      -31117.992         776.790          23.655    23401507.274      231335.455         575.599          12.410
G10  25667632.468          91.769       -3279.997          18.362                                                            
G14  20524349.289       26439.584        -381.116          27.209                                                            
G16  20639543.341     -103177.854        1313.875          31.957                                                            
G22  23153475.782       18565.171        -254.590          29.117                                                            
G23  25754179.552         -90.524        3262.436          16.763                                                            
G26  20251744.109       47436.637        -632.351          35.625    20251739.013       86762.563        -472.264          33.541
G27  23940523.920       -2175.792        3496.582          18.601                                                            
G29  23753602.423      120815.862       -1585.313          38.851                                                            
G31  21745745.733       62704.875        -799.326          32.218                                                            
G32  21728285.821      177881.459       -2319.654          40.574    21728285.521      329911.257       -1732.237          35.852
R09  21316138.045      145194.547       -1957.527          24.291                                                            
R07  19397416.548      103849.997       -1356.672          36.019                                                            
J01  36118933.882       11731.517        -161.663          26.659    36118897.907       13778.127        -118.771          19.374
J02  39873741.183       27224.562        -348.444          36.105    39873733.389       50708.214        -260.112          33.821
J04  37049690.833       16965.812        -220.356          26.475    37049686.336       30674.710        -164.374          30.467
C01  36964342.918        4993.710         -61.159          23.078                                                            
C02  37074057.064           0.209        -107.317           7.000                                                            
C03  36356885.752        5519.737         -72.829          29.858                                                            
C04  38523850.393           0.066         -70.244           7.000                                                            
C05  39293966.853        7493.927        -101.470           7.000                                                            
C06  35777792.550       -7122.568          89.019          24.249                                                            
C07  36192192.367       31051.897        -420.740          29.354                                                            
C09  36087661.932     4054508.193         539.121          35.862                                                            
C10  37016349.714       10102.742        -138.102          27.817                                                            
C13  41496275.526       15583.633        -534.641           7.000                                                            
C16  36085188.644       -4525.281          55.994          25.597                                                            
C20  24811658.746         -63.831        1877.071           7.000                                                            
C23  23229596.985      112741.823       -1052.816          25.624                                                            
C25  26013456.559      132545.464       -1810.920          24.270                                                            
C28  24607910.198     -244886.282        2298.323          30.132                                                            
E05  23604979.713      -36557.925         506.321          29.607    23604967.421      -44495.539         378.191          33.101
> 2019 12 10 09 39 30.0002309  0 31
G03  23401415.237      -31893.251         775.259          23.676    23401358.876      230758.006         575.580          13.240
G10  25668257.535          91.846       -3279.997          13.821                                                            
G14  20524421.838       26820.642        -381.058          26.378                                                            
G16  20639325.093     -104491.212        1313.359          33.612                                                            
G22  23153524.948       18814.392        -252.146          26.290                                                            
G23  25753558.982         -90.615        3263.412          16.193                                                            
G26  20251864.626       48069.718        -633.081          33.534    20251858.330       87235.260        -472.697          32.554
G27  23939858.980       -2175.854        3495.607          16.045                                                            
G29  23753906.713      122402.560       -1586.697          40.601                                                            
G31  21745906.722       63505.404        -803.364          30.050                                                            
G32  21728732.511      180202.286       -2320.827          40.834    21728726.216      331644.276       -1733.019          37.630
R09  21316499.894      147148.862       -1955.729          25.575                                                            
R07  19397651.585      105207.525       -1357.528          36.075                                                            
J01  36118970.157       11894.339        -162.821          25.578    36118928.186       13899.001        -118.682          18.020
J02  39873805.639       27573.232        -348.670          33.404    39873798.144       50968.656        -260.442          34.004
J04  37049733.403       17185.386        -219.574          29.868    37049727.707       30838.448        -163.738          32.485
C02  37074078.649           0.211        -107.317           7.000                                                            
C03  36356896.844        5592.203         -73.137          30.740                                                            
C04  38523864.783           0.068         -70.244           7.000                                                            
C05  39293987.538        7595.397        -101.470           7.000                                                            
C06  35777789.851       -7211.651          86.199          21.997                                                            
C07  36192270.612       31472.926        -421.029          28.752                                                            
C09  36087558.503     4053969.427         538.766          35.444                                                            
C10  37016376.696       10240.690        -137.948          27.363                                                            
C13  41496378.955       16118.273        -534.641           7.000                                                            
C16  36085174.254       -4581.350          55.888          28.158                                                            
C20  24811298.995         -63.842        1875.120           7.000                                                            
C23  23229790.651      113796.179       -1053.958          26.453                                                            
C25  26013812.412      134355.708       -1812.031          22.512                                                            
C28  24607464.107     -247183.891        2297.610          31.310                                                            
E05  23604865.492      -37064.092         506.167          28.953    23604872.387      -44873.449         377.910          31.846
> 2019 12 10 09 39 31.0002309  0 31
G03  23401268.339      -32667.965         774.714          25.795    23401215.276      230178.838         570.645           8.189
G10  25668881.403          91.705       -3279.021          11.577                                                            
G14  20524493.189       27202.818        -382.697          25.220                                                            
G16  20639051.082     -105803.741        1312.529          32.152                                                            
G22  23153580.410       19069.053        -254.661          32.004                                                            
G23  25752938.712         -90.487        3263.412          15.148                                                            
G26  20251987.841       48703.032        -633.314          37.171    20251979.147       87708.253        -472.993          34.027
G27  23939193.741       -2175.737        3496.582          19.555                                                            
G29  23754204.706      123988.737       -1586.177          36.202                                                            
G31  21746057.218       64304.423        -799.019          33.267                                                            
G32  21729163.013      182522.853       -2320.568          39.638    21729167.810      333377.209       -1732.933          35.632
R09  21316869.538      149102.779       -1952.811          26.050                                                            
R07  19397913.904      106566.047       -1358.522          34.674                                                            
J01  36118992.942       12056.760        -162.421          27.271    36118960.264       14020.620        -120.437          18.319
J02  39873869.794       27921.535        -348.303          35.878    39873864.398       51228.726        -260.070          33.679
J04  37049775.674       17403.232        -219.755          27.268    37049771.777       31003.075        -164.627          30.672
C02  37074099.335           0.214        -107.317           7.000                                                            
C03  36356910.335        5665.252         -73.521          29.172                                                            
C04  38523878.274           0.069         -70.244           7.000                                                            
C05  39294058.589        7696.867        -101.470           7.000                                                            
C06  35777752.078       -7293.921          87.431          22.605                                                            
C07  36192355.753       31893.916        -420.990          28.710                                                            
C09  36087454.175     4053430.532         538.895          36.049                                                            
C10  37016400.079       10379.169        -138.479          27.743                                                            
C13  41496481.484       16652.914        -534.641           7.000                                                            
C16  36085169.757       -4637.102          55.753          26.658                                                            
C20  24810938.944         -63.768        1875.120          10.648                                                            
C23  23229997.807      114850.327       -1052.171          25.490                                                            
C25  26014155.375      136165.187       -1807.175          23.418                                                            
C28  24607023.412     -249482.147        2298.256          30.431                                                            
E05  23604775.854      -37569.635         505.543          28.620    23604775.554      -45250.916         377.467          33.171
> 2019 12 10 09 39 32.0002309  0 32
G03  23401121.741      -33440.444         773.849          22.400    23401078.870      229593.480         575.504          10.297
G10  25669505.271          91.781       -3279.021          15.536                                                            
G14  20524558.544       27585.925        -382.225          26.202                                                            
G16  20638801.055     -107116.107        1312.367          31.129                                                            
G22  23153621.182       19325.511        -255.858          28.910                                                            
G23  25752316.942         -90.564        3263.412           7.000                                                            
G26  20252102.961       49336.857        -633.824          34.560    20252100.862       88181.557        -473.304          34.122
G27  23938528.801       -2175.800        3495.607          18.568                                                            
G29  23754509.595      125576.801       -1588.065          40.794                                                            
G31  21746206.514       65103.897        -799.326          30.401                                                            
G32  21729622.296      184844.738       -2321.885          40.235    21729609.404      335111.017       -1733.808          37.415
R09  21317220.895      151057.399       -1953.485          26.115                                                            
R07  19398151.039      107925.179       -1359.132          33.678                                                            
J01  36119026.518       12219.946        -163.186          26.765    36118987.545       14141.551        -123.958          15.027
J02  39873940.246       28270.211        -348.676          34.803    39873933.051       51489.100        -260.374          34.063
J04  37049824.540       17622.568        -217.008          27.509    37049811.349       31166.895        -163.820          32.013
C01  36964392.384        5170.875         -60.859          23.005                                                            
C02  37074120.620           0.209        -107.317           7.000                                                            
C03  36356930.421        5737.639         -73.674          32.722                                                            
C04  38523892.964           0.069         -72.195          14.721                                                            
C05  39294026.811        7798.337        -101.470          13.382                                                            
C06  35777731.692       -7378.048          89.213          23.678                                                            
C07  36192434.599       32314.909        -420.994          28.692                                                            
C09  36087352.845     4052891.893         538.639          35.034                                                            
C10  37016424.962       10517.113        -138.119          26.148                                                            
C13  41496584.612       17187.554        -534.641           7.000                                                            
C16  36085153.568       -4693.073          55.090          27.747                                                            
C20  24810578.894         -63.812        1875.120           7.000                                                            
C23  23230196.270      115903.996       -1054.179          27.293                                                            
C25  26014506.132      137976.111       -1803.040          21.659                                                            
C28  24606580.619     -251779.551        2297.403          31.545                                                            
E05  23604680.520      -38075.085         505.450          29.696    23604681.719      -45628.338         377.422          31.811
> 2019 12 10 09 39 33.0002309  0 31
G03  23400966.148      -34210.955         772.675          24.068    23400917.582      229026.219         586.308          12.854
G10  25670130.339          91.872       -3279.997           7.000                                                            
G14  20524640.087       27966.480        -382.584          24.500                                                            
G16  20638555.226     -108427.390        1311.282          30.891                                                            
G22  23153681.140       19582.745        -257.234          34.050                                                            
G23  25751696.971         -90.613        3261.460           7.000                                                            
G26  20252225.876       49971.349        -634.492          34.972    20252220.180       88655.281        -473.724          33.944
G27  23937863.862       -2175.862        3494.631          16.737                                                            
G29  23754811.486      127163.881       -1587.079          40.249                                                            
G31  21746356.711       65903.344        -799.446          33.080                                                            
G32  21730048.301      187165.791       -2321.053          39.270    21730051.898      336844.338       -1733.321          36.424
R09  21317594.436      153011.675       -1955.375          26.597                                                            
R07  19398406.163      109285.438       -1360.260          34.480                                                            
J01  36119062.793       12382.278        -162.332          26.710    36119047.204       14254.168        -117.569          18.423
J02  39874005.301       28617.898        -347.687          37.222    39873997.506       51748.747        -259.646          33.826
J04  37049866.811       17842.998        -220.430          29.163    37049856.918       31331.560        -164.664          30.897
C02  37074142.205           0.216        -109.268           7.000                                                            
C03  36356944.511        5810.688         -73.486          31.850                                                            
C04  38523906.754           0.070         -72.195           7.000                                                            
C05  39294047.197        7901.756        -101.470          10.629                                                            
C06  35777715.503       -7466.634          89.398          24.221                                                            
C07  36192517.042       32735.957        -421.047          28.635                                                            
C09  36087250.316     4052353.028         538.865          35.004                                                            
C10  37016454.642       10655.808        -138.695          27.771                                                            
C13  41496687.441       17722.195        -534.641           7.000                                                            
C16  36085143.075       -4749.331          55.368          27.180                                                            
C20  24810219.442         -63.823        1873.169           8.383                                                            
C23  23230404.326      116958.646       -1056.783          27.370                                                            
C25  26014867.982      139783.472       -1807.757          27.109                                                            
C28  24606138.725     -254078.059        2298.508          30.230                                                            
E05  23604593.880      -38579.596         504.510          28.713    23604583.987      -46005.189         376.851          33.952
> 2019 12 10 09 39 34.0002309  0 31
G03  23400821.648      -34983.451         777.630          21.004    23400773.082      228447.610         580.249           9.135
G10  25670754.207          91.744       -3279.997          13.232                                                            
G14  20524718.933       28345.722        -385.865          27.054                                                            
G16  20638306.098     -109738.693        1311.303          31.465                                                            
G22  23153736.602       19839.128        -256.383          32.815                                                            
G23  25751076.401         -90.485        3261.460           7.000                                                            
G26  20252351.189       50606.212        -634.864          34.034    20252339.797       89129.404        -474.123          33.369
G27  23937198.922       -2175.725        3494.631          17.917                                                            
G29  23755117.574      128752.955       -1589.074          39.422                                                            
G31  21746530.290       66702.953        -799.610          31.565                                                            
G32  21730510.281      189488.593       -2322.802          38.540    21730493.193      338578.870       -1734.532          37.366
R09  21317955.986      154965.595       -1955.005          24.914                                                            
R07  19398671.779      110646.287       -1360.849          34.772                                                            
J01  36119093.372       12545.306        -166.705          25.001    36119086.177       14372.162        -122.985          19.300
J02  39874072.754       28966.292        -348.394          35.434    39874064.959       52008.937        -260.190          34.001
J04  37049908.782       18062.697        -219.699          28.871    37049895.891       31495.465        -163.905          31.384
C02  37074163.191           0.218        -109.268           7.000                                                            
C03  36356955.903        5883.036         -73.422          32.120                                                            
C04  38523921.144           0.072         -72.195           9.388                                                            
C05  39294067.283        8005.180        -103.421           8.612                                                            
C06  35777692.419       -7555.125          89.832          24.021                                                            
C07  36192598.885       33157.235        -421.278          28.341                                                            
C09  36087146.888     4051814.609         538.419          35.201                                                            
C10  37016479.824       10793.986        -138.179          27.410                                                            
C13  41496790.570       18256.835        -534.641           7.000                                                            
C16  36085133.482       -4809.446          54.866          27.959                                                            
C20  24809859.392         -63.750        1873.169          10.648                                                            
C23  23230609.084      118012.305       -1054.120          27.252                                                            
C25  26015219.039      141584.908       -1806.497          26.454                                                            
C28  24605694.732     -256375.253        2297.194          30.472                                                            
E05  23604490.152      -39084.296         504.700          29.547    23604489.252      -46381.966         376.777          32.666
> 2019 12 10 09 39 35.0002309  0 31
G03  23400668.754      -35762.944         777.850          21.172    23400632.779      227864.312         576.266           7.000
G10  25671377.775          91.794       -3278.046           7.000                                                            
G14  20524788.784       28730.633        -385.180          29.095                                                            
G16  20638054.272     -111049.004        1310.311          31.663                                                            
G22  23153782.170       20097.264        -259.330          34.413                                                            
G23  25750454.631         -90.589        3263.412          11.492                                                            
G26  20252468.708       51241.359        -635.147          36.176    20252461.812       89603.699        -474.294          34.437
G27  23936533.383       -2175.846        3496.582           7.000                                                            
G29  23755417.966      130341.152       -1588.197          38.847                                                            
G31  21746647.509       67501.773        -798.553          33.378                                                            
G32  21730927.592      191810.570       -2321.977          38.931    21730934.787      340312.835       -1733.966          35.939
R09  21318326.530      156917.957       -1952.338          25.541                                                            
R07  19398929.301      112008.092       -1361.805          33.686                                                            
J01  36119114.957       12707.707        -162.401          27.081    36119123.651       14493.533        -125.647          21.125
J02  39874138.109       29313.870        -347.578          37.345    39874130.014       52268.420        -259.483          33.434
J04  37049954.950       18282.602        -219.905          27.869    37049940.260       31660.162        -164.697          30.910
C02  37074183.577           0.210        -107.317           7.000                                                            
C03  36356969.094        5956.042         -73.632          31.070                                                            
C04  38523934.935           0.067         -70.244           7.000                                                            
C05  39294087.070        8106.652        -103.421           7.000                                                            
C06  35777666.937       -7643.368          89.749          23.150                                                            
C07  36192678.330       33578.222        -420.987          28.950                                                            
C09  36087042.560     4051275.834         538.775          36.095                                                            
C10  37016507.405       10932.773        -138.786          28.212                                                            
C13  41496893.099       18789.526        -534.641           7.000                                                            
C16  36085127.186       -4865.075          57.799          27.046                                                            
C20  24809499.941         -63.794        1873.169           7.000                                                            
C23  23230815.341      119066.370       -1049.512          26.381                                                            
C25  26015561.102      143383.495       -1805.715          25.765                                                            
C28  24605268.427     -258673.783        2298.530          29.482                                                            
E05  23604394.218      -39588.208         503.913          28.350    23604390.620      -46758.236         376.270          32.802
> 2019 12 10 09 39 36.0002309  0 31
G03  23400524.554      -36541.491         772.298          20.480    23400476.287      227297.933         583.831           9.467
G10  25672001.643          91.870       -3278.046          15.636                                                            
G14  20524861.034       29114.647        -384.014          28.664                                                            
G16  20637803.946     -112359.131        1310.128          31.264                                                            
G22  23153819.944       20352.000        -257.895          32.229                                                            
G23  25749832.862         -90.666        3263.412           7.000                                                            
G26  20252592.822       51877.066        -635.707          35.330    20252582.329       90078.494        -474.796          32.820
G27  23935867.244       -2175.928        3496.582           7.000                                                            
G29  23755713.262      131931.409       -1590.257          38.280                                                            
G31  21746815.693       68301.659        -799.886          32.577                                                            
G32  21731391.371      194134.291       -2323.721          38.684    21731378.480      342048.053       -1735.218          37.046
R09  21318690.178      158870.667       -1953.271          26.480                                                            
R07  19399185.323      113370.699       -1362.607          35.595                                                            
J01  36119147.634       12870.881        -163.174          25.661    36119151.532       14615.627        -122.060          20.950
J02  39874203.463       29662.132        -348.261          34.787    39874196.868       52528.485        -260.064          34.077
J04  37049987.627       18503.249        -220.647          28.522    37049980.132       31824.162        -164.000          31.284
C02  37074203.963           0.213        -107.317           7.000                                                            
C03  36356983.784        6028.326         -73.640          30.629                                                            
C04  38523948.725           0.071         -72.195           7.000                                                            
C05  39294106.556        8208.120        -101.470           7.000                                                            
C06  35777645.352       -7732.027          88.827          20.922                                                            
C07  36192761.073       33999.484        -421.262          28.669                                                            
C09  36086936.734     4050737.503         538.331          35.388                                                            
C10  37016532.288       11070.988        -138.216          27.713                                                            
C13  41496995.028       19322.214        -532.689           7.000                                                            
C16  36085104.102       -4920.394          55.844          25.701                                                            
C20  24809139.890         -63.838        1873.169           7.000                                                            
C23  23231014.403      120120.378       -1048.706          26.660                                                            
C25  26015909.760      145190.757       -1810.556          23.872                                                            
C28  24604817.239     -260970.984        2297.200          30.445                                                            
E05  23604297.085      -40091.952         503.744          29.575    23604297.685      -47134.432         376.196          32.201
> 2019 12 10 09 39 37.0002309  0 32
G03  23400367.463      -37315.193         773.583          21.068    23400335.984      226719.937         588.004           9.037
G10  25672625.511          91.742       -3278.046           7.000                                                            
G14  20524934.484       29499.758        -385.111          26.968                                                            
G16  20637556.617     -113668.565        1309.433          31.968                                                            
G22  23153873.607       20607.857        -258.670          32.531                                                            
G23  25749212.291         -90.552        3264.387          17.466                                                            
G26  20252707.342       52512.888        -635.821          36.663    20252706.143       90553.248        -474.753          34.558
G27  23935202.004       -2175.792        3496.582           7.000                                                            
G29  23756030.442      133519.463       -1586.193          40.224                                                            
G31  21746971.885       69100.990        -799.331          33.391                                                            
G32  21731814.078      196456.666       -2322.375          39.402    21731818.875      343782.304       -1734.251          36.537
R09  21319043.034      160824.875       -1955.225          27.548                                                            
R07  19399435.650      114734.006       -1363.307          34.629                                                            
J01  36119181.811       13033.081        -162.779          27.297    36119182.410       14736.492        -121.493          22.704
J02  39874264.021       30008.883        -346.751          36.700    39874261.923       52787.463        -258.978          34.076
J04  37050028.399       18723.554        -220.305          29.445    37050023.902       31988.750        -164.588          30.293
C01  36964457.738        5466.793         -61.328          22.074                                                            
C02  37074225.248           0.209        -107.317          10.533                                                            
C03  36356998.474        6101.086         -73.645          30.396                                                            
C04  38523962.816           0.068         -72.195           7.000                                                            
C05  39294126.642        8309.590        -101.470           7.000                                                            
C06  35777641.154       -7821.488          87.959          23.071                                                            
C07  36192838.120       34420.443        -420.959          28.476                                                            
C09  36086836.903     4050198.515         538.988          36.419                                                            
C10  37016560.468       11209.682        -138.694          28.152                                                            
C13  41497098.157       19854.903        -532.689           7.000                                                            
C16  36085098.106       -4975.968          54.758          26.075                                                            
C20  24808779.839         -63.764        1873.169           7.000                                                            
C23  23231220.361      121174.714       -1053.810          25.984                                                            
C25  26016261.417      147001.461       -1810.081          23.616                                                            
C28  24604375.645     -263269.987        2299.003          30.488                                                            
E05  23604203.550      -40595.452         503.679          28.512    23604199.353      -47510.343         375.912          32.542
> 2019 12 10 09 39 38.0002309  0 31
G03  23400237.653      -38086.033         770.670          24.268    23400196.581      226144.446         576.914          13.312
G10  25673249.379          91.819       -3278.046          18.164                                                            
G14  20525012.729       29884.550        -386.229          27.115                                                            
G16  20637303.892     -114977.695        1309.130          32.716                                                            
G22  23153926.071       20866.453        -258.597          35.084                                                            
G23  25748591.721         -90.628        3264.387           7.000                                                            
G26  20252835.054       53149.365        -636.478          36.716    20252824.561       91028.628        -475.380          34.368
G27  23934535.866       -2175.874        3496.582           7.000                                                            
G29  23756323.639      135111.004       -1591.541          38.795                                                            
G31  21747114.886       69900.302        -799.312          34.095                                                            
G32  21732258.970      198781.365       -2324.699          38.749    21732262.268      345518.205       -1735.901          35.907
R09  21319431.864      162777.181       -1955.426          24.240                                                            
R07  19399694.371      116098.103       -1364.097          33.681                                                            
J01  36119215.388       13196.521        -163.439          27.630    36119213.889       14858.770        -122.278          21.109
J02  39874337.471       30356.938        -348.056          37.144    39874329.376       53047.370        -259.907          33.575
J04  37050072.469       18943.145        -219.591          29.613    37050063.475       32152.682        -163.932          30.689
C02  37074246.533           0.211        -107.317           7.000                                                            
C03  36357011.365        6173.095         -73.463          31.073                                                            
C04  38523977.206           0.070         -72.195          15.891                                                            
C05  39294146.428        8411.060        -101.470           7.000                                                            
C06  35777624.366       -7911.898          88.587          25.192                                                            
C07  36192918.464       34841.569        -421.126          27.727                                                            
C09  36086729.277     4049660.258         538.257          36.115                                                            
C10  37016586.850       11347.956        -138.274          27.909                                                            
C13  41497200.986       20387.592        -532.689           7.000                                                            
C16  36085095.708       -5030.042          52.570          28.231                                                            
C20  24808420.388         -63.808        1873.169           7.000                                                            
C23  23231420.622      122228.240       -1054.776          26.860                                                            
C25  26016605.579      148810.781       -1809.674          22.524                                                            
C28  24603938.248     -265566.912        2296.925          30.404                                                            
E05  23604108.216      -41098.389         502.936          27.829    23604103.719      -47886.030         375.687          32.775
> 2019 12 10 09 39 39.0002309  0 32
G03  23400095.251      -38855.503         769.470          23.891    23400034.993      225570.565         576.114          10.032
G10  25673873.247          91.677       -3277.070          15.985                                                            
G14  20525086.478       30270.783        -386.233          25.556                                                            
G16  20637059.561     -116285.763        1308.068          33.300                                                            
G22  23153963.245       21126.457        -260.004          34.757                                                            
G23  25747970.551         -90.487        3263.412           7.000                                                            
G26  20252953.472       53786.635        -637.270          37.230    20252946.577       91504.363        -475.735          33.199
G27  23933870.626       -2175.737        3496.582          19.738                                                            
G29  23756624.631      136701.071       -1590.067          37.313                                                            
G31  21747275.275       70699.580        -798.251          33.330                                                            
G32  21732702.063      201104.972       -2323.607          38.712    21732703.263      347253.395       -1735.190          36.124
R09  21319797.311      164732.025       -1954.526          23.016                                                            
R07  19399948.895      117463.445       -1365.343          34.488                                                            
J01  36119251.063       13359.292        -162.772          27.167    36119242.968       14980.074        -121.169          22.141
J02  39874401.626       30703.871        -346.932          37.137    39874394.731       53306.472        -259.102          34.061
J04  37050112.341       19163.339        -220.193          29.410    37050105.446       32317.603        -164.921          30.519
C01  36964469.131        5583.838         -60.166          22.352                                                            
C02  37074266.619           0.214        -107.317           7.000                                                            
C03  36357024.855        6246.154         -73.786          29.668                                                            
C04  38523990.996           0.071         -72.195          20.185                                                            
C05  39294165.915        8512.530        -101.470           7.000                                                            
C06  35777602.781       -7999.381          86.380          23.648                                                            
C07  36192998.808       35262.993        -421.424          28.012                                                            
C09  36086629.746     4049121.738         538.520          36.325                                                            
C10  37016606.037       11487.133        -139.177          27.761                                                            
C13  41497302.915       20920.281        -532.689           7.000                                                            
C16  36085087.014       -5085.187          56.667          27.382                                                            
C20  24808060.337         -63.735        1873.169          17.475                                                            
C23  23231619.385      123282.592       -1054.307          25.518                                                            
C25  26016942.845      150618.795       -1804.797          22.136                                                            
C28  24603497.553     -267865.416        2297.200          31.094                                                            
E05  23604010.783      -41600.585         502.196          27.704    23604008.685      -48261.112         375.082          32.574
> 2019 12 10 09 39 40.0002309  0 32
G03  23399949.852      -39625.777         770.274          24.594    23399887.195      224996.752         575.923           7.000
G10  25674497.116          91.754       -3277.070          15.734                                                            
G14  20525159.328       30656.741        -383.990          26.053                                                            
G16  20636811.033     -117593.538        1307.775          32.824                                                            
G22  23154016.908       21386.149        -259.692          34.950                                                            
G23  25747348.781         -90.564        3263.412          14.640                                                            
G26  20253076.987       54424.231        -637.596          37.044    20253067.993       91980.457        -476.094          34.986
G27  23933205.686       -2175.819        3496.582          14.998                                                            
G29  23756929.820      138293.653       -1592.583          38.614                                                            
G31  21747414.378       71499.441        -799.861          33.943                                                            
G32  21733142.758      203430.563       -2325.591          38.455    21733146.056      348989.947       -1736.552          35.827
R09  21320182.245      166691.824       -1954.448          22.673                                                            
R07  19400211.213      118829.403       -1365.958          33.603                                                            
J01  36119278.044       13522.276        -162.984          27.391    36119274.447       15102.585        -123.381          21.935
J02  39874465.782       31051.693        -347.822          36.639    39874462.784       53566.180        -259.709          33.602
J04  37050156.710       19384.202        -220.863          30.380    37050146.517       32481.469        -163.867          30.698
C01  36964482.022        5643.913         -60.908          24.288                                                            
C02  37074287.605           0.209        -107.317          16.036                                                            
C03  36357041.044        6318.268         -74.073          30.262                                                            
C04  38524004.786           0.067         -70.244           7.000                                                            
C05  39294233.368        8614.000        -101.470           7.000                                                            
C06  35777580.896       -8087.844          85.928          24.433                                                            
C07  36193079.752       35684.377        -421.384          29.317                                                            
C09  36086524.219     4048583.643         538.095          36.037                                                            
C10  37016636.016       11625.647        -138.514          28.282                                                            
C13  41497406.044       21452.971        -532.689           7.000                                                            
C16  36085083.117       -5139.986          57.235          26.843                                                            
C20  24807701.186         -63.746        1871.218          16.315                                                            
C23  23231818.747      124336.174       -1055.195          26.539                                                            
C25  26017293.003      152428.396       -1810.787          21.745                                                            
C28  24603059.256     -270162.411        2296.995          30.703                                                            
E05  23603916.349      -42102.891         502.306          28.392    23603913.351      -48636.187         375.075          33.416
> 2019 12 10 09 39 41.0002309  0 32
G03  23399801.155      -40394.570         768.793          24.226    23399739.697      224427.506         577.143           7.000
G10  25675119.784          91.831       -3277.070          17.356                                                            
G14  20525232.777       31044.232        -386.028          25.523                                                            
G16  20636564.604     -118900.609        1307.071          33.272                                                            
G22  23154061.577       21646.957        -260.808          34.615                                                            
G23  25746727.012         -90.654        3264.387           7.000                                                            
G26  20253197.803       55062.167        -637.936          36.189    20253189.409       92456.894        -476.437          33.587
G27  23932539.548       -2175.901        3496.582          14.960                                                            
G29  23757231.411      139884.897       -1591.244          37.427                                                            
G31  21747562.476       72298.782        -799.341          34.539                                                            
G32  21733586.151      205755.071       -2324.508          38.205    21733588.850      350725.783       -1735.837          36.538
R09  21320505.721      168649.134       -1951.394          20.002                                                            
R07  19400437.257      120196.416       -1367.013          33.101                                                            
J01  36119311.621       13680.795        -163.570          26.937    36119303.826       15224.046        -121.461          21.818
J02  39874530.837       31398.406        -346.713          36.178    39874526.040       53825.117        -258.937          34.522
J04  37050200.180       19604.553        -220.351          30.282    37050191.186       32646.628        -165.159          30.048
C01  36964487.418        5704.143         -61.189          22.472                                                            
C02  37074308.890           0.212        -107.317           7.000                                                            
C03  36357053.636        6391.285         -73.899          31.202                                                            
C04  38524018.877           0.070         -72.195           7.000                                                            
C05  39294253.754        8715.471        -101.470           7.000                                                            
C06  35777567.106       -8179.620          88.276          24.626                                                            
C07  36193163.095       36105.850        -421.473          29.069                                                            
C09  36086421.690     4048045.276         538.367          36.175                                                            
C10  37016664.496       11764.949        -139.302          28.591                                                            
C13  41497507.373         533.517        -530.731          16.341                                                            
C16  36085071.125       -5194.381          53.312          27.343                                                            
C20  24807341.735       -1560.166        1871.211           7.000                                                            
C23  23232028.002      125390.121       -1056.304          26.700                                                            
C25  26017641.961      154236.702       -1808.508          22.445                                                            
C28  24602609.268     -272460.730        2298.319          30.500                                                            
E05  23603814.419      -42604.463         501.571          28.524    23603815.618      -49010.677         374.490          32.723
> 2019 12 10 09 39 42.0002309  0 31
G03  23399657.554      -41163.441         774.621          22.777    23399595.497      223841.871         571.941           7.000
G10  25675743.353          91.689       -3276.095          18.765                                                            
G14  20525311.922       31430.801        -387.787          24.045                                                            
G16  20636303.484     -120207.280        1306.671          33.601                                                            
G22  23154122.135       21906.390        -259.433          34.036                                                            
G23  25746106.741         -90.513        3263.412           7.000                                                            
G26  20253315.322       55700.686        -638.519          37.171    20253310.225       92933.735        -476.841          34.948
G27  23931874.308       -2175.764        3496.582           7.000                                                            
G29  23757530.304      141478.525       -1593.628          34.989                                                            
G31  21747717.169       73098.683        -799.901          34.892                                                            
G32  21734028.045      208081.466       -2326.395          37.427    21734032.243      352463.040       -1737.257          35.880
R09  21320881.961      170604.000       -1952.441          21.695                                                            
R07  19400693.879      121564.046       -1367.630          33.046                                                            
J01  36119340.101       13844.518        -163.182          28.443    36119338.902       15346.584        -122.538          21.874
J02  39874597.990       31746.049        -347.643          36.621    39874592.894       54084.684        -259.566          33.855
J04  37050235.855       19825.100        -220.973          29.807    37050235.256       32810.826        -164.566          29.438
C02  37074329.576           0.214        -107.317           7.000                                                            
C03  36357069.225        6463.408         -73.971          31.304                                                            
C04  38524032.367           0.070         -70.244          17.154                                                            
C05  39294280.136        8816.941        -101.470           7.671                                                            
C06  35777546.120       -8267.062          88.063          24.279                                                            
C07  36193240.141       36527.265        -421.415          29.985                                                            
C09  36086317.962     4047507.381         537.896          36.194                                                            
C10  37016692.077       11903.715        -138.766          27.981                                                            
C13  41497610.202         533.531        -532.682           7.000                                                            
C16  36085062.431       -5251.543          51.775          24.876                                                            
C20  24806982.284       -3431.377        1871.211          11.909                                                            
C23  23232230.062      126444.241       -1055.424          26.996                                                            
C25  26017991.819      156045.827       -1806.882          22.500                                                            
C28  24602170.072     -274757.780        2297.050          29.509                                                            
E05  23603722.983      -43105.775         501.312          28.078    23603722.683      -49385.076         374.399          33.325
> 2019 12 10 09 39 43.0002309  0 31
G03  23399500.763      -41931.542         766.714          23.614    23399448.899      223266.271         572.131           7.000
G10  25676367.221          91.766       -3276.095          16.660                                                            
G14  20525375.478       31819.815        -389.171          24.305                                                            
G16  20636061.252     -121513.138        1305.859          33.774                                                            
G22  23154165.605       22163.884        -260.268          32.350                                                            
G23  25745484.972         -90.603        3264.387           7.000                                                            
G26  20253441.234       56339.578        -638.892          36.185    20253431.941       93410.835        -477.099          33.746
G27  23931209.368       -2175.846        3496.582           7.000                                                            
G29  23757838.790      143070.325       -1591.800          34.676                                                            
G31  21747864.067       73897.481        -798.798          34.406                                                            
G32  21734474.736      210406.848       -2325.383          39.025    21734472.937      354199.594       -1736.554          36.939
R09  21321242.011      172558.216       -1955.560          22.831                                                            
R07  19400952.600      122932.738       -1368.692          33.361                                                            
J01  36119378.774       14007.277        -162.759          27.093    36119369.781       15468.233        -121.446          21.727
J02  39874665.743       32092.501        -346.452          36.105    39874658.848       54343.451        -258.767          34.851
J04  37050282.023       20045.980        -220.880          30.549    37050272.130       32976.004        -165.178          29.198
C02  37074349.962           0.210        -107.317          17.368                                                            
C03  36357082.416        6536.409         -74.321          30.631                                                            
C04  38524046.757           0.067         -70.244           7.000                                                            
C05  39294245.060        8918.411        -101.470           7.000                                                            
C06  35777547.020       -8354.092          88.619          23.296                                                            
C07  36193321.685       36948.841        -421.577          29.438                                                            
C09  36086215.133     4046969.047         538.333          36.007                                                            
C10  37016720.258       12043.119        -139.403          28.259                                                            
C13  41497712.731         533.510        -532.682           7.000                                                            
C16  36085037.848       -5305.815          53.115          26.173                                                            
C20  24806622.233       -5302.588        1871.211           7.000                                                            
C23  23232438.118      127498.050       -1053.716          25.842                                                            
C25  26018338.079      157854.018       -1808.804          21.809                                                            
C28  24601726.679     -277056.061        2298.281          30.176                                                            
E05  23603624.351      -43606.471         500.696          28.377    23603626.150      -49759.045         373.969          32.942
> 2019 12 10 09 39 44.0002309  0 31
G03  23399363.158      -42698.771         767.813          22.594    23399302.300      222690.666         575.599           7.000
G10  25676991.089          91.829       -3275.119           7.166                                                            
G14  20525448.927       32216.651        -390.921          21.373                                                            
G16  20635812.424     -122818.592        1305.453          34.707                                                            
G22  23154218.068       22425.530        -261.351          32.646                                                            
G23  25744862.902         -90.707        3266.338           7.000                                                            
G26  20253556.055       56979.110        -639.532          37.562    20253556.055       93888.400        -477.566          35.672
G27  23930542.930       -2175.948        3497.558          19.207                                                            
G29  23758140.981      144664.753       -1594.428          35.508                                                            
G31  21748041.544       74697.504        -800.022          35.003                                                            
G32  21734918.129      212733.661       -2326.812          37.855    21734916.031      355937.275       -1737.681          34.443
R09  21321600.263      174513.655       -1951.161          22.296                                                            
R07  19401198.130      124302.246       -1369.507          31.993                                                            
J01  36119404.257       14171.174        -163.897          28.426    36119404.557       15590.631        -122.653          21.837
J02  39874727.800       32439.705        -347.204          37.110    39874724.802       54602.706        -259.256          33.887
J04  37050325.793       20265.995        -220.015          28.916    37050317.699       33140.371        -164.367          29.681
C02  37074371.247           0.213        -107.317           7.000                                                            
C03  36357092.009        6608.662         -73.697          30.367                                                            
C04  38524060.548           0.069         -70.244           7.000                                                            
C05  39294264.547        9019.881        -101.470           7.000                                                            
C06  35777519.139       -8444.034          86.260          23.585                                                            
C07  36193404.727       37370.435        -421.593          30.035                                                            
C09  36086111.105     4046431.256         537.791          36.085                                                            
C10  37016748.438       12182.069        -138.950          27.530                                                            
C13  41497814.661         533.521        -530.731           7.000                                                            
C16  36085038.747       -5360.058          54.665          25.837                                                            
C20  24806262.782       -7173.798        1871.211           7.259                                                            
C23  23232627.587      128552.162       -1054.111          27.060                                                            
C25  26018687.038      159662.535       -1812.624          22.389                                                            
C28  24601285.984     -279353.326        2297.265          29.667                                                            
E05  23603534.113      -44107.018         499.188          27.898    23603531.115      -50132.728         373.684          34.124
> 2019 12 10 09 39 45.0002309  0 31
G03  23399213.861      -43465.649         768.599          21.147    23399157.500      222116.124         575.580           7.000
G10  25677614.957          91.701       -3275.119          14.803                                                            
G14  20525538.565       32606.397        -389.304          25.295                                                            
G16  20635566.894     -124123.429        1304.837          34.451                                                            
G22  23154274.429       22689.642        -264.456          28.239                                                            
G23  25744241.732         -90.552        3264.387          14.682                                                            
G26  20253680.169       57619.006        -639.896          35.370    20253675.073       94366.265        -477.865          32.498
G27  23929877.690       -2175.811        3497.558          17.128                                                            
G29  23758449.468      146258.698       -1593.945          37.512                                                            
G31  21748168.956       75496.928        -799.425          33.763                                                            
G32  21735360.623      215060.811       -2325.423          35.528    21735358.524      357674.808       -1737.533          37.841
R09  21321961.513      176467.889       -1951.110          25.696                                                            
R07  19401488.029      125672.628       -1370.383          35.209                                                            
J01  36119448.326       14335.342        -164.168          25.537    36119430.938       15712.925        -122.295          20.983
J02  39874798.851       32786.300        -346.595          34.261    39874790.157       54861.517        -258.811          35.036
J04  37050366.865       20486.734        -220.739          31.391    37050354.273       33304.872        -164.501          28.071
C02  37074392.532           0.209        -107.317           7.000                                                            
C03  36357106.699        6681.283         -73.281          29.975                                                            
C04  38524075.238           0.066         -70.244           7.000                                                            
C05  39294284.633        9121.351        -101.470           7.000                                                            
C06  35777512.244       -8531.450          87.533          22.843                                                            
C07  36193484.772       37792.129        -421.695          30.273                                                            
C09  36086009.176     4045893.279         537.977          36.406                                                            
C10  37016775.719       12321.644        -139.576          28.690                                                            
C13  41497917.190         533.500        -530.731           7.000                                                            
C16  36085015.963       -5414.032          55.946          24.979                                                            
C20  24805904.230       -9041.089        1873.227           8.865                                                            
C23  23232839.240      129607.063       -1053.606          23.999                                                            
C25  26019042.592      161470.698       -1808.517          22.233                                                            
C28  24600844.390     -281651.078        2297.752          30.144                                                            
E05  23603436.081      -44607.027         500.009          27.913    23603439.079      -50506.173         373.445          32.166
> 2019 12 10 09 39 46.0002309  0 32
G03  23399059.468      -44230.425         768.043          17.550    23399013.900      221543.341         575.237           7.000
G10  25678237.926          91.792       -3276.095          19.074                                                            
G14  20525599.123       32995.941        -388.813          23.530                                                            
G16  20635316.867     -125427.602        1304.174          34.190                                                            
G22  23154315.501       22958.121        -264.213          30.949                                                            
G23  25743621.462         -90.628        3264.387          16.986                                                            
G26  20253800.386       58259.466        -640.460          36.948    20253799.486       94844.566        -478.300          34.898
G27  23929212.751       -2175.874        3496.582          13.175                                                            
G29  23758752.258      147853.757       -1595.058          38.016                                                            
G31  21748351.230       76296.740        -799.811          34.228                                                            
G32  21735801.018      217388.459       -2327.647          39.689    21735801.618      359412.929       -1738.120          34.972
R09  21322307.174      178421.999       -1955.690          24.828                                                            
R07  19401713.773      127043.971       -1371.343          31.874                                                            
J01  36119477.106       14499.260        -163.918          28.105    36119462.416       15835.281        -123.359          20.961
J02  39874859.109       33133.106        -346.806          35.722    39874856.711       55120.490        -258.973          34.125
J04  37050411.534       20707.549        -221.549          27.840    37050402.540       33469.274        -164.402          29.364
C01  36964543.479        6003.841         -59.245          22.695                                                            
C02  37074412.918           0.211        -107.317          17.154                                                            
C03  36357128.883        6754.030         -72.998          30.023                                                            
C04  38524089.028           0.068         -70.244           7.000                                                            
C05  39294304.419        9222.821        -101.470           7.000                                                            
C06  35777491.558       -8618.404          90.648          24.187                                                            
C07  36193562.718       38213.951        -421.822          30.163                                                            
C09  36085905.747     4045355.565         537.714          35.372                                                            
C10  37016802.101       12461.089        -139.444          28.495                                                            
C13  41498019.719         533.512        -530.731           7.000                                                            
C16  36085010.567       -5467.782          53.559          25.031                                                            
C20  24805545.378      -10918.286        1866.300          10.460                                                            
C23  23233023.013      130661.211       -1054.148          26.742                                                            
C25  26019385.254      163279.223       -1807.357          20.724                                                            
C28  24600406.993     -283948.541        2297.463          30.037                                                            
E05  23603341.647      -45106.582         499.555          27.468    23603340.747      -50879.138         372.965          32.706
> 2019 12 10 09 39 47.0002309  0 32
G03  23398907.473      -44997.035         764.108          18.858    23398868.201      220971.275         577.829           8.783
G10  25678861.494          91.650       -3275.119          13.871                                                            
G14  20525680.667       33386.055        -390.114          28.165                                                            
G16  20635069.838     -126731.204        1303.602          35.758                                                            
G22  23154353.275       23221.672        -263.551          27.348                                                            
G23  25742999.692         -90.501        3264.387           8.544                                                            
G26  20253923.900       58900.369        -640.904          36.045    20253918.204       95323.165        -478.599          31.627
G27  23928546.612       -2175.737        3496.582          14.998                                                            
G29  23759059.545      149449.010       -1595.254          38.865                                                            
G31  21748475.943       77096.558        -799.818          34.212                                                            
G32  21736254.004      219716.255       -2327.797          36.592    21736245.310      361151.252       -1738.323          37.619
R09  21322673.220      180376.075       -1954.076          28.190                                                            
R07  19401982.687      128416.132       -1372.161          34.849                                                            
J01  36119516.979       14663.168        -163.908          25.773    36119490.897       15957.774        -124.767          19.742
J02  39874933.458       33479.588        -346.481          34.041    39874922.965       55379.267        -258.776          34.986
J04  37050449.607       20928.464        -220.915          31.430    37050441.813       33634.140        -166.145          26.232
C01  36964556.970        6063.337         -59.402          22.294                                                            
C02  37074433.604           0.214        -107.317           7.000                                                            
C03  36357130.083        6826.506         -73.028          28.393                                                            
C04  38524102.819           0.069         -70.244           7.000                                                            
C05  39294323.906        9324.291        -101.470          12.540                                                            
C06  35777473.271       -8706.084          87.160          22.369                                                            
C07  36193645.461       38635.692        -421.742          29.961                                                            
C09  36085806.816     4044817.813         537.753          36.611                                                            
C10  37016828.183       12600.697        -139.608          28.212                                                            
C13  41498121.648         533.525        -530.731           7.000                                                            
C16  36084987.183       -5521.381          53.599          25.984                                                            
C20  24805186.527      -12782.345        1864.804           7.000                                                            
C23  23233238.564      131715.295       -1054.084          27.854                                                            
C25  26019735.412      165087.389       -1810.132          21.708                                                            
C28  24599960.002     -286246.057        2297.516          30.186                                                            
E05  23603245.713      -45605.657         499.075          28.239    23603247.812      -51251.890         372.752          31.565
> 2019 12 10 09 39 48.0002309  0 32
G03  23398778.862      -45763.869         769.876          16.849    23398718.604      220381.162         576.800           7.000
G10  25679484.163          91.727       -3275.119           7.000                                                            
G14  20525758.313       33776.714        -390.659          27.369                                                            
G16  20634832.403     -128034.289        1303.085          35.953                                                            
G22  23154424.326       23485.606        -263.934          32.012                                                            
G23  25742378.222         -90.577        3264.387          13.821                                                            
G26  20254045.016       59541.780        -641.411          37.164    20254042.918       95802.116        -478.952          35.276
G27  23927880.473       -2175.819        3496.582           7.000                                                            
G29  23759355.440      151045.115       -1596.105          37.560                                                            
G31  21748667.811       77896.635        -800.077          32.241                                                            
G32  21736688.104      222044.763       -2328.508          39.802    21736687.804      362890.045       -1738.793          34.917
R09  21323047.661      182329.747       -1954.690          26.963                                                            
R07  19402226.718      129789.142       -1373.010          32.832                                                            
J01  36119535.866       14827.432        -164.264          27.848    36119527.172       16080.269        -122.495          21.672
J02  39874988.920       33826.165        -346.577          35.910    39874988.620       55638.056        -258.789          34.224
J04  37050491.878       21149.324        -220.860          28.957    37050485.882       33799.096        -164.956          29.242
C01  36964579.754        6122.426         -60.649          22.237                                                            
C02  37074454.289           0.209        -107.317           7.000                                                            
C03  36357141.475        6899.262         -73.133          28.883                                                            
C04  38524117.209           0.067         -70.244           7.000                                                            
C05  39294343.392        9425.762        -101.470           7.488                                                            
C06  35777470.872       -8792.787          84.596          23.887                                                            
C07  36193725.205       39057.650        -421.958          30.056                                                            
C09  36085698.291     4044280.211         537.602          36.252                                                            
C10  37016859.961       12740.430        -139.733          27.954                                                            
C13  41498223.578         533.504        -530.731           7.000                                                            
C16  36084991.080       -5575.028          52.380          24.220                                                            
C20  24804827.076      -14650.968        1869.260           7.000                                                            
C23  23233416.341      132769.328       -1053.627          27.126                                                            
C25  26020076.576      166895.779       -1806.242          19.980                                                            
C28  24599515.410     -288543.462        2296.627          28.181                                                            
E05  23603151.278      -46104.397         499.060          28.294    23603150.679      -51624.319         372.429          33.862
> 2019 12 10 09 39 49.0002309  0 31
G03  23398628.966      -46528.353         763.968          21.757    23398572.006      219805.573         571.198           7.000
G10  25680108.031          91.804       -3275.119           7.000                                                            
G14  20525833.261       34168.336        -391.622          27.450                                                            
G16  20634578.778     -129336.713        1302.424          37.188                                                            
G22  23154457.603       23749.564        -263.958          28.756                                                            
G23  25741757.652         -90.654        3264.387          15.636                                                            
G26  20254171.229       60183.741        -641.961          36.987    20254161.636       96281.518        -479.402          32.204
G27  23927215.234       -2175.901        3496.582           7.000                                                            
G29  23759664.227      152641.866       -1596.750          37.972                                                            
G31  21748793.124       78696.768        -800.133          35.673                                                            
G32  21737151.283      224373.485       -2328.722          37.295    21737130.897      364629.178       -1739.133          37.736
R09  21323435.893      184283.797       -1954.050          33.391                                                            
R07  19402500.428      131163.059       -1373.917          34.638                                                            
J01  36119579.336       14990.674        -161.054          24.998    36119560.748       16202.875        -116.529          19.617
J02  39875071.962       34172.631        -346.466          34.692    39875053.975       55896.803        -258.747          34.911
J04  37050532.650       21370.312        -220.988          30.498    37050521.558       33963.724        -164.073          25.666
C02  37074475.874           0.212        -107.317           7.000                                                            
C03  36357157.663        6971.934         -72.534          27.125                                                            
C04  38524131.299           0.068         -70.244          15.891                                                            
C05  39294364.078        9527.232        -101.470           7.000                                                            
C06  35777441.792       -8878.715          85.485          22.041                                                            
C07  36193813.045       39479.689        -422.039          30.505                                                            
C09  36085597.860     4043742.752         537.459          36.429                                                            
C10  37016879.448       12880.171        -139.741          28.541                                                            
C13  41498325.807         533.517        -530.731           9.901                                                            
C16  36084970.695       -5628.355          53.327          26.664                                                            
C20  24804469.123      -16519.827        1871.203           8.269                                                            
C23  23233635.189      133823.418       -1056.019          26.648                                                            
C25  26020439.624      168705.362       -1801.972          20.475                                                            
C28  24599068.719     -290840.597        2297.135          28.737                                                            
E05  23603057.743      -46602.631         498.234          29.689    23603057.144      -51996.383         372.064          31.673
> 2019 12 10 09 39 50.0002309  0 32
G03  23398490.462      -47294.771         761.328          21.697    23398425.407      219229.965         575.599           7.000
G10  25680730.700          91.662       -3274.143           7.000                                                            
G14  20525913.905       34560.044        -390.886          25.969                                                            
G16  20634326.653     -130638.598        1301.885          35.863                                                            
G22  23154523.857       24014.272        -264.709          30.918                                                            
G23  25741136.182         -90.526        3264.387           7.000                                                            
G26  20254293.844       60825.895        -642.154          37.953    20254287.249       96761.010        -479.492          33.211
G27  23926550.294       -2175.764        3496.582           7.000                                                            
G29  23759972.413      154238.678       -1596.812          39.278                                                            
G31  21748934.026       79496.348        -799.580          33.133                                                            
G32  21737570.393      226702.230       -2328.745          39.294    21737573.691      366368.310       -1739.132          35.713
R09  21323788.149      186237.757       -1953.960          30.580                                                            
R07  19402749.256      132537.775       -1374.716          33.038                                                            
J01  36119612.313       15154.898        -164.224          26.253    36119586.231       16325.549        -120.021          19.899
J02  39875115.132       34518.645        -346.014          33.573    39875120.528       56155.137        -258.335          34.472
J04  37050575.221       21591.184        -220.872          32.795    37050569.225       34128.228        -164.936          28.663
C01  36964584.551        6240.739         -59.712          23.168                                                            
C02  37074495.961           0.214        -107.317           7.000                                                            
C03  36357190.641        7044.699         -73.019          29.599                                                            
C04  38524145.089           0.070         -70.244           7.000                                                            
C05  39294383.564        9628.702        -101.470           7.000                                                            
C06  35777439.094       -8959.784          87.953          24.379                                                            
C07  36193888.293       39901.547        -421.857          30.744                                                            
C09  36085493.832     4043205.143         537.609          35.578                                                            
C10  37016906.429       13020.235        -140.064          27.243                                                            
C13  41498427.736         533.529        -530.731           7.000                                                            
C16  36084959.003       -5681.549          50.847          24.052                                                            
C20  24804110.272      -18389.986        1864.895           7.000                                                            
C23  23233837.849      134877.642       -1055.425          24.939                                                            
C25  26020764.899      170511.382       -1806.280          17.728                                                            
C28  24598632.221     -293138.255        2297.658          27.201                                                            
E05  23602956.713      -47100.588         497.957          29.094    23602960.610      -52368.222         371.839          32.425
> 2019 12 10 09 39 51.0002309  0 31
G03  23398358.254      -48058.075         763.585          22.425    23398283.605      218665.006         575.580           7.000
G10  25681353.369          91.739       -3274.143          17.466                                                            
G14  20525978.061       34952.194        -392.150          25.890                                                            
G16  20634085.020     -131939.910        1301.312          35.152                                                            
G22  23154567.926       24279.520        -265.247          31.329                                                            
G23  25740514.712         -90.603        3264.387           8.193                                                            
G26  20254421.856       61468.974        -643.080          37.432    20254405.667       97241.237        -480.228          33.085
G27  23925883.855       -2175.846        3496.582          18.781                                                            
G29  23760269.807      155836.917       -1598.239          39.623                                                            
G31  21749088.719       80296.742        -800.393          34.710                                                            
G32  21738021.281      229032.592       -2330.362          39.993    21738017.084      368108.451       -1740.141          36.836
R09  21324202.162      188192.044       -1954.287          31.269                                                            
R07  19402997.784      133913.427       -1375.652          33.186                                                            
J01  36119648.588       15319.468        -164.570          25.554    36119615.011       16448.790        -129.987          19.442
J02  39875194.577       34865.211        -346.566          34.491    39875186.783       56413.971        -258.834          34.919
J04  37050612.695       21812.926        -221.652          33.042    37050611.495       34292.800        -164.572          28.902
C02  37074516.646           0.210        -107.317           7.000                                                            
C03  36357188.542        7117.069         -72.277          30.882                                                            
C04  38524158.280           0.067         -70.244           7.000                                                            
C05  39294402.451        9730.172        -101.470          11.310                                                            
C06  35777416.610       -9047.614          87.282          23.886                                                            
C07  36193968.637       40323.856        -422.310          30.043                                                            
C09  36085391.603     4042668.022         537.121          35.619                                                            
C10  37016937.308       13160.035        -139.800          27.751                                                            
C13  41498529.066         533.508        -530.731           7.000                                                            
C16  36084953.606       -5734.776          53.227          25.209                                                            
C20  24803837.161      -20253.705        1867.111          11.490                                                            
C23  23234042.007      135931.569       -1054.455          25.720                                                            
C25  26021117.155      172324.143       -1814.515          16.072                                                            
C28  24598188.229     -295435.087        2296.831          27.404                                                            
E05  23602873.671      -47597.976         497.388          28.894    23602868.874      -52739.692         371.469          32.994
> 2019 12 10 09 39 52.0002309  0 31
G03  23398206.259      -48821.423         763.763          22.744    23398139.405      218099.162         575.580           9.629
G10  25681976.038          91.816       -3274.143           7.000                                                            
G14  20526049.112       35345.001        -392.914          23.178                                                            
G16  20633837.991     -133240.647        1300.737          35.938                                                            
G22  23154617.092       24545.601        -266.082          31.563                                                            
G23  25739892.943         -90.693        3265.363          18.291                                                            
G26  20254543.271       62111.979        -643.005          38.379    20254531.580       97721.454        -480.216          32.899
G27  23925217.417       -2175.948        3497.558          20.959                                                            
G29  23760574.996      157434.373       -1597.456          38.686                                                            
G31  21749244.611       81096.741        -799.999          33.927                                                            
G32  21738462.875      231362.144       -2329.552          39.368    21738460.477      369848.066       -1739.615          37.002
R09  21324555.018      190146.096       -1954.052          31.536                                                            
R07  19403270.295      135289.838       -1376.411          34.094                                                            
J01  36119685.162       15483.364        -163.896          26.130    36119649.787       16571.175        -125.493          18.958
J02  39875266.527       35210.808        -345.597          35.713    39875252.437       56672.042        -258.071          34.778
J04  37050659.162       22034.440        -221.514          32.862    37050652.567       34458.538        -165.738          27.259
C02  37074537.632           0.213        -107.317           7.827                                                            
C03  36357199.035        7189.934         -72.328          29.866                                                            
C04  38524172.970           0.071         -72.195           7.000                                                            
C05  39294422.537        9831.642        -101.470          13.699                                                            
C06  35777396.524       -9134.167          86.271          24.906                                                            
C07  36194053.178       40745.816        -421.960          29.886                                                            
C09  36085286.076     4042130.431         537.591          36.297                                                            
C10  37016959.192       13300.317        -140.282          27.243                                                            
C13  41498631.295         533.519        -528.780           7.000                                                            
C16  36084941.915       -5788.032          53.256          26.073                                                            
C20  24803460.022      -22126.131        1857.433           7.000                                                            
C23  23234245.566      136985.683       -1054.114          26.232                                                            
C25  26021474.208      174143.492       -1810.735          17.317                                                            
C28  24597745.135     -297733.072        2297.985          26.334                                                            
E05  23602778.636      -48095.091         496.319          27.826    23602772.940      -53110.884         371.192          32.508
> 2019 12 10 09 39 53.0002309  0 31
G03  23398084.243      -49583.480         761.462          23.016    23397995.205      217533.337         565.843           7.000
G10  25682599.906          91.688       -3274.143          10.090                                                            
G14  20526133.953       35737.862        -396.016          21.497                                                            
G16  20633585.566     -134541.059        1300.413          35.375                                                            
G22  23154666.858       24811.305        -265.704          33.121                                                            
G23  25739271.173         -90.565        3265.363           7.000                                                            
G26  20254657.492       62755.865        -643.885          36.874    20254652.696       98202.145        -480.691          35.332
G27  23924552.477       -2175.811        3497.558          14.065                                                            
G29  23760879.885      159033.680       -1599.308          39.532                                                            
G31  21749401.703       81896.671        -799.931          31.659                                                            
G32  21738900.572      233693.180       -2331.036          40.541    21738904.769      371588.777       -1740.711          36.084
R09  21324906.375      192099.964       -1953.867          30.369                                                            
R07  19403527.218      136667.026       -1377.187          34.221                                                            
J01  36119704.349       15648.266        -164.902          28.134    36119680.366       16694.417        -120.993          21.424
J02  39875321.689       35557.054        -346.246          35.760    39875318.392       56930.595        -258.553          33.990
J04  37050705.930       22255.644        -220.859          30.131    37050694.838       34623.167        -164.629          28.616
C02  37074558.917           0.209        -107.317           7.000                                                            
C03  36357215.224        7262.096         -72.850          30.034                                                            
C04  38524187.360           0.068         -72.195           7.000                                                            
C05  39294442.324        9933.112        -101.470           8.647                                                            
C06  35777383.333       -9220.294          86.473          25.492                                                            
C07  36194129.326       41167.930        -422.113          29.540                                                            
C09  36085182.948     4041593.304         537.127          36.611                                                            
C10  37016990.371       13440.040        -139.722          27.519                                                            
C13  41498732.925         533.498        -528.780           7.000                                                            
C16  36084945.812       -5840.907          52.875          26.185                                                            
C20  24803117.659      -23987.658        1872.240           7.000                                                            
C23  23234434.136      138040.250       -1054.500          26.928                                                            
C25  26021803.680      175948.963       -1800.686          19.190                                                            
C28  24597302.642     -300029.718        2298.797          24.159                                                            
E05  23602680.005      -48592.030         496.939          26.267    23602679.705      -53481.909         371.026          33.786
> 2019 12 10 09 39 54.0002309  0 31
G03  23397934.347      -50345.389         758.548          21.574    23397849.206      216965.570         565.824           7.000
G10  25683222.575          91.751       -3273.168          10.090                                                            
G14  20526204.404       36132.228        -395.752          23.619                                                            
G16  20633347.531     -135840.347        1299.288          36.797                                                            
G22  23154719.921       25078.743        -267.438          31.888                                                            
G23  25738650.903         -90.642        3265.363           7.000                                                            
G26  20254791.200       63400.059        -644.194          37.492    20254775.910       98683.339        -481.194          32.489
G27  23923887.238       -2175.893        3497.558           7.000                                                            
G29  23761178.478      160632.402       -1598.722          39.068                                                            
G31  21749555.196       82696.903        -800.231          34.243                                                            
G32  21739359.555      236023.756       -2330.576          39.922    21739348.162      373329.199       -1740.422          37.396
R09  21325275.719      194054.246       -1954.283          31.578                                                            
R07  19403767.951      138045.524       -1378.498          35.041                                                            
J01  36119726.234       15817.647        -162.817          25.564    36119708.846       16817.055        -119.967          19.881
J02  39875391.241       35902.631        -345.577          34.079    39875384.046       57188.681        -258.086          34.823
J04  37050740.106       22477.632        -221.988          32.353    37050734.410       34788.959        -165.793          28.082
C02  37074579.603           0.211        -107.317          13.876                                                            
C03  36357232.012        7335.183         -72.699          30.095                                                            
C04  38524201.450           0.070         -72.195           7.000                                                            
C05  39294462.410       10034.582        -101.470           7.000                                                            
C06  35777366.245       -9305.981          84.952          24.515                                                            
C07  36194213.567       41590.365        -422.436          30.018                                                            
C09  36085080.419     4041056.102         537.202          36.199                                                            
C10  37017019.151       13580.830        -140.790          28.371                                                            
C13  41498834.854         533.510        -528.780           7.000                                                            
C16  36084923.627       -5893.492          51.064          26.186                                                            
C20  24802676.364      -25858.563        1875.927           7.000                                                            
C23  23234645.190      139094.405       -1052.307          25.752                                                            
C25  26022143.045      177749.965       -1795.236          16.519                                                            
C28  24596855.651     -302327.263        2297.504          24.489                                                            
E05  23602588.868      -49087.907         495.877          27.593    23602582.872      -53852.295         370.386          31.829
> 2019 12 10 09 39 55.0002309  0 31
G03  23397797.942      -51106.422         761.637          23.090    23397705.006      216399.727         565.843           7.767
G10  25683845.244          91.623       -3273.168           7.000                                                            
G14  20526275.755       36525.968        -393.740          26.136                                                            
G16  20633089.409     -137139.565        1299.218          35.257                                                            
G22  23154776.882       25345.464        -266.721          32.359                                                            
G23  25738029.133         -90.514        3265.363           7.000                                                            
G26  20254899.725       64044.802        -644.743          37.168    20254898.526       99164.785        -481.446          34.286
G27  23923221.398       -2175.737        3496.582          19.192                                                            
G29  23761486.665      162232.739       -1600.337          39.393                                                            
G31  21749704.193       83497.008        -800.106          31.894                                                            
G32  21739794.254      238355.792       -2332.036          41.496    21739790.956      375070.549       -1741.350          36.049
R09  21325637.568      196008.033       -1953.786          31.218                                                            
R07  19404038.664      139424.414       -1378.890          33.658                                                            
J01  36119753.215       15987.750        -165.109          27.793    36119742.722       16940.599        -127.013          19.641
J02  39875448.801       36248.666        -346.035          34.126    39875449.101       57447.074        -258.394          33.728
J04  37050784.176       22699.066        -221.435          30.545    37050779.379       34954.163        -165.204          28.907
C02  37074600.888           0.214        -107.317           7.000                                                            
C03  36357246.402        7407.538         -72.946          29.627                                                            
C04  38524214.941           0.069         -70.244           7.000                                                            
C05  39294482.496       10136.052        -101.470           7.000                                                            
C06  35777353.953       -9391.400          85.177          25.596                                                            
C07  36194290.014       42012.579        -422.214          29.706                                                            
C09  36084978.189     4040519.115         536.986          35.899                                                            
C10  37017047.032       13720.751        -139.922          27.763                                                            
C13  41498937.383         533.523        -528.780           7.000                                                            
C16  36084924.826       -5946.236          54.194          24.184                                                            
C20  24802401.155      -27718.379        1867.701          12.367                                                            
C23  23234837.057      140147.075       -1052.188          24.960                                                            
C25  26022512.390      179546.915       -1806.472          18.653                                                            
C28  24596408.960     -304624.009        2298.251          21.932                                                            
E05  23602492.335      -49583.995         496.087          27.407    23602491.435      -54222.658         370.363          33.272
> 2019 12 10 09 39 56.0002309  0 31
G03  23397655.240      -51867.106         760.684          25.441    23397560.806      215833.884         565.843           7.000
G10  25684469.112          91.700       -3273.168           7.000                                                            
G14  20526347.705       36917.990        -391.431          22.298                                                            
G16  20632853.773     -138438.063        1298.499          37.378                                                            
G22  23154827.846       25613.122        -267.658          32.557                                                            
G23  25737408.863         -90.591        3265.363           7.000                                                            
G26  20255042.126       64689.774        -644.972          38.037    20255019.941       99646.433        -481.648          31.968
G27  23922557.358       -2175.819        3496.582          16.913                                                            
G29  23761790.355      163832.698       -1599.959          39.051                                                            
G31  21749865.182       84297.028        -800.019          34.571                                                            
G32  21740243.343      240687.459       -2331.667          40.979    21740236.447      376811.674       -1741.125          37.607
R09  21325996.420      197962.047       -1954.015          30.857                                                            
R07  19404301.282      140804.267       -1379.854          35.002                                                            
J01  36119806.878       16151.595        -164.994          24.758    36119776.899       17063.554        -129.997          16.003
J02  39875521.951       36594.056        -345.391          33.961    39875515.055       57704.949        -257.874          34.744
J04  37050829.145       22920.605        -221.539          32.870    37050822.849       35119.577        -164.484          26.065
C02  37074622.473           0.209        -107.317           7.000                                                            
C03  36357259.593        7480.320         -72.710          30.085                                                            
C04  38524230.230           0.069         -72.195           8.677                                                            
C05  39294503.182       10237.523        -101.470           7.000                                                            
C06  35777323.374       -9477.255          85.298          25.351                                                            
C07  36194375.455       42434.821        -422.242          29.337                                                            
C09  36084872.662     4039981.956         537.159          35.872                                                            
C10  37017072.514       13861.338        -140.968          27.631                                                            
C13  41499039.912         533.502        -528.780           7.000                                                            
C16  36084899.644       -5998.933          52.697          25.759                                                            
C20  24801960.760      -29577.092        1853.773           7.315                                                            
C23  23235070.895      141200.930       -1053.130          27.012                                                            
C25  26022850.555      181358.506       -1809.932          16.562                                                            
C28  24595978.458     -306921.520        2294.014          24.193                                                            
E05  23602399.998      -50079.476         495.482          27.778    23602395.202      -54592.644         369.986          32.756
> 2019 12 10 09 39 57.0002309  0 31
G03  23397511.340      -52626.839         758.120          22.280    23397410.010      215268.040         565.843           7.000
G10  25685092.980          91.777       -3273.168           7.000                                                            
G14  20526445.737       37313.222        -396.255          24.721                                                            
G16  20632594.452     -139736.247        1298.184          35.051                                                            
G22  23154872.216       25880.714        -267.592          31.237                                                            
G23  25736788.292         -90.667        3265.363          13.720                                                            
G26  20255151.850       65335.261        -645.487          36.986    20255144.955      100128.452        -482.019          34.371
G27  23921892.119       -2175.921        3497.558          18.585                                                            
G29  23762097.642      165433.640       -1600.942          41.047                                                            
G31  21750013.279       85097.094        -800.066          33.106                                                            
G32  21740681.639      243019.695       -2332.236          37.464    21740678.641      378553.383       -1741.708          36.088
R09  21326352.573      199915.693       -1953.646          30.609                                                            
R07  19404561.502      142184.903       -1380.636          33.670                                                            
J01  36119830.562       16316.460        -164.865          27.376    36119795.486       17190.452        -117.492          18.486
J02  39875583.108       36939.451        -345.395          35.646    39875582.209       57962.887        -257.938          34.135
J04  37050869.916       23141.557        -224.230          29.855    37050862.422       35284.820        -165.243          30.180
C02  37074644.358           0.212        -107.317           7.000                                                            
C03  36357277.580        7552.492         -73.294          29.867                                                            
C04  38524244.021           0.068         -70.244           7.000                                                            
C05  39294523.867       10338.993        -101.470           9.958                                                            
C06  35777309.284       -9563.944          85.832          24.193                                                            
C07  36194450.703       42857.095        -422.274          28.857                                                            
C09  36084771.333     4039444.840         537.116          36.070                                                            
C10  37017095.298       14001.374        -140.036          27.409                                                            
C13  41499142.142         533.515        -528.780           7.000                                                            
C16  36084904.740       -6050.987          52.788          26.153                                                            
C20  24801695.144      -31447.140        1865.357           7.000                                                            
C23  23235250.471      142254.892       -1053.962          27.470                                                            
C25  26023183.025      183165.838       -1803.498          19.687                                                            
C28  24595541.361     -309218.525        2295.075          24.800                                                            
E05  23602309.461      -50574.867         495.348          26.113    23602300.767      -54962.509         369.864          33.956
> 2019 12 10 09 39 58.0002309  0 31
G03  23397367.140      -53386.822         757.612          21.663    23397265.810      214702.197         565.843           7.000
G10  25685716.848          91.635       -3272.192           7.000                                                            
G14  20526503.897       37708.522        -395.135          24.309                                                            
G16  20632365.111     -141033.982        1297.734          37.278                                                            
G22  23154924.379       26148.947        -268.233          32.136                                                            
G23  25736166.822         -90.540        3265.363           7.000                                                            
G26  20255278.962       65980.886        -645.625          36.587    20255266.371      100610.636        -482.184          32.781
G27  23921226.879       -2175.784        3497.558          15.766                                                            
G29  23762394.736      167034.454       -1600.814          39.030                                                            
G31  21750163.775       85896.795        -799.701          35.633                                                            
G32  21741143.619      245352.000       -2332.306          38.678    21741122.934      380294.992       -1741.609          37.473
R09  21326725.515      201869.205       -1953.511          30.474                                                            
R07  19404816.925      143566.036       -1381.133          35.961                                                            
J01  36119842.254       16480.709        -163.283          24.832    36119821.568       17309.378        -125.464          17.088
J02  39875655.058       37284.341        -344.889          32.954    39875645.765       58220.441        -257.554          34.921
J04  37050908.290       23362.731        -221.173          35.325    37050903.193       35449.528        -161.865          27.756
C02  37074665.343           0.214        -107.317           7.000                                                            
C03  36357291.971        7624.614         -74.164          31.152                                                            
C04  38524259.310           0.072         -72.195           7.000                                                            
C05  39294543.653       10440.463        -101.470           7.000                                                            
C06  35777298.492       -9649.622          86.629          24.213                                                            
C07  36194542.140       43279.185        -422.090          29.503                                                            
C09  36084667.604     4038907.512         537.329          36.051                                                            
C10  37017121.080       14141.731        -140.357          27.979                                                            
C13  41499244.671         533.527        -528.780           7.000                                                            
C16  36084891.549       -6103.738          53.063          27.233                                                            
C20  24801245.455      -33305.615        1865.357           7.000                                                            
C23  23235456.128      143308.442       -1054.097          26.914                                                            
C25  26023532.283      184974.382       -1801.598          15.400                                                            
C28  24595099.767     -311516.362        2298.071          27.568                                                            
E05  23602198.238      -51069.831         494.964          27.923    23602209.031      -55332.236         369.727          32.092
> 2019 12 10 09 39 59.0002309  0 32
G03  23397202.854      -54140.798         759.867          20.346    23397121.610      214136.354         565.843           7.000
G10  25686339.517          91.712       -3272.192           7.000                                                            
G14  20526583.042       38105.262        -394.264          25.420                                                            
G16  20632102.792     -142330.512        1297.733          34.415                                                            
G22  23155002.026       26418.264        -269.317          31.081                                                            
G23  25735545.053         -90.616        3265.363           8.193                                                            
G26  20255382.391       66627.552        -646.665          36.286    20255391.984      101093.340        -482.704          35.243
G27  23920560.441       -4979.059        3497.558          15.219    23920577.829    -2143524.572        2614.622           7.000
G29  23762708.619      168635.639       -1601.186          42.638                                                            
G31  21750307.975       86696.801        -800.006          35.591                                                            
G32  21741571.723      247684.609       -2332.609          41.537    21741568.126      382036.827       -1741.836          35.663
R09  21327052.589      203823.021       -1953.817          29.687                                                            
R07  19405084.040      144948.622       -1382.586          35.151                                                            
J01  36119874.931       16645.699        -164.990          27.514    36119865.937       17433.208        -130.568          16.328
J02  39875712.918       37629.087        -344.746          36.929    39875711.719       58477.925        -257.484          33.900
J04  37050954.158       23584.498        -220.465          31.680    37050947.263       35614.848        -163.829          26.490
C02  37074686.029           0.210        -107.317           7.000                                                            
C03  36357302.463        7697.630         -74.377          29.558                                                            
C04  38524272.801           0.067         -70.244           7.000                                                            
C05  39294563.740       10541.933        -101.470           7.000                                                            
C06  35777281.703       -9735.264          85.684          25.030                                                            
C07  36194619.786       43701.668        -422.482          29.721                                                            
C09  36084565.675     4038370.486         537.026          36.930                                                            
C10  37017144.764       14282.696        -140.965          27.168                                                            
C13  41499346.001         533.506        -528.780           7.000                                                            
C16  36084917.931       -6155.904          49.997          25.686                                                            
C20  24800888.102      -35169.444        1865.356           7.000                                                            
C23  23235665.384      144362.565       -1055.176          25.241                                                            
C25  26023901.028      186782.030       -1805.019          14.915                                                            
C27  27026254.114         -45.539        2261.461          15.233                                                            
C28  24594683.055     -313813.598        2299.095          27.796                                                            
E05  23602117.894      -51563.782         493.951          28.419    23602111.598      -55701.149         368.913          33.186
> 2019 12 10 09 40  0.0002309  0 32
G03  23397041.565      -54900.030         760.237          22.307    23396976.810      213570.510         565.843           8.259
G10  25686962.186          91.788       -3272.192          16.737                                                            
G14  20526661.888       38501.764        -396.502          25.682                                                            
G16  20631856.363     -143627.158        1296.646          33.644                                                            
G22  23155020.013       26687.429        -269.164          30.424                                                            
G23  25734924.782         -90.693        3265.363           7.000                                                            
G26  20255511.301       67274.315        -646.764          37.380    20255513.100      101576.423        -483.083          33.527
G27  23919895.501       -8474.884        3497.558          16.990    23919960.256    -2145984.546        2614.622           7.000
G29  23763005.414      170239.214       -1603.575          43.377                                                            
G31  21750459.071       87496.974        -800.173          32.918                                                            
G32  21742013.617      250018.787       -2334.178          40.330    21742010.619      383780.013       -1743.185          37.022
R09  21327425.231      205776.723       -1953.702          29.620                                                            
R07  19405348.457      146331.734       -1383.111          35.624                                                            
J01  36119899.514       16811.104        -165.406          28.096    36119901.313       17553.994        -130.155          17.945
J02  39875783.070       37974.656        -345.569          36.999    39875779.173       58735.904        -257.980          34.550
J04  37050996.729       23806.817        -221.994          28.616    37050989.833       35780.549        -165.701          27.106
C02  37074707.914           0.213        -107.317           7.000                                                            
C03  36357319.252        7769.630         -74.404          28.949                                                            
C04  38524287.191           0.069         -70.244           7.000                                                            
C05  39294583.826       10643.403        -101.470           7.000                                                            
C06  35777276.607       -9819.775          84.456          23.969                                                            
C07  36194699.231       44123.998        -422.330          30.880                                                            
C09  36084460.748     4037833.758         536.727          36.832                                                            
C10  37017174.144       14422.877        -140.181          27.819                                                            
C13  41499448.530         533.519        -528.780          13.595                                                            
C16  36084895.147       -6207.993          51.097          24.656                                                            
C20  24800530.450         -63.672        1863.413          13.494                                                            
C23  23235873.440      145419.938       -1056.730          22.933                                                            
C25  26024254.184      188594.142       -1803.931          17.269                                                            
C27  27025819.115       -1855.192        2261.454           7.000                                                            
C28  24594226.471     -316110.036        2295.845          26.944                                                            
E05  23602021.361      -52058.277         494.495          32.072    23602019.262      -56070.224         369.076          32.800
> 2019 12 10 09 40  1.0002309  0 32
G03  23396890.170      -55657.129         757.714          22.896    23396832.610      213004.667         565.843           9.300
G10  25687584.855          91.661       -3272.192           7.000                                                            
G14  20526720.947       38899.749        -397.362          24.899                                                            
G16  20631615.630     -144922.507        1295.349          34.258                                                            
G22  23155071.278       26956.734        -269.306          31.169                                                            
G23  25734301.814         -90.579        3266.338          14.471                                                            
G26  20255642.311       67922.174        -647.858          35.212    20255636.615      102060.156        -483.733          32.849
G27  23919264.138      -11973.184        3495.681          16.679    23919332.191    -2148445.321        2451.474           7.000
G29  23763309.703      171841.096       -1601.882          43.233                                                            
G31  21750619.759       88297.356        -800.381          33.847                                                            
G32  21742462.406      252352.692       -2333.363          38.812    21742455.211      385522.403       -1742.390          36.455
R09  21327787.080      207730.838       -1954.115          28.088                                                            
R07  19405593.087      147716.267       -1384.534          34.874                                                            
J01  36119932.791       16976.433        -162.744          26.256    36119918.701       17668.796        -113.799          17.221
J02  39875857.418       38319.211        -344.555          36.214    39875842.729       58993.176        -257.272          34.251
J04  37051036.601       24028.060        -221.243          32.367    37051034.203       35945.854        -163.314          26.528
C02  37074728.300           0.209        -107.317           7.000                                                            
C03  36357325.247        7842.955         -73.803          30.484                                                            
C04  38524301.881           0.068         -72.195           7.000                                                            
C05  39294603.312       10744.873        -101.470           7.000                                                            
C06  35777245.728       -9905.347          83.276          24.238                                                            
C07  36194781.074       44546.960        -422.962          30.701                                                            
C09  36084359.118     4037297.099         536.659          35.506                                                            
C10  37017204.123       14564.552        -141.675          27.916                                                            
C13  41499550.459         533.498        -528.780           7.000                                                            
C16  36084858.872       -6259.763          53.686          24.823                                                            
C20  24800172.198         -63.599        1863.413          13.741                                                            
C23  23236065.906      146478.319       -1053.860          25.606                                                            
C25  26024591.750      190403.403       -1805.488          19.530                                                            
C27  27025384.715       -4119.046        2263.406           7.000                                                            
C28  24593788.774     -318406.860        2295.259          25.629                                                            
E05  23601925.127      -52550.920         492.643          31.848    23601924.827      -56438.275         368.051          33.048
> 2019 12 10 09 40  2.0002309  0 32
G03  23396728.282      -56415.439         757.314          21.723    23396688.410      212438.824         565.843           7.779
G10  25688207.224          91.696       -3269.265           7.000                                                            
G14  20526800.092       39292.465        -396.159          22.941                                                            
G16  20631370.399     -146218.009        1295.502          32.557                                                            
G22  23155133.635       27224.542        -270.299          30.943                                                            
G23  25733680.044         -90.656        3266.338           7.000                                                            
G26  20255755.632       68569.533        -647.359          36.379    20255761.628      102543.633        -483.477          34.619
G27  23918609.091      -15474.031        3497.288          16.919    23918588.406    -2151052.603        2453.303           7.000
G29  23763616.391      173445.294       -1604.198          43.123                                                            
G31  21750761.561       89097.411        -800.055          34.882                                                            
G32  21742905.200      254687.706       -2335.015          40.074    21742899.504      387266.014       -1743.612          34.617
R09  21328148.930      209684.292       -1953.791          27.888                                                            
R07  19405855.106      149100.865       -1384.597          32.826                                                            
J01  36119951.678       17141.717        -165.284          26.786    36119962.171       17780.865        -121.101          18.387
J02  39875910.482       38664.202        -344.991          37.357    39875908.383       59250.874        -257.698          33.650
J04  37051078.572       24248.408        -219.378          29.590    37051072.876       36111.773        -164.752          25.339
C02  37074749.285           0.207        -105.366           7.000                                                            
C03  36357350.730        7914.672         -74.172          29.439                                                            
C04  38524314.172           0.066         -68.293           7.000                                                            
C05  39294623.098       10844.784        -101.470           7.000                                                            
C06  35777223.544       -9991.510          84.431          22.657                                                            
C07  36194861.119       44969.122        -422.162          30.255                                                            
C09  36084257.189     4036760.204         536.895          35.987                                                            
C10  37017232.004       14704.558        -140.006          27.596                                                            
C13  41499651.189         533.509        -526.829          10.016                                                            
C16  36084863.369       -6311.539          53.294          25.411                                                            
C20  24799813.946         -63.643        1863.413           9.662                                                            
C23  23236283.256      147530.557       -1047.893          22.797                                                            
C25  26024947.304      192210.780       -1810.292          21.991                                                            
C27  27024949.417       -6378.404        2263.406           7.000                                                            
C28  24593338.786     -320703.827        2295.670          26.782                                                            
E05  23601832.791      -53044.457         493.537          29.935    23601829.793      -56806.991         368.716          32.466
> 2019 12 10 09 40  3.0002309  0 32
G03  23396602.069      -57172.456         756.471          22.817    23396540.012      211871.854         565.843           7.000
G10  25688830.493          91.609       -3272.192           7.000                                                            
G14  20526870.543       39686.666        -398.015          24.212                                                            
G16  20631122.171     -147512.900        1294.892          35.762                                                            
G22  23155182.501       27494.712        -270.170          31.127                                                            
G23  25733058.274         -90.541        3267.314          14.803                                                            
G26  20255890.539       69217.532        -647.999          37.181    20255880.646      103027.501        -483.869          31.902
G27  23917935.458      -18966.902        3501.233          16.699    23917927.963    -2153666.517        2489.622           7.000
G29  23763919.781      175048.826       -1603.531          38.450                                                            
G31  21750932.443       89897.200        -799.789          35.977                                                            
G32  21743348.593      257022.033       -2334.327          38.965    21743346.195      389009.244       -1743.230          35.225
R09  21328517.974      211637.642       -1953.350          28.332                                                            
R07  19406118.324      150486.343       -1385.478          36.411                                                            
J01  36119999.645       17306.619        -166.972          23.737    36120002.043       17900.791        -125.426          17.465
J02  39875989.327       39008.437        -344.236          35.312    39875976.436       59507.952        -257.078          34.435
J04  37051124.140       24470.303        -221.895          30.984    37051122.941       36277.089        -164.543          25.394
C02  37074770.870           0.214        -107.317          17.263                                                            
C03  36357344.734        7986.544         -74.922          27.862                                                            
C04  38524329.162           0.071         -72.195           7.000                                                            
C05  39294643.484       10945.860         -99.519           7.000                                                            
C06  35777215.749      -10076.629          83.734          22.890                                                            
C07  36194943.862       45391.312        -422.190          29.349                                                            
C09  36084151.662     4036223.177         537.027          35.849                                                            
C10  37017261.383       14845.274        -140.716          26.802                                                            
C13  41499753.419         955.751        -526.836           7.000                                                            
C16  36084842.084       -6363.715          53.360          25.710                                                            
C20  24799455.994         -63.570        1863.413           7.000                                                            
C23  23236455.936      148584.342       -1053.785          27.775                                                            
C25  26025290.266      194023.650       -1813.286          19.616                                                            
C27  27024515.317         -45.629        2263.413           9.139                                                            
C28  24592910.982     -323001.221        2297.394          28.658                                                            
E05  23601736.258      -53537.810         493.353          28.267    23601738.956      -57175.155         368.164          32.701
> 2019 12 10 09 40  4.0002309  0 32
G03  23396451.574      -57929.251         761.697          22.138    23396391.016      211294.097         565.195           7.000
G10  25689453.761          91.645       -3269.265          10.946                                                            
G14  20526940.695       40082.870        -400.145          21.388                                                            
G16  20630868.247     -148807.376        1294.475          33.930                                                            
G22  23155234.365       27765.366        -270.653          33.124                                                            
G23  25732436.805         -90.618        3267.314          14.295                                                            
G26  20256008.657       69865.923        -648.391          37.358    20256005.359      103511.741        -484.240          34.359
G27  23917275.015      -22467.170        3497.214          16.785    23917268.120    -2156290.179        2622.168           7.000
G29  23764224.070      176653.388       -1604.562          39.640                                                            
G31  21751079.641       90697.080        -799.880          35.360                                                            
G32  21743780.894      259357.141       -2335.108          39.688    21743789.588      390753.037       -1743.793          34.021
R09  21328885.820      213591.006       -1953.364          29.133                                                            
R07  19406371.049      151872.557       -1386.214          33.819                                                            
J01  36120043.714       17471.818        -165.709          25.728    36120032.922       18023.953        -129.466          16.436
J02  39876043.889       39352.789        -344.351          36.579    39876039.692       59765.080        -257.128          34.363
J04  37051170.908       24691.477        -223.838          26.315    37051159.816       36442.551        -165.462          29.880
C02  37074791.556           0.206        -105.366           7.000                                                            
C03  36357359.724        8058.744         -75.303          28.178                                                            
C04  38524343.852           0.067         -70.244           7.000                                                            
C05  39294662.971       11045.773        -101.470           7.000                                                            
C06  35777197.761      -10161.806          83.256          22.178                                                            
C07  36195021.508       45813.656        -422.344          28.242                                                            
C09  36084046.135     4035686.273         536.904          35.330                                                            
C10  37017285.966       14985.825        -140.551          25.904                                                            
C13  41499855.948        1482.587        -526.836           7.000                                                            
C16  36084836.687       -6415.535          51.820          26.657                                                            
C20  24799098.941         -63.614        1863.413           7.000                                                            
C23  23236650.502      149637.744       -1053.402          27.240                                                            
C25  26025627.533      195834.836       -1803.676          21.025                                                            
C27  27024081.218         -45.560        2265.364           7.000                                                            
C28  24592468.488     -325298.510        2297.290          30.133                                                            
E05  23601642.723      -54030.607         492.797          29.710    23601643.922      -57543.100         367.945          34.864
> 2019 12 10 09 40  5.0002309  0 32
G03  23396312.170      -58682.170         756.987          20.277    23396242.618      210722.600         570.378           8.667
G10  25690074.631          91.749       -3271.216           7.000                                                            
G14  20527016.242       40476.327        -399.205          23.355                                                            
G16  20630631.111     -150100.753        1293.378          34.898                                                            
G22  23155285.030       28036.877        -270.863          34.338                                                            
G23  25731814.136         -90.681        3266.338          11.228                                                            
G26  20256133.670       70515.036        -649.113          37.374    20256130.673      103996.465        -484.724          32.878
G27  23916611.275      -25962.967        3497.766          16.794    23916581.595    -2158889.260        2609.305          12.049
G29  23764528.959      178258.009       -1604.621          39.166                                                            
G31  21751228.638       91497.223        -800.144          35.816                                                            
G32  21744237.777      261692.603       -2335.462          37.682    21744233.880      392496.970       -1743.934          34.238
R09  21329256.963      215544.503       -1953.497          29.274                                                            
R07  19406625.273      153260.080       -1387.523          34.688                                                            
J01  36120091.981       17637.446        -165.924          23.426    36120059.903       18155.393        -118.153          14.232
J02  39876116.739       39696.962        -344.173          35.966    39876105.347       60022.108        -257.028          34.437
J04  37051208.382       24913.619        -222.142          26.927    37051201.787       36608.152        -165.601          29.116
C02  37074811.342           0.212        -107.317           7.000                                                            
C03  36357383.107        8131.287         -74.378          28.353                                                            
C04  38524356.143           0.070         -72.195           7.000                                                            
C05  39294681.858       11146.849         -99.519           7.000                                                            
C06  35777180.973      -10246.701          86.034          22.333                                                            
C07  36195104.551       46236.216        -422.561          28.008                                                            
C09  36083944.505     4035149.604         536.669          35.910                                                            
C10  37017315.945       15127.074        -141.248          26.656                                                            
C13  41499955.479        2009.422        -526.836           7.000                                                            
C16  36084824.096       -6467.154          51.619          26.917                                                            
C20  24798739.790         -63.624        1861.462           7.000                                                            
C23  23236858.857      150691.693       -1053.949          27.535                                                            
C25  26025981.288      197631.465       -1798.235          18.149                                                            
C27  27023644.720         -45.593        2263.413           7.000                                                            
C28  24592028.993     -327595.777        2297.267          29.841                                                            
E05  23601549.487      -54522.458         491.851          29.387    23601550.087      -57910.468         367.368          33.781
> 2019 12 10 09 40  6.0002309  0 32
G03  23396161.375      -59437.342         752.355          21.094    23396111.909      210167.476         557.631           7.000
G10  25690697.001          91.608       -3270.241          16.863                                                            
G14  20527100.784       40874.873        -398.546          25.327                                                            
G16  20630380.485     -151393.946        1293.193          35.003                                                            
G22  23155322.804       28308.244        -271.367          32.327                                                            
G23  25731192.666         -90.553        3266.338           8.710                                                            
G26  20256252.088       71164.765        -649.729          37.188    20256252.388      104481.559        -485.094          35.066
G27  23915902.865      -29460.497        3497.898          17.185    23915915.156    -2161502.128        2591.546          10.485
G29  23764839.544      179864.275       -1606.266          40.578                                                            
G31  21751376.735       92297.312        -800.089          35.526                                                            
G32  21744676.973      264029.184       -2336.581          39.021    21744677.873      394241.915       -1744.945          34.812
R09  21329643.695      217498.173       -1953.670          29.706                                                            
R07  19406880.396      154648.241       -1388.161          33.730                                                            
J01  36120114.165       17803.634        -165.982          24.632    36120085.985       18275.586        -123.687          14.598
J02  39876182.693       40041.651        -344.690          35.653    39876170.701       60279.399        -257.291          36.067
J04  37051259.047       25134.977        -221.358          29.540    37051243.158       36773.306        -165.154          30.066
C02  37074833.227           0.214        -107.317           7.000                                                            
C03  36357398.397        8203.292         -75.521          30.947                                                            
C04  38524369.934           0.070         -70.244           7.000                                                            
C05  39294702.244       11248.322        -101.470           7.000                                                            
C06  35777174.078      -10331.376          82.871          22.999                                                            
C07  36195185.794       46658.955        -422.739          28.825                                                            
C09  36083838.378     4034613.196         536.408          35.606                                                            
C10  37017344.126       15267.855        -140.781          26.347                                                            
C13  41500057.708        2536.258        -526.836           7.000                                                            
C16  36084816.601       -6518.482          51.328          26.539                                                            
C20  24798383.336         -63.551        1861.462          11.285                                                            
C23  23237059.419      151745.206       -1052.012          25.217                                                            
C25  26026302.666      199423.163       -1799.652          17.054                                                            
C27  27023210.321         -45.505        2263.413           9.901                                                            
C28  24591588.298     -329892.357        2296.580          29.012                                                            
E05  23601455.053      -55014.111         491.653          29.739    23601456.851      -58277.626         367.158          35.194
> 2019 12 10 09 40  7.0002309  0 32
G03  23396019.872      -60190.745         755.705          22.435    23395967.709      209601.657         547.017           7.000
G10  25691319.969          91.684       -3270.241          12.997                                                            
G14  20527187.124       41275.831        -403.464          27.370                                                            
G16  20630138.552     -152686.002        1292.056          35.492                                                            
G22  23155380.963       28580.163        -275.076          29.383                                                            
G23  25730570.896         -90.630        3266.338          11.978                                                            
G26  20256377.702       71815.042        -650.277          36.646    20256378.301      104967.146        -485.587          33.710
G27  23915279.896      -32958.699        3504.174          17.499    23915246.319    -2164113.260        2617.270           7.000
G29  23765145.332      181469.304       -1605.029          40.538                                                            
G31  21751529.929       93097.635        -800.323          36.371                                                            
G32  21745118.568      266364.421       -2335.237          38.445    21745121.865      395986.116       -1744.201          36.048
R09  21330024.132      219451.768       -1953.595          30.386                                                            
R07  19407142.715      156037.924       -1389.683          36.239                                                            
J01  36120133.352       17969.451        -165.817          25.494    36120117.463       18391.851        -120.894          14.113
J02  39876254.344       40385.049        -343.397          33.543    39876236.956       60536.095        -256.696          35.912
J04  37051292.024       25357.853        -222.876          34.806    37051286.028       36939.711        -166.110          28.657
C02  37074853.613           0.210        -107.317          11.009                                                            
C03  36357414.885        8276.346         -75.960          31.583                                                            
C04  38524384.324           0.067         -70.244           7.000                                                            
C05  39294721.730       11349.792        -101.470           7.000                                                            
C06  35777147.996      -10416.607          84.455          22.521                                                            
C07  36195269.436       47081.959        -423.004          30.839                                                            
C09  36083741.246     4034076.625         536.570          35.674                                                            
C10  37017366.910       15409.827        -141.972          26.816                                                            
C13  41500159.038        3063.093        -526.836           7.000                                                            
C16  36084801.012       -6569.890          51.408          26.898                                                            
C20  24798025.684         -63.595        1861.462          10.344                                                            
C23  23237276.768      152799.949       -1055.506          24.897                                                            
C25  26026660.618      201225.624       -1806.191          17.203                                                            
C27  27022775.022         -45.577        2265.364           7.000                                                            
C28  24591148.802     -332189.487        2294.251          27.705                                                            
E05  23601357.320      -55504.804         490.693          30.497    23601361.517      -58644.072         366.446          32.141
> 2019 12 10 09 40  8.0002309  0 32
G03  23395856.486      -60942.337         753.599          20.274    23395823.508      209035.777         565.843           7.000
G10  25691942.638          91.761       -3270.241          14.428                                                            
G14  20527270.167       41679.896        -401.808          24.165                                                            
G16  20629891.223     -153976.880        1291.661          32.219                                                            
G22  23155449.616       28854.014        -274.166          30.896                                                            
G23  25729949.427         -90.707        3266.338           7.000                                                            
G26  20256499.117       72465.624        -650.582          38.642    20256502.415      105453.068        -485.922          35.263
G27  23914621.552      -36466.693        3498.921          19.489    23914584.977    -2166736.211        2621.444           7.000
G29  23765452.320      183076.902       -1607.598          41.955                                                            
G31  21751679.526       93898.161        -800.525          35.109                                                            
G32  21745569.456      268702.197       -2337.776          41.244    21745566.757      397731.880       -1745.764          32.756
R09  21330366.794      221405.463       -1950.949          29.533                                                            
R07  19407407.731      157427.886       -1389.962          33.936                                                            
J01  36120156.436       18135.818        -166.702          25.390    36120142.945       18509.362        -123.885           9.796
J02  39876302.011       40729.828        -344.779          33.712    39876302.910       60793.349        -257.254          35.136
J04  37051335.494       25580.051        -222.198          31.154    37051328.599       37105.561        -166.203          27.868
C02  37074874.898           0.213        -107.317           7.000                                                            
C03  36357428.676        8348.436         -76.341          32.197                                                            
C04  38524398.114           0.069         -70.244           9.388                                                            
C05  39294742.716       11452.821        -101.470           7.000                                                            
C06  35777136.004      -10506.848          88.839          23.810                                                            
C07  36195351.280       47504.745        -422.786          30.553                                                            
C09  36083638.117     4033540.549         536.076          35.975                                                            
C10  37017394.491       15550.645        -140.818          25.828                                                            
C13  41500261.267        3591.098        -526.836           7.000                                                            
C16  36084806.708       -6621.447          52.313          23.682                                                            
C20  24797668.631         -63.606        1859.510           7.000                                                            
C23  23237494.717      153854.305       -1056.866          22.717                                                            
C25  26027019.469      203038.667       -1810.694          15.524                                                            
C27  27022340.923         -45.611        2263.413           7.000                                                            
C28  24590691.918     -334486.348        2297.733          26.926                                                            
E05  23601272.179      -55995.815         491.011          30.755    23601269.181      -59010.661         366.589          33.851
> 2019 12 10 09 40  9.0002309  0 32
G03  23395723.378      -61696.109         753.772          23.728    23395680.208      208473.719         565.824           7.000
G10  25692565.307          91.633       -3270.241           7.000                                                            
G14  20527344.215       42080.934        -401.038          26.925                                                            
G16  20629652.289     -155268.132        1291.252          34.577                                                            
G22  23155490.687       29127.553        -273.538          32.041                                                            
G23  25729327.657         -90.592        3267.314           7.000                                                            
G26  20256622.632       73116.607        -650.984          35.466    20256624.731      105939.136        -486.068          33.891
G27  23913960.510      -39961.791        3488.782          17.562    23913924.235    -2169348.451        2621.024           7.000
G29  23765757.508      184683.833       -1606.931          38.931                                                            
G31  21751826.424       94698.321        -800.160          36.462                                                            
G32  21746024.241      271039.522       -2337.325          39.398    21746010.450      399477.176       -1745.295          35.400
R09  21330726.246      223358.841       -1953.378          30.119                                                            
R07  19407679.343      158818.681       -1390.795          36.309                                                            
J01  36120198.407       18301.636        -163.161          23.656    36120175.923       18624.136        -107.460          13.415
J02  39876382.655       41073.576        -343.748          34.113    39876367.066       61050.042        -256.692          34.748
J04  37051377.465       25802.011        -221.960          33.779    37051375.966       37271.203        -165.369          26.156
C02  37074896.783           0.209        -107.317           7.000                                                            
C03  36357437.070        8420.748         -76.697          31.202                                                            
C04  38524413.404           0.068         -72.195           7.000                                                            
C05  39294762.502       11554.685        -103.421           7.000                                                            
C06  35777107.224      -10597.359          83.742          25.107                                                            
C07  36195432.224       47927.553        -422.808          30.412                                                            
C09  36083535.288     4033004.113         536.437          36.307                                                            
C10  37017422.372       15692.052        -141.407          28.113                                                            
C13  41500362.897        4119.108        -528.786           7.000                                                            
C16  36084770.133       -6672.664          53.030          25.188                                                            
C20  24797311.279         -63.566        1861.462           7.000                                                            
C23  23237696.178      154908.248       -1053.947          23.342                                                            
C25  26027368.428      204855.465       -1812.273          13.411                                                            
C27  27021906.224         -45.542        2265.364          11.988                                                            
C28  24590253.921     -336783.436        2297.087          28.691                                                            
E05  23601170.250      -56486.280         490.465          30.241    23601178.344      -59376.898         366.237          33.439
> 2019 12 10 09 40 10.0002309  0 32
G03  23395579.178      -62449.431         745.490          21.268    23395536.007      207907.876         565.843           7.000
G10  25693187.976          91.696       -3269.265           7.000                                                            
G14  20527412.868       42482.473        -401.540          25.142                                                            
G16  20629392.968     -156558.930        1290.798          34.347                                                            
G22  23155541.052       29401.265        -272.747          28.576                                                            
G23  25728706.187         -90.656        3266.338          17.635                                                            
G26  20256748.545       73767.909        -651.301          36.711    20256749.744      106425.494        -486.357          34.900
G27  23913286.576      -43448.784        3494.507          18.829    23913259.595    -2171931.214        2602.503           7.000
G29  23766068.393      186291.525       -1607.692          41.858                                                            
G31  21751986.813       95498.494        -800.173          37.085                                                            
G32  21746431.958      273377.179       -2337.657          35.860    21746456.841      401222.763       -1746.526          32.587
R09  21331091.093      225312.105       -1953.264          29.963                                                            
R07  19407918.578      160210.256       -1391.575          33.689                                                            
J01  36120225.089       18467.784        -166.936          24.429    36120211.598       18742.656        -104.926          11.963
J02  39876434.819       41417.250        -343.674          34.826    39876431.821       61306.692        -256.650          34.132
J04  37051421.235       26023.826        -221.815          29.978    37051409.543       37436.907        -165.704          29.761
C02  37074917.769           0.211        -107.317           7.000                                                            
C03  36357458.655        8492.897         -76.696          31.348                                                            
C04  38524427.194           0.068         -70.244           7.000                                                            
C05  39294782.588       11656.153        -101.470           7.000                                                            
C06  35777091.335      -10680.538          81.116          20.994                                                            
C07  36195508.071       48350.278        -422.726          28.538                                                            
C09  36083425.264     4032467.722         536.391          35.852                                                            
C10  37017445.156       15833.433        -142.122          25.158                                                            
C13  41500464.526         533.509        -526.829           7.000                                                            
C16  36084770.133       -6723.816          51.245          24.768                                                            
C20  24796954.526         -63.576        1859.510          18.272                                                            
C23  23237890.743      155961.868       -1051.549          25.726                                                            
C25  26027725.181      206667.540       -1800.527          19.866                                                            
C27  27021471.225       -1857.130        2265.452           7.000                                                            
C28  24589819.822     -339082.728        2298.288          25.455                                                            
E05  23601078.813      -56977.529         490.123          26.852    23601082.111      -59742.897         365.999          34.012
> 2019 12 10 09 40 11.0002309  0 32
G03  23395439.474      -63201.621         750.588          22.477    23395391.807      207342.032         565.843           7.000
G10  25693809.446          91.569       -3269.265          17.378                                                            
G14  20527492.613       42884.831        -402.358          27.796                                                            
G16  20629150.137     -157848.915        1289.985          33.215                                                            
G22  23155589.319       29675.837        -274.572          30.025                                                            
G23  25728084.718         -90.528        3266.338          10.848                                                            
G26  20256870.560       74419.933        -652.025          35.931    20256872.059      106912.414        -486.920          33.262
G27  23912615.641      -46949.776        3494.599          15.784    23912591.058    -2174555.129        2566.851           7.000
G29  23766369.085      187899.736       -1608.211          41.585                                                            
G31  21752129.814       96298.894        -800.401          36.366                                                            
G32  21746913.725      275715.449       -2338.270          38.383    21746899.035      402968.988       -1746.225          32.424
R09  21331467.033      227265.696       -1953.590          31.249                                                            
R07  19408203.380      161602.959       -1392.702          37.321                                                            
J01  36120258.365       18636.960        -164.920          22.447    36120246.973       18853.765        -125.772          13.982
J02  39876513.364       41760.952        -343.703          33.641    39876498.974       61563.320        -256.628          34.920
J04  37051471.600       26246.149        -222.323          30.838    37051459.608       37602.953        -166.333          27.551
C02  37074937.855           0.214        -107.317           7.000                                                            
C03  36357468.248        8565.407         -76.270          30.953                                                            
C04  38524440.984           0.069         -70.244           7.000                                                            
C05  39294802.075       11757.623        -101.470           7.000                                                            
C06  35777071.249      -10760.272          84.008          23.938                                                            
C07  36195593.212       48773.303        -423.025          30.160                                                            
C09  36083331.729     4031931.626         536.095          36.791                                                            
C10  37017478.733       15975.026        -141.593          27.415                                                            
C13  41500565.257         533.521        -526.829           7.000                                                            
C16  36084756.043       -6774.477          49.352          25.887                                                            
C20  24796596.573       -1550.396        1859.504           7.000                                                            
C23  23238062.824      157015.172       -1053.424          27.103                                                            
C25  26028061.548      208473.244       -1793.645          17.693                                                            
C27  27021035.626         -45.648        2265.364           7.000                                                            
C28  24589389.020     -341383.310        2296.159          27.723                                                            
E05  23600988.276      -57466.816         489.288          29.661    23600991.274      -60108.384         365.487          33.649
> 2019 12 10 09 40 12.0002309  0 32
G03  23395292.576      -63953.788         757.234          20.245    23395249.706      206776.189         565.843           7.000
G10  25694432.115          91.645       -3269.265          15.536                                                            
G14  20527570.559       43288.004        -403.173          27.734                                                            
G16  20628895.913     -159138.566        1289.651          32.642                                                            
G22  23155636.087       29950.854        -274.409          29.141                                                            
G23  25727462.948         -90.604        3266.338           7.000                                                            
G26  20256999.771       75072.437        -652.504          36.150    20256997.672      107399.628        -487.214          34.367
G27  23911952.800      -50445.593        3503.563          16.022    23911924.919    -2177169.608        2560.011          10.661
G29  23766681.169      189509.029       -1609.293          40.620                                                            
G31  21752291.702       97099.313        -800.419          36.785                                                            
G32  21747330.436      278054.537       -2339.088          35.075    21747347.824      404715.726       -1746.738          30.427
R09  21331831.281      229219.222       -1953.527          29.906                                                            
R07  19408459.703      162996.343       -1393.384          34.639                                                            
J01  36120283.848       18803.463        -165.892          24.060    36120268.259       18971.331        -143.931          13.532
J02  39876567.327       42104.685        -343.732          34.202    39876564.929       61820.016        -256.696          34.922
J04  37051513.571       26468.146        -221.998          29.374    37051495.883       37768.832        -165.879          30.914
C02  37074958.540           0.209        -107.317           7.000                                                            
C03  36357482.938        8637.491         -75.686          31.028                                                            
C04  38524454.775           0.067         -70.244           7.000                                                            
C05  39294873.125       11859.094        -101.470           7.090                                                            
C06  35777054.461      -10843.819          88.805          22.199                                                            
C07  36195670.858       49196.339        -423.036          27.962                                                            
C09  36083222.005     4031395.634         535.992          36.390                                                            
C10  37017509.312       16116.627        -143.219          25.849                                                            
C13  41500665.987         533.500        -526.829           7.000                                                            
C16  36084748.848       -6825.115          50.463          25.423                                                            
C20  24796239.521       -3409.900        1859.504           7.000                                                            
C23  23238284.670      158068.970       -1056.170          26.321                                                            
C25  26028396.416      210269.555       -1804.741          19.394                                                            
C27  27020600.028         -45.560        2265.364           7.000                                                            
C28  24588947.426     -343682.747        2294.080          25.836                                                            
E05  23600896.539      -57955.826         488.378          27.454    23600896.839      -60473.661         365.276          34.843
> 2019 12 10 09 40 13.0002309  0 32
G03  23395154.072      -64705.142         756.806          21.947    23395105.505      206210.346         565.843           7.199
G10  25695055.084          91.722       -3269.265          19.349                                                            
G14  20527649.704       43690.899        -402.895          27.766                                                            
G16  20628654.580     -160427.450        1288.884          33.077                                                            
G22  23155704.439       30226.163        -273.126          36.124                                                            
G23  25726841.178         -90.695        3267.314          11.318                                                            
G26  20257127.782       75725.353        -652.916          37.225    20257120.887      107887.305        -488.953          33.371
G27  23911260.279      -53953.911        3511.969          16.111    23911258.180    -2179785.311        2614.622           7.000
G29  23766981.261      191117.905       -1608.876          40.904                                                            
G31  21752439.799       97899.660        -800.346          37.368                                                            
G32  21747794.815      280393.348       -2338.811          38.919    21747789.419      406462.095       -1746.369          32.518
R09  21332189.532      231172.418       -1953.196          30.119                                                            
R07  19408719.923      164390.717       -1394.375          36.229                                                            
J01  36120309.030       18969.891        -165.263          23.177    36120298.837       19098.131        -121.599          13.028
J02  39876637.778       42447.909        -343.224          34.282    39876628.485       62076.354        -256.339          34.734
J04  37051560.339       26690.657        -223.935          27.922    37051541.152       37934.801        -164.985          28.481
C02  37074979.526           0.212        -107.317           7.000                                                            
C03  36357494.330        8709.972         -75.025          31.297                                                            
C04  38524469.465           0.070         -72.195           7.000                                                            
C05  39294893.211       11960.564        -101.470           7.000                                                            
C06  35777033.475      -10936.732          85.587          23.582                                                            
C07  36195754.501       49619.801        -422.964          28.792                                                            
C09  36083126.371     4030859.453         536.181          37.153                                                            
C10  37017535.394       16258.354        -141.727          28.665                                                            
C13  41500767.017         533.511        -524.878           7.000                                                            
C16  36084727.863       -6874.648          54.200          25.026                                                            
C20  24795882.768       -5269.404        1859.504           9.700                                                            
C23  23238472.940      159120.973       -1054.716          25.588                                                            
C25  26028745.674      212072.634       -1809.555          18.845                                                            
C27  27020164.729         -45.632        2267.315           7.000                                                            
C28  24588503.433     -345980.006        2297.920          29.292                                                            
E05  23600802.404      -58444.747         488.920          28.330    23600805.702      -60838.575         364.914          34.525
> 2019 12 10 09 40 14.0002309  0 32
G03  23395022.763      -65456.076         750.934          23.113    23394961.305      205644.502         565.843           7.000
G10  25695676.253          91.581       -3268.290          13.668                                                            
G14  20527727.650       44094.574        -403.675          27.221                                                            
G16  20628416.245     -161715.945        1288.495          34.139                                                            
G22  23155745.211       30501.925        -275.762          38.033                                                            
G23  25726218.809         -90.553        3266.338          17.128                                                            
G26  20257243.802       76378.779        -653.426          37.139    20257246.500      108375.189        -487.884          35.701
G27  23910624.719      -57462.898        3493.686          16.008    23910590.842    -2182389.003        2614.603           7.000
G29  23767293.045      192728.307       -1610.402          40.708                                                            
G31  21752604.086       98700.091        -800.431          37.944                                                            
G32  21748223.218      282732.951       -2339.868          36.036    21748236.709      408209.659       -1747.516          30.226
R09  21332556.778      233126.014       -1953.595          29.347                                                            
R07  19408986.138      165785.790       -1395.072          33.368                                                            
J01  36120336.312       19134.512        -162.281          21.983    36120338.410       19220.447        -114.796          15.327
J02  39876697.137       42791.552        -343.643          35.375    39876695.038       62332.936        -256.582          33.896
J04  37051593.016       26912.373        -222.026          29.043    37051579.225       38100.869        -166.067          30.425
C02  37075000.211           0.214        -107.317           7.000                                                            
C03  36357515.016        8782.221         -74.809          31.396                                                            
C04  38524482.955           0.070         -70.244           7.000                                                            
C05  39294905.203       12062.034        -101.470           7.000                                                            
C06  35777023.282      -11020.356          83.070          25.253                                                            
C07  36195833.046       50042.884        -422.233          27.616                                                            
C09  36083016.647     4030323.699         535.754          36.522                                                            
C10  37017559.377       16401.859        -142.406          25.474                                                            
C13  41500868.347         533.523        -524.878           7.000                                                            
C16  36084724.265       -6930.680          49.687          27.249                                                            
C20  24795526.015       -7124.738        1864.413           8.251                                                            
C23  23238704.380      160173.195       -1050.982          27.813                                                            
C25  26029092.234      213878.587       -1808.585          22.138                                                            
C27  27019728.531         -45.544        2267.315           8.853                                                            
C28  24588053.445     -348273.703        2300.386          25.563                                                            
E05  23600709.469      -58933.013         488.267          27.151    23600710.668      -61203.265         364.690          35.007
> 2019 12 10 09 40 15.0002309  0 32
G03  23394880.361      -66206.448         750.372          24.209    23394823.401      205088.396         565.843           7.000
G10  25696298.023          91.657       -3268.290          15.536                                                            
G14  20527806.495       44499.864        -405.035          28.315                                                            
G16  20628167.117     -163003.658        1287.713          32.639                                                            
G22  23155812.365       30778.201        -276.276          34.884                                                            
G23  25725598.239         -90.630        3266.338          15.222                                                            
G26  20257375.711       77032.493        -653.714          36.140    20257369.715      108863.316        -488.127          33.576
G27  23909959.180      -60948.850        3488.789          14.432    23909924.404    -2185003.625        2614.622          12.581
G29  23767591.039      194338.264       -1609.957          38.381                                                            
G31  21752738.692       99500.389        -800.299          37.732                                                            
G32  21748686.997      285072.909       -2339.958          38.451    21748679.802      409956.789       -1747.130          33.015
R09  21332927.022      235079.168       -1953.154          30.152                                                            
R07  19409236.765      167181.869       -1396.079          35.386                                                            
J01  36120371.387       19293.790        -161.240          21.126    36120360.894       19332.182        -118.017          15.813
J02  39876772.685       43134.408        -342.856          33.426    39876759.194       62589.046        -256.110          33.973
J04  37051642.781       27134.754        -222.380          29.840    37051624.494       38266.901        -166.033          28.820
C02  37075021.497           0.210        -107.317           7.000                                                            
C03  36357517.714        8854.561         -74.428          30.528                                                            
C04  38524497.046           0.067         -70.244           7.000                                                            
C05  39294913.298       12163.504        -101.470           7.000                                                            
C06  35777006.794      -11099.642          81.095          24.852                                                            
C07  36195916.988       50469.186        -422.900          29.457                                                            
C09  36082921.913     4029787.604         536.095          36.356                                                            
C10  37017586.358       16543.617        -141.758          27.088                                                            
C13  41500969.677         533.503        -524.878           7.000                                                            
C16  36084711.074       -6974.820          47.337          24.887                                                            
C20  24795170.161       -8982.542        1859.844          11.878                                                            
C23  23238886.054      161226.704       -1053.244          26.285                                                            
C25  26029445.090      215683.699       -1802.445          20.878                                                            
C27  27019293.532         -45.597        2267.315           7.000                                                            
C28  24587611.251     -350570.539        2296.119          27.255                                                            
E05  23600614.135      -59420.993         487.980          29.253    23600618.332      -61567.654         364.389          33.424
> 2019 12 10 09 40 16.0002309  0 32
G03  23394736.461      -66956.276         747.783          23.083    23394681.599      204532.308         565.824           7.000
G10  25696919.493          91.734       -3268.290          17.530                                                            
G14  20527875.747       44904.523        -404.660          29.531                                                            
G16  20627925.484     -164291.052        1287.394          34.178                                                            
G22  23155852.537       31061.977        -277.724          37.825                                                            
G23  25724975.270         -90.720        3267.314           7.166                                                            
G26  20257498.326       77686.978        -654.485          38.446    20257495.927      109351.969        -488.653          33.047
G27  23909286.745      -64448.435        3503.606          19.977    23909258.265    -2187618.247        2614.622           7.529
G29  23767908.819      195949.643       -1611.379          40.515                                                            
G31  21752913.471      100300.894        -800.505          37.638                                                            
G32  21749133.088      287413.738       -2339.494          35.500    21749126.193      411704.827       -1748.115          30.086
R09  21333284.674      237032.561       -1953.393          28.611                                                            
R07  19409503.580      168578.648       -1396.779          33.448                                                            
J01  36120403.165       19456.303        -159.362          19.482    36120392.972       19448.225        -120.532          10.761
J02  39876828.146       43477.775        -343.367          35.939    39876825.148       62845.341        -256.295          33.673
J04  37051686.251       27359.802        -223.017          28.356    37051664.367       38433.056        -166.155          29.851
C02  37075042.182           0.213        -107.317           7.000                                                            
C03  36357542.297        8926.746         -74.660          31.259                                                            
C04  38524510.237           0.069         -70.244           7.000                                                            
C05  39294948.973       12264.974        -101.470           7.000                                                            
C06  35776998.100      -11182.824          80.374          25.216                                                            
C07  36196000.630       50892.360        -424.313          28.890                                                            
C09  36082812.489     4029251.901         535.703          36.422                                                            
C10  37017615.738       16685.504        -141.140          25.609                                                            
C13  41501070.407         533.515        -524.878           8.383                                                            
C16  36084703.280       -7017.945          49.406          24.131                                                            
C20  24794812.808      -10839.269        1864.059          10.176                                                            
C23  23239107.001      162280.433       -1056.590          26.369                                                            
C25  26029789.851      217489.569       -1802.667          21.134                                                            
C27  27018857.934         -45.650        2267.315           7.000                                                            
C28  24587177.751     -352870.109        2295.198          25.112                                                            
E05  23600520.600      -59908.532         487.539          27.892    23600525.696      -61931.665         364.011          33.353
