     3.04           OBSERVATION DATA    M: Mixed            RINEX VERSION / TYPE
Higeo_Hi1105        Huawei CBG          20220126 062226 UTC PGM / RUN BY / DATE 
************************************************************COMMENT             
* If you have any problem,                                 *COMMENT             
*     please contact with LBS Technology Group, thanks.    *COMMENT             
*                                                          *COMMENT             
* Version Higeo2RinexV1.1 2020.07.21                       *COMMENT             
* Fuction:  Convert Higeo Log to Rinex file                *COMMENT             
*                                                          *COMMENT             
* Note that the verision support B1C B2A signal            *COMMENT             
*     BDS: C1D L1D D1D S1D indicate BDS B1C                *COMMENT             
*     BDS: C5D L5D D5D S5D indicate BDS B2A                *COMMENT             
*     Reference: RINEX V3.04                               *COMMENT             
*                                                          *COMMENT             
* Copyright(C) Huawei Technologies Co., Ltd. 2019 - 2020   *COMMENT             
*     All rights reserved.                                 *COMMENT             
************************************************************COMMENT             
                                                            MARKER NAME         
                                                            MARKER NUMBER       
                                                            MARKER TYPE         
                                                            OBSERVER / AGENCY   
                                                            REC # / TYPE / VERS 
                                                            ANT # / TYPE        
        0.0000        0.0000        0.0000                  APPROX POSITION XYZ 
        0.0000        0.0000        0.0000                  ANTENNA: DELTA H/E/N
G    8 C1C L1C D1C S1C C5I L5I D5I S5I                      SYS / # / OBS TYPES 
R    4 C1C L1C D1C S1C                                      SYS / # / OBS TYPES 
E    8 C1C L1C D1C S1C C5I L5I D5I S5I                      SYS / # / OBS TYPES 
J    8 C1C L1C D1C S1C C5I L5I D5I S5I                      SYS / # / OBS TYPES 
C   12 C2I L2I D2I S2I C1D L1D D1D S1D C5D L5D D5D S5D      SYS / # / OBS TYPES 
  2022     1    25     3    14   28.0000000     GPS         TIME OF FIRST OBS   
  2022     1    25     3    32   59.0000000     GPS         TIME OF LAST OBS    
G                                                           SYS / PHASE SHIFT   
R                                                           SYS / PHASE SHIFT   
E                                                           SYS / PHASE SHIFT   
J                                                           SYS / PHASE SHIFT   
C                                                           SYS / PHASE SHIFT   
  0                                                         GLONASS SLOT / FRQ #
 C1C    0.000 C1P    0.000 C2C    0.000 C2P    0.000        GLONASS COD/PHS/BIS 
                                                            END OF HEADER       
> 2022  1 25  3 14 28.0000000  0  2                     
G31                     -2954.232        -379.533          41.000                                                                  
C26                      4750.887         615.200          36.000                                                                                                                                  
> 2022  1 25  3 14 29.0000000  0  6                     
G25                      6581.809        2787.785          29.000                                                                  
G31                     -4933.989        -376.604          40.000                                                                  
G32                      1061.579         155.479          30.000                                                                  
R 1                                                        22.000  
R12                                                        32.000  
C26                      7958.170         617.259          35.000                                                                                                                                  
> 2022  1 25  3 14 30.0000000  0 10                     
G25                     21191.396        2774.125          34.000                                                                  
G26                    -19349.172       -2598.021          23.000                                                                  
G29                     -6766.558       -1595.819          24.000                                                                  
G31                     -6914.083        -375.467          38.000                                                                  
G32                      1875.131         156.564          37.000                                                                  
R 1                                                        21.000  
R 2                                                        39.000  
R12                                                        27.000  
C14                     -8820.305       -1517.451          28.000                                                                                                                                  
C26                     11170.611         616.141          33.000                                                                                                                                  
> 2022  1 25  3 14 31.0000000  0 11                     
G10                     33796.321        3489.908          20.000                                                                  
G25                     35770.436        2777.397          33.000                                                                  
G26                    -33005.442       -2600.181          21.000                                                                  
G29                    -15158.089       -1595.839          29.000                                                                  
G31                     -8892.613        -375.641          35.000                                                                  
G32                      2701.564         157.018          37.000                        1396.698         151.377          14.000  
R 1                                                        20.000  
R 2                                                        38.000  
R12                                                        26.000  
C14                    -16775.478       -1530.800          27.000                                                                                                                                  
C26                     14380.069         616.452          32.000                                                                                                                                  
> 2022  1 25  3 14 32.0000000  0 12                     
G10                     52129.766        3487.990          23.000                                                                  
G25                     50355.216        2775.068          33.000                                                                  
G26                    -46670.597       -2600.369          22.000                                                                  
G29                    -23547.822       -1596.336          28.000                                                                  
G31                    -10869.119        -376.470          36.000                                                                  
G32                      3525.734         156.668          37.000                        1957.994         135.722          17.000  
R 1                                                        20.000  
R 2                                                        38.000  
R12                                                        25.000  
E 8                     -3847.282       -1654.772          28.000                                                                  
C14                    -24767.995       -1537.368          23.000                                                                                                                                  
C26                     17595.036         616.610          33.000                                                                                                                                  
> 2022  1 25  3 14 33.0000000  0 13                     
G10                     70452.580        3486.869          20.000                                                                  
G25                     64939.658        2778.743          33.000                                                                  
G26                    -60338.115       -2602.012          25.000                                                                  
G29                    -31932.493       -1595.520          29.000                                                                  
G31                    -12848.028        -374.928          39.000                                                                  
G32                      4351.286         158.917          35.000                        2455.711         118.989          24.000  
R 1                                                        22.000  
R 2                                                        39.000  
R12                                                        27.000  
E 2                      -864.539        -211.849          30.000                                                                  
E 8                    -12552.239       -1656.704          32.000                                                                  
C14                    -32770.367       -1534.583          27.000                                                                                                                                  
C26                     20802.777         617.354          35.000                                                                                                                                  
> 2022  1 25  3 14 34.0000000  0 13                     
G10                     88779.965        3488.036          19.000                                                                  
G25                     79532.949        2778.299          33.000                       37066.473        2074.632          24.000  
G26                    -74011.708       -2601.108          25.000                                                                  
G29                    -40306.921       -1592.874          28.000                                                                  
G31                    -14820.982        -374.975          39.000                                                                  
G32                      5188.762         159.846          36.000                        2920.434         118.942          26.000  
R 1                                                        22.000  
R 2                                                        37.000  
R12                                                        26.000  
E 2                     -1975.751        -211.950          30.000                                                                  
E 8                    -21249.733       -1655.290          31.000                                                                  
C14                    -40763.176       -1533.683          25.000                                                                                                                                  
C26                     24024.811         619.592          34.000                                                                                                                                  
> 2022  1 25  3 14 35.0000000  0 14                     
G10                    107107.195        3487.277          17.000                                                                  
G25                     94124.586        2776.702          30.000                                                                  
G26                    -87675.862       -2599.535          23.000                                                                  
G29                    -48675.357       -1593.294          21.000                                                                  
G31                    -16788.808        -374.068          39.000                                                                  
G32                      6022.361         159.575          29.000                        3392.141         121.947          22.000  
R 1                                                        24.000  
R 2                                                        36.000  
R12                                                        33.000  
E 2                     -3083.105        -210.717          32.000                                                                  
E 8                    -29945.467       -1654.532          32.000                      -11650.940       -1236.040          29.000  
C 6                     -2745.241        -500.109          31.000                                                                                                                                  
C14                    -48752.063       -1532.588          31.000                                                                                                                                  
C26                     27247.379         619.393          33.000                                                                                                                                  
> 2022  1 25  3 14 36.0000000  0 14                     
G10                    125433.934        3487.604          16.000                                                                  
G25                    108719.680        2777.601          30.000                                                                  
G26                   -101335.384       -2599.127          25.000                                                                  
G29                    -57041.862       -1592.265          20.000                                                                  
G31                    -18753.882        -374.736          39.000                                                                  
G32                      6859.182         160.246          30.000                        3862.182         120.598          20.000  
R 1                                                        24.000  
R 2                                                        35.000  
R12                                                        34.000  
E 2                     -4187.570        -210.062          32.000                                                                  
E 8                    -38638.903       -1654.104          32.000                      -16498.497       -1234.884          30.000  
C 6                     -5363.412        -512.560          31.000                                                                                                                                  
C14                    -56736.085       -1535.134          31.000                                                                                                                                  
C26                     30472.988         619.588          35.000                                                                                                                                  
> 2022  1 25  3 14 37.0000000  0 16                     
G10                    143761.787        3488.929          15.000                                                                  
G25                    123320.024        2778.232          28.000                                                                  
G26                   -114993.235       -2597.696          23.000                                                                  
G29                    -65403.361       -1590.325          22.000                                                                  
G31                    -20722.599        -373.304          37.000                                                                  
G32                      7703.565         160.372          29.000                        4332.011         120.234          21.000  
R 1                                                        25.000  
R 2                                                        36.000  
R12                                                        36.000  
E 2                     -5291.037        -209.554          33.000                                                                  
E 8                    -47332.341       -1654.087          34.000                      -21346.327       -1235.140          27.000  
J 2                     31256.530         602.496          24.000                                                                  
C 6                     -8013.341        -506.774          32.000                                                                                                                                  
C14                    -64719.483       -1533.341          32.000                                                                                                                                  
C24                    -12549.757       -1477.785          33.000                                                                                                                                  
C26                     33699.233         620.560          33.000                                                                                                                                  
> 2022  1 25  3 14 39.0000000  0 17                     
G10                    169860.782        3487.161          17.000                                                                  
G25                    144098.968        2776.155          29.000                                                                  
G26                   -134426.633       -2596.183          22.000                                                                  
G29                    -77308.810       -1591.755          21.000                                                                  
G31                    -23512.230        -373.012          42.000                                                                  
G32                      8903.490         159.551          29.000                        5005.864         119.995          21.000  
R 1                                                        24.000  
R 2                                                        38.000  
R12                                                        34.000  
E 2                     -6855.630        -208.613          30.000                                                                  
E 8                    -59704.804       -1652.885          33.000                      -28245.823       -1234.467          32.000  
J 2                     35765.179         600.533          25.000                                                                  
C 6                    -11776.625        -508.055          31.000                                                                                                                                  
C 9                     -3580.501        -586.935          29.000                                                                                                                                  
C14                    -76082.110       -1531.607          29.000                                                                                                                                  
C24                    -23555.358       -1484.780          27.000                                                                                                                                  
C26                     38297.388         619.430          35.000                                                                                                                                  
> 2022  1 25  3 14 40.0000000  0 19                     
G10                    188189.734        3487.821          15.000                                                                  
G25                    158699.268        2780.292          33.000                                                                  
G26                   -148067.319       -2595.737          22.000                                                                  
G29                    -85670.281       -1590.021          26.000                                                                  
G31                    -25471.348        -373.251          41.000                                                                  
G32                      9748.061         160.439          32.000                        5480.433         120.891          25.000  
R 1                                                        20.000  
R 2                                                        38.000  
R12                                                        30.000  
E 2                     -7953.495        -208.880          30.000                                                                  
E 8                    -68393.598       -1653.462          33.000                      -33091.447       -1234.772          32.000  
J 2                     38921.045         600.763          32.000                                                                  
C 6                    -14417.629        -509.189          31.000                                                                                                                                  
C 9                     -6643.884        -590.214          26.000                                                                                                                                  
C14                    -84047.401       -1530.272          28.000                                                                                                                                  
C16                    -32596.723        -521.947          33.000                                                                                                                                  
C26                     41526.353         619.046          34.000                                                                                                                                  
C33                    -13965.097       -2696.155          26.000                                                                                                                                  
C35                    -10614.041       -2139.109          20.000                                                                                                                                  
> 2022  1 25  3 14 41.0000000  0 20                     
G10                    206513.473        3486.254          14.000                                                                  
G25                    173299.994        2777.490          25.000                                                                  
G26                   -161707.180       -2594.885          23.000                                                                  
G29                    -94026.489       -1589.967          19.000                                                                  
G31                    -27429.792        -372.926          38.000                                                                  
G32                     10603.070         162.436          28.000                        5955.602         121.652          21.000  
R 1                                                        21.000  
R 2                                                        36.000  
R12                                                        34.000  
E 2                     -9049.860        -208.172          30.000                                                                  
E 8                    -77082.592       -1653.116          30.000                      -37936.204       -1234.306          29.000  
E25                     11309.430        2033.299          28.000                                                                  
J 2                     42081.794         602.915          25.000                                                                  
C 6                    -17064.474        -508.043          30.000                                                                                                                                  
C 9                     -9711.339        -586.767          33.000                                                                                                                                  
C14                    -92021.703       -1531.902          30.000                                                                                                                                  
C16                    -35309.691        -520.958          31.000                                                                                                                                  
C24                     -8261.739       -1483.669          32.000                                                                                                                                  
C26                     44751.850         619.880          32.000                                                                                                                                  
C33                    -28006.307       -2696.155          25.000                                                                                                                                  
> 2022  1 25  3 14 42.0000000  0 21                     
G10                    224831.491        3486.220          17.000                                                                  
G25                    187900.177        2780.383          33.000                       17591.493        2072.275          21.000  
G26                   -175346.045       -2595.947          28.000                                                                  
G29                   -102378.390       -1587.255          18.000                                                                  
G31                    -29388.335        -373.241          30.000                                                                  
G32                     11452.763         161.482          37.000                        6433.412         121.416          24.000  
R 1                                                        18.000  
R 2                                                        36.000  
R12                                                        32.000  
E 2                    -10144.126        -208.144          29.000                                                                  
E 8                    -85767.715       -1652.747          34.000                      -42780.090       -1235.086          25.000  
E25                     21995.040        2033.528          31.000                                                                  
J 2                     45237.521         598.164          33.000                                                                  
C 6                    -19708.997        -507.903          33.000                                                                                                                                  
C 9                    -12770.524        -590.729          36.000                                                                                                                                  
C10                     -8371.619       -1209.890          17.000                                                                                                                                  
C14                    -99993.701       -1529.831          35.000                                                                                                                                  
C16                    -38015.153        -519.978          34.000                                                                                                                                  
C21                     28448.447        2661.150          23.000                                                                                                                                  
C24                    -15984.595       -1483.918          28.000                                                                                                                                  
C26                     47980.260         619.552          35.000                                                                                                                                  
> 2022  1 25  3 14 43.0000000  0 23                     
G10                    243151.686        3486.775          17.000                                                                  
G25                    202510.630        2779.138          32.000                       25736.929        2075.701          23.000  
G26                   -188986.200       -2594.885          25.000                                                                  
G29                   -110732.540       -1590.748          21.000                                                                  
G31                    -31353.881        -372.151          34.000                                                                  
G32                     12308.288         163.207          36.000                        6906.469         121.699          24.000  
R 1                                                        18.000  
R 2                                                        36.000  
R12                                                        33.000  
E 2                    -11238.978        -208.325          28.000                                                                  
E 8                    -94456.420       -1653.217          34.000                      -47624.493       -1234.144          24.000  
E25                     32677.808        2032.879          29.000                                                                  
J 2                     48393.391         600.460          32.000                                                                  
C 6                    -22352.306        -507.794          35.000                                                                                                                                  
C 9                    -15844.676        -591.064          30.000                                                                                                                                  
C10                    -14678.220       -1209.719          17.000                                                                                                                                  
C14                   -107965.872       -1529.425          34.000                                                                                                                                  
C16                    -40721.422        -519.473          35.000                                                                                                                                  
C21                     42305.086        2659.965          23.000                                                                                                                                  
C24                    -23709.676       -1482.042          24.000                                                                                                                                  
C26                     51206.209         619.362          36.000                                                                                                                                  
C33                    -18925.136       -2695.553          23.000                                                                                                                                  
C35                    -29532.981       -2141.228          16.000                                                                                                                                  
> 2022  1 25  3 14 44.0000000  0 23                     
G10                    261465.810        3483.783          17.000                                                                  
G25                    217116.428        2778.188          32.000                       33882.884        2076.062          23.000  
G26                   -202621.107       -2595.355          25.000                                                                  
G29                   -119091.412       -1590.339          22.000                                                                  
G31                    -33313.056        -371.878          31.000                                                                  
G32                     13163.847         162.277          36.000                        7385.323         122.556          23.000  
R 1                                                        19.000  
R 2                                                        37.000  
R12                                                        32.000  
E 2                    -12331.379        -207.495          27.000                       -1067.095        -154.816          22.000  
E 8                   -103142.212       -1652.724          33.000                      -52468.749       -1233.548          25.000  
E25                     43363.364        2033.315          31.000                                                                  
J 2                     51546.879         600.647          32.000                                                                  
C 6                    -24997.366        -507.287          34.000                                                                                                                                  
C 9                    -18908.633        -588.378          34.000                                                                                                                                  
C10                    -20965.158       -1204.784          16.000                                                                                                                                  
C14                   -115934.346       -1531.303          34.000                                                                                                                                  
C16                    -43429.549        -519.925          35.000                                                                                                                                  
C21                     56163.649        2662.554          23.000                                                                                                                                  
C24                    -31433.221       -1485.132          28.000                                                                                                                                  
C26                     54435.933         620.192          35.000                                                                                                                                  
C33                    -32957.685       -2692.679          23.000                                                                                                                                  
C35                    -40672.302       -2139.181          17.000                                                                                                                                  
> 2022  1 25  3 14 45.0000000  0 23                     
G10                    279779.072        3485.563          17.000                                                                  
G25                    231723.473        2781.477          33.000                       42030.251        2076.971          25.000  
G26                   -216260.297       -2593.040          28.000                                                                  
G29                   -127448.754       -1588.701          19.000                                                                  
G31                    -35268.710        -371.107          29.000                                                                  
G32                     14023.804         163.554          38.000                        7865.563         122.987          23.000  
R 1                                                        18.000  
R 2                                                        32.000  
R12                                                        34.000  
E 2                    -13421.938        -207.385          30.000                       -1673.989        -153.946          24.000  
E 8                   -111827.063       -1652.577          33.000                      -57316.412       -1236.076          21.000  
E25                     54049.332        2033.547          32.000                                                                  
J 2                     54698.714         600.688          33.000                                                                  
C 6                    -27647.637        -507.687          34.000                                                                                                                                  
C 9                    -21981.621        -590.548          34.000                                                                                                                                  
C10                    -27263.256       -1210.835          16.000                                                                                                                                  
C14                   -123902.260       -1527.930          33.000                                                                                                                                  
C16                    -46134.690        -518.910          33.000                                                                                                                                  
C21                     70027.347        2663.427          21.000                                                                                                                                  
C24                    -39160.387       -1482.989          25.000                                                                                                                                  
C26                     57668.831         621.848          35.000                                                                                                                                  
C33                    -46985.345       -2694.466          23.000                                                                                                                                  
C35                    -51812.443       -2141.142          15.000                                                                                                                                  
> 2022  1 25  3 14 46.0000000  0 23                     
G10                    298104.532        3489.253          19.000                                                                  
G25                    246335.399        2780.031          32.000                       50177.696        2076.826          23.000  
G26                   -229881.507       -2592.928          30.000                                                                  
G29                   -135787.996       -1587.005          18.000                                                                  
G31                    -37222.609        -373.484          30.000                                                                  
G32                     14886.648         163.902          38.000                        8347.345         124.182          23.000  
R 1                                                        17.000  
R 2                                                        33.000  
R12                                                        35.000  
E 2                    -14511.673        -207.254          31.000                       -2281.890        -155.519          21.000  
E 8                   -120512.191       -1652.655          32.000                      -62163.942       -1235.802          20.000  
E25                     64734.794        2033.304          32.000                                                                  
J 2                     57850.825         600.162          33.000                                                                  
C 6                    -30293.402        -508.525          34.000                                                                                                                                  
C 9                    -25051.269        -590.260          35.000                                                                                                                                  
C10                    -33576.649       -1213.124          15.000                                                                                                                                  
C14                   -131867.028       -1529.760          34.000                                                                                                                                  
C16                    -48841.776        -519.808          34.000                                                                                                                                  
C21                     83890.724        2662.537          19.000                                                                                                                                  
C24                    -46886.106       -1482.331          26.000                                                                                                                                  
C26                     60900.503         620.801          35.000                                                                                                                                  
C33                    -61016.482       -2692.912          19.000                                                                                                                                  
C35                    -62963.490       -2144.724          17.000                                                                                                                                  
> 2022  1 25  3 14 47.0000000  0 23                     
G10                    316436.074        3488.150          19.000                                                                  
G25                    260947.478        2781.231          33.000                       58325.393        2076.704          25.000  
G26                   -243512.211       -2593.716          28.000                                                                  
G29                   -144121.578       -1586.672          15.000                                                                  
G31                    -39182.525        -372.116          29.000                                                                  
G32                     15751.141         165.435          38.000                        8828.502         123.425          23.000  
R 1                                                        16.000  
R 2                                                        30.000  
R12                                                        34.000  
E 2                    -15600.431        -206.859          31.000                       -2888.813        -153.750          24.000  
E 8                   -129197.143       -1652.570          33.000                      -67005.472       -1234.880          22.000  
E25                     75420.110        2033.507          33.000                                                                  
J 2                     61003.249         599.712          32.000                                                                  
C 6                    -32941.113        -508.259          35.000                                                                                                                                  
C 9                    -28122.745        -589.925          36.000                                                                                                                                  
C10                    -39885.768       -1210.208          16.000                                                                                                                                  
C14                   -139830.396       -1529.227          33.000                                                                                                                                  
C16                    -51550.655        -519.940          35.000                                                                                                                                  
C21                     97758.186        2663.276          20.000                                                                                                                                  
C24                    -54605.074       -1483.330          28.000                                                                                                                                  
C26                     64131.843         620.868          35.000                                                                                                                                  
C33                    -75047.521       -2694.604          18.000                                                                                                                                  
C35                    -74110.318       -2138.449          17.000                                                                                                                                  
> 2022  1 25  3 14 48.0000000  0 23                     
G10                    334768.976        3488.302          19.000                                                                  
G25                    275560.032        2780.498          33.000                       66474.131        2076.323          24.000  
G26                   -257134.891       -2593.537          29.000                                                                  
G29                   -152456.146       -1586.574          13.000                                                                  
G31                    -41143.153        -372.954          31.000                                                                  
G32                     16617.269         164.969          38.000                        9311.927         124.586          23.000  
R 1                                                        16.000  
R 2                                                        30.000  
R12                                                        34.000  
E 2                    -16687.534        -206.761          32.000                       -3495.324        -154.519          24.000  
E 8                   -137880.867       -1652.580          34.000                      -71848.536       -1234.813          22.000  
E25                     86105.930        2033.411          32.000                        7089.516        1517.932          25.000  
J 2                     64155.294         599.446          33.000                                                                  
C 6                    -35589.510        -508.923          34.000                                                                                                                                  
C 9                    -31195.249        -590.257          36.000                                                                                                                                  
C10                    -46187.644       -1210.689          17.000                                                                                                                                  
C14                   -147791.662       -1529.026          33.000                                                                                                                                  
C16                    -54259.944        -521.008          35.000                                                                                                                                  
C21                    111626.619        2663.903          19.000                                                                                                                                  
C24                    -62323.100       -1479.538          27.000                                                                                                                                  
C26                     67363.734         620.803          36.000                                                                                                                                  
C33                    -89085.237       -2698.136          19.000                                                                                                                                  
C35                    -85255.730       -2140.434          16.000                                                                                                                                  
> 2022  1 25  3 14 49.0000000  0 24                     
G10                    353105.828        3489.943          18.000                                                                  
G25                    290172.923        2780.765          35.000                       74622.987        2076.985          25.000  
G26                   -270771.409       -2593.512          30.000                       -9344.827       -1936.063          23.000  
G29                   -160801.259          -0.007          14.000                                                                  
G31                    -43099.741        -372.088          32.000                                                                  
G32                     17484.701         165.837          39.000                        9795.293         124.196          23.000  
R 1                                                        19.000  
R 2                                                        25.000  
R12                                                        33.000  
E 2                    -17774.499        -206.474          32.000                       -4100.983        -152.414          24.000  
E 8                   -146565.307       -1652.290          35.000                      -76690.741       -1233.917          20.000  
E25                     96790.756        2033.505          30.000                       13048.174        1519.311          26.000  
E30                    -28214.707       -2345.182          18.000                                                                  
J 2                     67305.758         600.265          34.000                                                                  
C 6                    -38239.863        -508.790          35.000                                                                                                                                  
C 9                    -34269.558        -590.190          35.000                                                                                                                                  
C10                    -52496.649       -1211.894          18.000                                                                                                                                  
C14                   -155752.005       -1528.292          33.000                                                                                                                                  
C16                    -56970.936        -520.275          35.000                                                                                                                                  
C21                    125504.073        2664.814          19.000                                                                                                                                  
C24                    -70037.468       -1483.857          27.000                                                                                                                                  
C26                     70595.151         621.203          37.000                                                                                                                                  
C33                   -103137.449       -2698.232          19.000                                                                                                                                  
C35                    -96411.431       -2143.810          11.000                                                                                                                                  
> 2022  1 25  3 14 50.0000000  0 23                     
G10                    371444.375        3490.653          19.000                                                                  
G25                    304788.829        2780.964          35.000                       82773.582        2077.399          26.000  
G26                   -284396.994       -2594.317          27.000                      -16941.719       -1935.714          22.000  
G29                   -169133.763          -0.007          18.000                                                                  
G31                    -45052.135        -373.154          32.000                                                                  
G32                     18355.384         165.438          37.000                       10281.495         125.044          21.000  
R 1                                                        20.000  
R 2                                                        22.000  
R12                                                        30.000  
E 2                    -18858.208        -206.256          31.000                       -4706.378        -155.791          23.000  
E 8                   -155247.242       -1652.209          35.000                      -81531.850       -1234.445          20.000  
E25                    107477.935        2033.506          30.000                       19007.456        1519.083          24.000  
E30                    -40548.429       -2348.160          18.000                                                                  
J 2                     70459.516         600.100          33.000                       33087.472         449.142          22.000  
C 6                    -40889.470        -509.523          33.000                                                                                                                                  
C 9                    -37343.043        -590.789          35.000                                                                                                                                  
C10                    -58802.351       -1210.186          18.000                                                                                                                                  
C14                   -163708.829       -1528.158          34.000                                                                                                                                  
C16                    -59681.349        -521.274          35.000                                                                                                                                  
C21                    139371.070        2662.733          17.000                                                                                                                                  
C24                    -77771.263       -1485.378          24.000                                                                                                                                  
C26                     73828.381         620.604          36.000                                                                                                                                  
C33                   -117172.657       -2693.559          24.000                                                                                                                                  
> 2022  1 25  3 14 51.0000000  0 23                     
G10                    389784.712        3488.456          18.000                                                                  
G25                    319404.042        2781.564          35.000                       90923.584        2076.926          25.000  
G26                   -298023.595       -2594.025          27.000                      -24539.189       -1935.756          21.000  
G29                   -177467.274       -1586.534          21.000                                                                  
G31                    -47008.298        -371.767          33.000                                                                  
G32                     19226.438         165.706          36.000                       10767.164         124.689          24.000  
R 1                                                        20.000  
R 2                                                        25.000  
R12                                                        29.000  
E 2                    -19942.994        -206.344          30.000                       -5310.251        -153.090          25.000  
E 8                   -163930.935       -1652.422          36.000                      -86370.595       -1233.457          19.000  
E25                    118162.837        2033.382          30.000                       24965.920        1518.579          24.000  
E30                    -52882.161       -2347.211          15.000                                                                  
J 2                     73608.289         598.766          32.000                       34847.533         448.167          20.000  
C 6                    -43541.317        -509.256          32.000                                                                                                                                  
C 9                    -40416.787        -590.922          33.000                                                                                                                                  
C10                    -65103.855       -1211.634          17.000                                                                                                                                  
C14                   -171663.502       -1527.424          33.000                                                                                                                                  
C16                    -62391.693        -521.007          36.000                                                                                                                                  
C21                    153238.043        2662.930          16.000                                                                                                                                  
C24                    -85499.875       -1482.180          24.000                                                                                                                                  
C26                     77062.906         620.605          35.000                                                                                        1226.136         468.416          24.000  
C33                   -131201.591       -2696.305          24.000                                                                                                                                  
> 2022  1 25  3 14 52.0000000  0 24                     
G10                    408116.901        3488.785          18.000                                                                  
G25                    334022.633        2782.365          34.000                       99075.450        2077.786          25.000  
G26                   -311642.335       -2593.445          29.000                      -32132.518       -1933.325          18.000  
G29                   -185802.285       -1584.656          20.000                                                                  
G31                    -48961.527        -370.766          33.000                                                                  
G32                     20101.528         167.173          36.000                       11254.952         124.627          23.000  
R 1                                                        20.000  
R 2                                                        25.000  
R12                                                        29.000  
E 2                    -21024.419        -205.421          30.000                       -5913.372        -152.887          24.000  
E 8                   -172611.610       -1651.671          35.000                      -91209.455       -1230.795          19.000  
E25                    128850.393        2033.939          30.000                       30925.877        1519.587          24.000  
E30                    -65224.135       -2348.848          15.000                                                                  
J 2                     76758.752         599.735          32.000                       36603.373         446.488          20.000  
C 6                    -46191.813        -508.637          32.000                                                                                                                                  
C 9                    -43492.071        -590.188          31.000                                                                                                                                  
C10                    -71413.774       -1212.125          17.000                                                                                                                                  
C14                   -179616.554       -1527.090          31.000                                                                                                                                  
C16                    -65103.053        -519.941          36.000                                                                                                                                  
C21                    167104.047        2664.692          17.000                                                                                                                                  
C24                    -93218.477       -1481.144          22.000                                                                                                                                  
C26                     80297.447         621.604          37.000                                                                                        3063.736         469.288          24.000  
C33                   -145231.162       -2693.117          25.000                                                                                                                                  
C35                   -129895.357       -2141.954          16.000                                                                                                                                  
> 2022  1 25  3 14 53.0000000  0 24                     
G10                    426453.381        3489.629          17.000                                                                  
G25                    348646.165        2783.432          34.000                      107230.477        2079.163          25.000  
G26                   -325260.558       -2589.808          30.000                      -39721.036       -1935.436          19.000  
G29                   -194135.550       -1585.400          21.000                                                                  
G31                    -50910.183        -370.234          36.000                                                                  
G32                     20981.793         168.240          38.000                       11746.179         126.310          24.000  
R 1                                                        23.000  
R 2                                                        23.000  
R12                                                        35.000  
E 2                    -22100.887        -204.489          30.000                       -6513.695        -151.855          25.000  
E 8                   -181287.709       -1650.757          32.000                      -96038.067       -1231.711          20.000  
E25                    139542.268        2034.985          24.000                       36887.147        1520.073          23.000  
E30                    -77563.735       -2347.248           8.000                                                                  
J 2                     79911.859         601.001          34.000                       38358.289         448.165          23.000  
C 6                    -48839.317        -508.205          33.000                                                                                                                                  
C 9                    -46570.366        -588.602          27.000                                                                                                                                  
C10                    -77720.597       -1209.266          17.000                                                                                                                                  
C14                   -187566.416       -1525.745          26.000                                                                                                                                  
C16                    -67811.613        -519.874          34.000                                                                                                                                  
C21                    180979.348        2663.398          14.000                                                                                                                                  
C24                   -100934.313       -1482.404          23.000                                                                                                                                  
C26                     83536.273         622.537          36.000                                                                                        4902.772         469.688          25.000  
C33                   -159261.334       -2693.468          21.000                                                                                                                                  
C35                   -141042.000       -2138.933          19.000                                                                                                                                  
> 2022  1 25  3 14 54.0000000  0 24                     
G10                    444809.143        3495.275          17.000                                                                  
G25                    363271.458        2782.832          34.000                      115386.118        2079.215          22.000  
G26                   -338867.863       -2589.634          29.000                      -47321.793       -1936.033          19.000  
G29                   -202466.445       -1585.828          23.000                                                                  
G31                    -52858.363        -370.499          33.000                                                                  
G32                     21865.228         168.574          39.000                       12242.479         127.583          22.000  
R 1                                                        23.000  
R 2                                                        22.000  
R12                                                        36.000  
E 2                    -23174.820        -203.886          30.000                       -7112.759        -151.671          25.000  
E 8                   -189962.735       -1650.539          35.000                     -100874.952       -1232.458          21.000  
E25                    150234.780        2034.914          27.000                       42850.154        1520.337          23.000  
E30                    -89901.434       -2347.557           9.000                                                                  
J 2                     83065.015         600.469          34.000                       40116.311         448.219          22.000  
C 6                    -51487.397        -508.870          32.000                                                                                                                                  
C 9                    -49640.087        -589.199          29.000                                                                                                                                  
C10                    -84021.194       -1210.702          16.000                                                                                                                                  
C14                   -195516.158       -1524.833          31.000                                                                                                                                  
C16                    -70520.553        -520.074          35.000                                                                                                                                  
C21                    194854.536        2664.579          14.000                                                                                                                                  
C24                   -108648.100       -1481.054          22.000                                                                                                                                  
C26                     86776.200         622.738          36.000                                                                                        6742.847         470.117          24.000  
C33                   -173281.009       -2692.003          21.000                                                                                      -12226.489       -2027.280          17.000  
C35                   -152190.032       -2141.671          19.000                                                                                                                                  
> 2022  1 25  3 14 55.0000000  0 24                     
G10                    463184.244          -0.020          17.000                                                                  
G25                    377900.936        2784.069          28.000                      123542.380        2078.783          22.000  
G26                   -352482.538       -2590.203          29.000                      -54914.423       -1933.607          21.000  
G29                   -210797.326       -1585.330          23.000                                                                  
G31                    -54811.816        -369.804          26.000                                                                  
G32                     22751.583         169.375          38.000                       12736.333         126.544          23.000  
R 1                                                        19.000  
R 2                                                        30.000  
R12                                                        33.000  
E 2                    -24247.260        -203.520          28.000                       -7710.476        -151.863          20.000  
E 8                   -198636.542       -1650.170          31.000                     -105712.046       -1232.171          20.000  
E25                    160928.221        2035.174          31.000                       48813.117        1519.632          23.000  
E30                   -102233.039       -2346.510          12.000                                                                  
J 2                     86218.722         600.602          33.000                       41875.083         448.777          23.000  
C 6                    -54134.983        -508.203          32.000                                                                                                                                  
C 9                    -52713.017        -589.770          32.000                                                                                                                                  
C10                    -90315.028       -1207.046          15.000                                                                                                                                  
C14                   -203459.226       -1525.367          32.000                                                                                                                                  
C16                    -73229.083        -519.663          31.000                                                                                                                                  
C21                    208727.174          -0.013          13.000                                                                                                                                  
C24                   -116359.966       -1480.910          24.000                                                                                                                                  
C26                     90016.647         622.606          32.000                                                                                        8582.653         469.113          22.000  
C33                   -187305.022       -2693.768          23.000                                                                                                                                  
C35                   -163332.355       -2138.389          21.000                                                                                                                                  
> 2022  1 25  3 14 56.0000000  0 24                     
G10                    481564.699          -0.020          14.000                                                                  
G25                    392524.708        2781.733          23.000                      131696.604        2077.791          19.000  
G26                   -366090.878       -2590.090          31.000                      -62504.507       -1933.274          24.000  
G29                   -219128.405       -1586.243          23.000                                                                  
G31                    -56753.603        -370.435          36.000                                                                  
G32                     23634.426         169.774          33.000                       13228.644         126.011          21.000  
R 1                                                        22.000  
R 2                                                        34.000  
R12                                                        35.000  
E 2                    -25322.206        -204.574          33.000                       -8310.279        -152.335          23.000  
E 8                   -207314.668       -1651.542          38.000                     -110551.279       -1232.738          26.000  
E25                    171617.111        2034.111          24.000                       54768.717        1514.920          20.000  
E30                   -114561.263       -2346.081          14.000                                                                  
J 2                     89359.326         596.020          29.000                       43630.804         448.238          23.000  
C 6                    -56790.353        -511.180          29.000                                                                                                                                  
C 9                    -55790.668        -590.436          35.000                                                                                                                                  
C10                    -96599.102       -1205.894          15.000                                                                                                                                  
C14                   -211403.926       -1525.151          37.000                                                                                                                                  
C16                    -75943.711        -520.574          32.000                                                                                                                                  
C21                    222603.925        2665.391          23.000                                                                                                                                  
C24                   -124073.368       -1482.842          24.000                                                                                                                                  
C26                     93253.623         622.278          36.000                                                                                       10417.015         468.900          25.000  
C33                   -201325.992       -2691.503          27.000                                                                                                                                  
C35                   -174469.571       -2139.050          18.000                                                                                                                                  
> 2022  1 25  3 14 57.0000000  0 24                     
G10                    499949.221        3497.109          18.000                                                                  
G25                    407154.646        2786.332          34.000                      139855.816        2079.733          24.000  
G26                   -379693.626       -2588.723          24.000                      -70094.913       -1935.069          19.000  
G29                   -227461.463       -1585.314          24.000                                                                  
G31                    -58696.050        -370.178          32.000                                                                  
G32                     24533.757         174.374          41.000                       13729.766         129.805          26.000  
R 1                                                        26.000  
R 2                                                        33.000  
R12                                                        34.000  
E 2                    -26384.391        -201.036          30.000                       -8901.361        -147.750          22.000  
E 8                   -215982.836       -1649.085          33.000                     -115388.338       -1229.623          25.000  
E25                    182313.411        2035.876          34.000                       60726.496        1521.239          21.000  
E30                   -126890.748       -2346.094          15.000                                                                  
J 2                     92517.011         604.308          37.000                       45393.266         452.137          26.000  
C 6                    -59436.868        -504.842          32.000                                                                                                                                  
C 9                    -58861.618        -588.193          30.000                                                                                                                                  
C10                   -102881.687       -1207.312          15.000                                                                                                                                  
C14                   -219345.690       -1524.813          28.000                                                                                                                                  
C16                    -78648.023        -516.642          34.000                                                                                                                                  
C21                    236487.921        2667.375          24.000                                                                                                                                  
C24                   -131787.331       -1478.937          30.000                                                                                                                                  
C26                     96501.958         627.678          33.000                                                                                       12261.942         472.260          24.000  
C33                   -215339.469       -2694.245          25.000                                                                                      -36103.428       -2029.682          19.000  
C35                   -185604.818       -2137.834          16.000                                                                                                                                  
> 2022  1 25  3 14 58.0000000  0 24                     
G10                    518316.997        3492.768          20.000                                                                  
G25                    421796.367        2787.000          35.000                      148021.075        2081.054          30.000  
G26                   -393292.607       -2587.882          22.000                      -77686.399       -1934.063          18.000  
G29                   -235789.490       -1584.131          22.000                                                                  
G31                    -60635.402        -369.167          30.000                                                                  
G32                     25434.029         172.742          30.000                       14235.924         129.266          24.000  
R 1                                                        20.000  
R 2                                                        29.000  
R12                                                        31.000  
E 2                    -27445.821        -201.911          26.000                       -9494.477        -150.488          22.000  
E 8                   -224649.770       -1649.037          33.000                     -120217.962       -1230.985          20.000  
E25                    193017.646        2037.308          28.000                       66695.669        1521.340          28.000  
E30                   -139217.876       -2345.489          18.000                                                                  
J 2                     95675.063         599.553          25.000                       47155.472         449.538          24.000  
C 6                    -62085.330        -508.053          31.000                                                                                                                                  
C 9                    -61934.827        -590.982          29.000                                                                                                                                  
C10                   -109163.421       -1206.331          15.000                                                                                                                                  
C14                   -227290.336       -1525.064          24.000                                                                                                                                  
C16                    -81355.869        -519.251          34.000                                                                                                                                  
C21                    250383.283        2669.127          19.000                                                                                                                                  
C24                   -139490.516       -1480.168          26.000                                                                                                                                  
C26                     99749.510         623.880          34.000                                                                                       14106.107         470.455          27.000  
C33                   -229364.152       -2690.552          22.000                                                                                                                                  
C35                   -196734.661       -2138.108          17.000                                                                                                                                  
> 2022  1 25  3 14 59.0000000  0 24                     
G10                    536669.705        3491.874          22.000                                                                  
G25                    436436.469        2786.335          37.000                      156184.849        2081.291          31.000  
G26                   -406890.423       -2585.906          26.000                      -85282.576       -1933.060          17.000  
G29                   -244113.554       -1584.628          20.000                                                                  
G31                    -62572.124        -368.492          31.000                                                                  
G32                     26336.561         171.229          29.000                       14738.716         128.350          26.000  
R 1                                                        22.000  
R 2                                                        29.000  
R12                                                        29.000  
E 2                    -28505.086        -201.318          24.000                      -10085.356        -150.896          23.000  
E 8                   -233313.250       -1648.334          34.000                     -125049.696       -1231.489          22.000  
E25                    203720.101        2037.083          26.000                       72663.843        1521.627          30.000  
E30                   -151543.295       -2345.600          19.000                                                                  
J 2                     98825.763         599.800          23.000                       48916.356         449.558          26.000  
C 6                    -64728.352        -507.169          32.000                                                                                                                                  
C 9                    -65008.090        -588.887          30.000                                                                                                                                  
C10                   -115445.952       -1206.379          17.000                                                                                                                                  
C14                   -235223.731       -1522.182          24.000                                                                                                                                  
C16                    -84060.342        -519.450          34.000                                                                                                                                  
C21                    264291.194        2671.248          19.000                                                                                                                                  
C24                   -147195.287       -1478.526          24.000                                                                                                                                  
C26                    103000.007         624.147          33.000                                                                                       15951.815         469.908          28.000  
C33                   -243373.049       -2690.121          23.000                                                                                                                                  
C35                   -207861.478       -2137.231          16.000                                                                                                                                  
> 2022  1 25  3 15  0.0000000  0 24                     
G10                    555017.465        3492.293          19.000                                                                  
G25                    451054.382        2781.359          21.000                      164328.747        2072.122          20.000  
G26                   -420485.239       -2587.226          25.000                      -92861.056       -1931.632          22.000  
G29                   -252442.838       -1585.388          20.000                                                                  
G31                    -64513.142        -368.792          38.000                                                                  
G32                     27226.026         172.874          27.000                       15230.202         125.912          20.000  
R 1                                                        21.000  
R 2                                                        36.000  
R12                                                        33.000  
E 2                    -29570.833        -203.137          25.000                      -10683.601        -153.885          20.000  
E 8                   -241981.017       -1649.512          31.000                     -129884.036       -1232.151          29.000  
E25                    214415.107        2034.817          22.000                       78627.623        1515.809          20.000  
E30                   -163866.652       -2344.844          17.000                                                                  
J 2                    101969.036         596.893          23.000                       50664.413         444.144          19.000  
C 6                    -67380.074        -507.432          26.000                                                                                                                                  
C 9                    -68081.460        -590.535          24.000                                                                                                                                  
C10                   -121726.457       -1206.074          15.000                                                                                                                                  
C14                   -243150.848       -1522.894          25.000                                                                                                                                  
C16                    -86779.361        -524.014          23.000                                                                                                                                  
C21                    278187.775        2666.623          23.000                                                                                                                                  
C24                   -154896.759       -1479.587          29.000                                                                                       -1911.837       -1114.379          24.000  
C26                    106242.040         625.020          25.000                                                                                       17789.402         470.332          23.000  
C33                   -257378.566       -2688.918          24.000                                                                                                                                  
C35                   -218998.937       -2139.697          18.000                                                                                                                                  
> 2022  1 25  3 15  1.0000000  0 24                     
G10                    573367.773        3491.023          18.000                                                                  
G25                    465681.598        2783.331          28.000                      172479.852        2076.380          19.000  
G26                   -434087.117       -2586.845          26.000                     -100444.651       -1932.476          21.000  
G29                   -260774.110       -1584.382          19.000                                                                  
G31                    -66456.042        -369.391          39.000                                                                  
G32                     28126.753         172.236          32.000                       15729.203         127.228          19.000  
R 1                                                        18.000  
R 2                                                        37.000  
R12                                                        35.000  
E 2                    -30636.137        -202.542          27.000                      -11278.962        -151.973          23.000  
E 8                   -250650.545       -1649.776          37.000                     -134718.525       -1232.291          32.000  
E25                    225110.959        2035.577          21.000                       84587.520        1520.120          17.000  
E30                   -176189.596       -2345.157          15.000                                                                  
J 2                    105113.263         599.438          23.000                       52413.545         446.137          18.000  
C 6                    -70028.508        -509.136          34.000                                                                                                                                  
C 9                    -71153.443        -589.557          28.000                                                                                                                                  
C10                   -128011.906       -1207.870          14.000                                                                                                                                  
C14                   -251081.610       -1522.975          34.000                                                                                                                                  
C16                    -89501.071        -521.005          33.000                                                                                                                                  
C21                    292070.991        2666.372          22.000                                                                                                                                  
C24                   -162605.690       -1480.750          25.000                                                                                       -6289.438       -1115.788          22.000  
C26                    109487.949         623.529          35.000                                                                                       19631.336         469.409          28.000  
C33                   -271384.508       -2690.793          27.000                                                                                      -67887.768       -2026.598          15.000  
C35                   -230139.477       -2138.892          16.000                                                                                                                                  
> 2022  1 25  3 15  2.0000000  0 24                     
G10                    591708.175        3487.990          18.000                                                                  
G25                    480320.768        2787.922          21.000                      180625.706        2075.719          15.000  
G26                   -447681.974       -2587.672          24.000                     -108025.197       -1932.396          20.000  
G29                   -269089.496       -1581.438          24.000                                                                  
G31                    -68395.303        -369.192          40.000                                                                  
G32                     29027.782         172.656          20.000                       16231.353         128.138          15.000  
R 1                                                        19.000  
R 2                                                        34.000  
R12                                                        36.000  
E 2                    -31694.036        -201.160          27.000                      -11869.942        -151.906          18.000  
E 8                   -259316.281       -1648.902          32.000                     -139551.285       -1232.857          29.000  
E25                    235803.981        2035.231          24.000                       90560.126        1520.322          16.000  
E30                   -188503.873       -2343.137          20.000                                                                  
J 2                    108271.007         604.517          18.000                       54161.210         443.258          14.000  
C 6                    -72676.836        -507.289          26.000                                                                                                                                  
C 9                    -74224.696        -592.194          24.000                                                                                                                                  
C10                   -134293.725           0.002          13.000                                                                                                                                  
C14                   -259006.177       -1520.712          28.000                                                                                                                                  
C16                    -92216.155        -519.823          28.000                                                                                                                                  
C21                    305952.254        2666.931          19.000                                                                                                                                  
C24                   -170311.121       -1480.266          30.000                                                                                      -10663.526       -1115.583          22.000  
C26                    112738.235         622.479          31.000                                                                                       21476.785         469.355          20.000  
C33                   -285391.738       -2689.045          26.000                                                                                      -75832.799       -2023.586          13.000  
C35                   -241274.851       -2138.593          21.000                                                                                                                                  
> 2022  1 25  3 15  3.0000000  0 24                     
G10                    610041.849        3488.938          18.000                                                                  
G25                    494971.956        2787.268          21.000                      188782.766        2078.416          18.000  
G26                   -461276.137       -2586.084          20.000                     -115605.718       -1933.322          20.000  
G29                   -277392.353       -1576.735          19.000                                                                  
G31                    -70335.710        -369.858          36.000                                                                  
G32                     29937.422         174.799          25.000                       16734.446         128.222          14.000  
R 1                                                        17.000  
R 2                                                        35.000  
R12                                                        30.000  
E 2                    -32753.719        -201.341          25.000                      -12462.012        -151.195          17.000  
E 8                   -267982.468       -1648.890          28.000                     -144383.363       -1231.399          26.000  
E25                    246501.433        2035.771          21.000                       96529.207        1520.975          15.000  
E30                   -200813.885       -2343.681          18.000                                                                  
J 2                    111441.671         604.097          16.000                       55898.664         441.805          13.000  
C 6                    -75322.993        -507.579          24.000                                                                                                                                  
C 9                    -77306.263        -592.390          26.000                                                                                                                                  
C10                   -140570.358           0.002          13.000                                                                                                                                  
C14                   -266930.189       -1522.248          23.000                                                                                                                                  
C16                    -94925.071        -519.430          21.000                                                                                                                                  
C21                    319840.065        2666.535          21.000                                                                                                                                  
C24                   -178014.411       -1479.553          27.000                                                                                      -15040.883       -1117.384          18.000  
C26                    115986.797         623.606          25.000                                                                                       23318.575         469.233          16.000  
C33                   -299399.552       -2690.438          19.000                                                                                      -83772.914       -2022.508          14.000  
C35                   -252415.912       -2140.111          24.000                                                                                                                                  
> 2022  1 25  3 15  4.0000000  0 24                     
G10                    628379.320        3488.781          17.000                                                                  
G25                    509615.980        2786.335          19.000                      196940.588        2077.867          17.000  
G26                   -474870.058       -2588.151          22.000                     -123197.545       -1937.224          19.000  
G29                   -285700.562       -1584.984          20.000                                                                  
G31                    -72294.283        -376.896          38.000                                                                  
G32                     30837.594         168.563          22.000                       17244.029         130.422          13.000  
R 1                                                        16.000  
R 2                                                        34.000  
R12                                                        32.000  
E 2                    -33829.620        -207.664          24.000                      -13056.837        -153.898          17.000  
E 8                   -276666.862       -1655.396          31.000                     -149229.531       -1237.550          28.000  
E25                    257183.185        2029.899          24.000                      102498.690        1521.000          14.000  
E30                   -213141.821       -2350.161          18.000                                                                  
J 2                                                                                     57643.958         445.450          14.000  
C 6                    -77981.365        -514.827          23.000                                                                                                                                  
C 9                    -80398.579        -595.992          23.000                                                                                                                                  
C10                   -146845.211           0.002          11.000                                                                                                                                  
C14                   -274864.235       -1524.950          25.000                                                                                                                                  
C16                    -97644.903        -524.469          24.000                                                                                                                                  
C21                    333728.466        2666.911          18.000                                                                                                                                  
C24                   -185736.696       -1486.451          29.000                                                                                      -19429.094       -1119.179          18.000  
C26                    119218.081         616.158          29.000                                                                                       25154.453         466.972          17.000  
C33                   -313420.250       -2694.940          25.000                                                                                      -91702.161       -2020.415          13.000  
C35                   -263574.319       -2145.877          23.000                                                                                                                                  
> 2022  1 25  3 15  5.0000000  0 24                     
G10                    646701.141        3487.256          20.000                                                                  
G25                    524246.077        2781.373          21.000                      205095.632        2077.537          16.000  
G26                   -488478.793       -2590.635          23.000                     -130792.581       -1935.340          17.000  
G29                   -294038.178       -1587.939          20.000                                                                  
G31                    -74274.220        -374.079          35.000                                                                  
G32                     31713.975         166.324          29.000                       17750.755         127.463          11.000  
R 1                                                        16.000  
R 2                                                        32.000  
R12                                                        30.000  
E 2                    -34927.157        -208.928          24.000                      -13663.272        -155.434          15.000  
E 8                   -285371.131       -1656.711          27.000                     -154083.129       -1237.412          26.000  
E25                    267840.975        2028.027          23.000                      108466.225        1520.313          13.000  
E30                   -225495.407       -2350.336          19.000                                                                  
J 2                    117778.934           0.019          17.000                       59394.032         446.292          12.000  
C 6                    -80671.345        -517.636          23.000                                                                                                                                  
C 9                    -83505.325        -595.242          25.000                                                                                                                                  
C10                   -153123.546           0.002          13.000                                                                                                                                  
C14                   -282818.575       -1528.258          24.000                                                                                                                                  
C16                   -100384.523        -526.553          22.000                                                                                                                                  
C21                    347621.285        2666.605          17.000                                                                                                                                  
C24                   -193493.237       -1490.485          26.000                                                                                      -23826.556       -1122.311          18.000  
C26                    122417.121         614.769          22.000                                                                                       26989.340         469.159          13.000  
C33                   -327465.714       -2699.080          20.000                                                                                      -99631.490       -2023.201          10.000  
C35                   -274757.483       -2147.286          25.000                                                                                                                                  
> 2022  1 25  3 15  6.0000000  0 24                     
G10                    665018.182        3484.839          20.000                                                                  
G25                    538863.475        2780.083          24.000                      213251.007        2077.036          17.000  
G26                   -502093.162       -2590.837          24.000                     -138385.133       -1934.728          20.000  
G29                   -302377.257       -1585.719          23.000                                                                  
G31                    -76236.894        -372.059          41.000                                                                  
G32                     32604.217         171.103          28.000                                                                  
R 1                                                        18.000  
R 2                                                        38.000  
R12                                                        34.000  
E 2                    -36011.114        -205.050          30.000                      -14267.223        -149.778          20.000  
E 8                   -294060.191       -1653.089          34.000                     -158928.307       -1234.505          33.000  
E25                    278511.022        2031.058          30.000                      114430.675        1518.727          17.000  
E30                   -237835.124       -2348.405          17.000                                                                  
J 2                    120923.223           0.019          24.000                       61149.248         445.315          18.000  
C 6                    -83353.562        -512.953          29.000                                                                                                                                  
C 9                    -86614.367        -596.148          25.000                                                                                                                                  
C10                   -159409.674           0.002          10.000                                                                                                                                  
C14                   -290769.187       -1524.830          31.000                                                                                                                                  
C16                   -103124.564        -525.689          30.000                                                                                                                                  
C21                    361504.269        2665.089          17.000                                                                                                                                  
C24                   -201227.345       -1482.387          30.000                                                                                      -28219.872       -1116.569          23.000  
C26                    125630.596         618.569          32.000                                                                                       28829.011         467.524          24.000  
C33                   -341503.867       -2695.971          26.000                                                                                                                                  
C35                   -285931.447       -2145.236          18.000                                                                                                                                  
> 2022  1 25  3 15  7.0000000  0 24                     
G10                    683335.080        3486.024          17.000                                                                  
G25                    553498.943        2786.245          30.000                      221413.982        2080.295          26.000  
G26                   -515695.071       -2588.129          18.000                     -145955.111       -1928.916          17.000  
G29                   -310712.336       -1585.044          19.000                                                                  
G31                    -78184.424        -368.533          36.000                                                                  
G32                     33518.051         175.199          34.000                       18753.165         129.615          21.000  
R 1                                                        19.000  
R 2                                                        31.000  
R12                                                        33.000  
E 2                    -37069.187        -199.336          26.000                      -14861.037        -149.728          23.000  
E 8                   -302733.002       -1649.228          34.000                     -163763.646       -1231.694          26.000  
E25                    289202.173        2035.551          29.000                      120392.688        1519.762          24.000  
E30                   -250183.606       -2348.591          16.000                                                                  
J 2                    124068.533         600.414          30.000                       62900.274         444.297          21.000  
C 6                    -86016.049        -511.960          27.000                                                                                                                                  
C 9                    -89702.117        -592.892          30.000                                                                                                                                  
C10                   -165699.373           0.002          14.000                                                                                                                                  
C14                   -298692.650       -1521.215          33.000                                                                                                                                  
C16                   -105845.315        -519.840          29.000                                                                                                                                  
C21                    375383.099        2666.247          18.000                                                                                                                                  
C24                   -208937.341       -1479.917          32.000                                                                                      -32593.324       -1116.048          24.000  
C26                    128873.719         624.725          29.000                                                                                       30667.390         468.712          27.000  
C33                   -355527.573       -2693.921          31.000                                                                                     -115486.374       -2022.760          18.000  
C35                   -297101.635       -2145.500          17.000                                                                                                                                  
> 2022  1 25  3 15  8.0000000  0 23                     
G10                    701655.729        3486.212          17.000                                                                  
G25                    568142.757        2787.961          29.000                      229584.895        2083.055          27.000  
G26                   -529280.185       -2579.641          27.000                     -153524.579       -1929.775          21.000  
G29                   -319032.293       -1581.328          20.000                                                                  
G31                    -80117.457        -365.200          33.000                                                                  
G32                     34446.879         173.735          29.000                       19265.222         128.569          21.000  
R 1                                                        18.000  
R 2                                                        33.000  
R12                                                        32.000  
E 2                    -38110.989        -198.545          30.000                      -15444.427        -149.787          24.000  
E 8                   -311394.662       -1647.232          30.000                     -168594.176       -1231.796          25.000  
E25                    299903.656        2036.172          28.000                      126358.613        1519.841          24.000  
E30                   -262507.357       -2341.477          22.000                      -20457.099       -1749.246          19.000  
J 2                    127228.332         601.473          25.000                       64657.471         448.730          20.000  
C 6                    -88671.754        -509.783          30.000                                                                                                                                  
C 9                    -92783.860        -591.666          30.000                                                                                                                                  
C14                   -306610.857       -1521.179          29.000                                                                                                                                  
C16                   -108546.649        -520.054          32.000                                                                                                                                  
C21                    389264.439        2666.553          19.000                                                                                                                                  
C24                   -216630.726       -1476.375          30.000                                                                                      -36962.802       -1112.995          26.000  
C26                    132122.149         623.220          35.000                                                                                       32509.236         470.128          27.000  
C33                   -369553.376       -2690.273          32.000                                                                                     -123434.418       -2027.201          22.000  
C35                   -308279.667       -2145.961          15.000                                                                                                                                  
> 2022  1 25  3 15  9.0000000  0 23                     
G10                    719984.251        3488.144          16.000                                                                  
G25                    582785.530        2788.339          30.000                      237749.716        2081.505          30.000  
G26                   -542840.363       -2581.628          30.000                     -161086.238       -1928.105          28.000  
G29                   -327338.730       -1578.496          18.000                                                                  
G31                    -82059.075        -365.021          32.000                                                                  
G32                     35363.057         176.772          34.000                       19788.364         131.919          20.000  
R 1                                                        19.000  
R 2                                                        35.000  
R12                                                        33.000  
E 2                    -39153.066        -197.599          31.000                      -16025.745        -145.500          24.000  
E 8                   -320059.670       -1647.946          30.000                     -173428.574       -1230.396          24.000  
E25                    310594.798        2034.405          28.000                      132316.482        1518.045          23.000  
E30                   -274799.506       -2338.979          29.000                      -27310.135       -1747.665          22.000  
J 2                    130386.417         600.917          26.000                       66423.114         449.833          20.000  
C 6                    -91335.487        -511.522          29.000                                                                                                                                  
C 9                    -95883.245        -594.716          30.000                                                                                                                                  
C14                   -314534.802       -1519.121          29.000                                                                                                                                  
C16                   -111268.064        -520.722          34.000                                                                                                                                  
C21                    403153.693        2668.274          19.000                                                                                                                                  
C24                   -224309.973       -1475.359          34.000                                                                                      -41333.227       -1114.414          23.000  
C26                    135374.305         626.508          35.000                                                                                       34357.967         472.528          26.000  
C33                   -383571.133       -2692.693          23.000                                                                                     -131393.306       -2025.963          20.000  
C35                   -319450.279       -2144.772          15.000                                                                                                                                  
> 2022  1 25  3 15 10.0000000  0 23                     
G10                    738312.422        3487.055          17.000                                                                  
G25                    597424.863        2780.982          29.000                      245913.537        2078.505          29.000  
G26                   -556395.467       -2576.404          28.000                     -168641.524       -1926.828          24.000  
G29                   -335642.797       -1580.097          19.000                                                                  
G31                    -84000.546        -373.175          33.000                                                                  
G32                     36288.044         175.224          37.000                       20302.077         130.511          22.000  
R 1                                                        19.000  
R 2                                                        29.000  
R12                                                        33.000  
E 2                    -40190.950        -197.832          33.000                      -16610.538        -147.747          25.000  
E 8                   -328727.211       -1649.915          31.000                     -178259.895       -1232.214          24.000  
E25                    321284.111        2031.886          33.000                      138276.795        1517.096          25.000  
E30                   -287092.546       -2336.908          24.000                      -34160.195       -1746.370          22.000  
J 2                    133545.853         599.883          31.000                       68183.214         447.859          21.000  
C 6                    -93987.364        -511.071          31.000                                                                                                                                  
C 9                    -98970.057        -593.714          27.000                                                                                                                                  
C14                   -322455.130       -1521.269          28.000                                                                                                                                  
C16                   -113994.873        -528.029          30.000                                                                                                                                  
C21                    417051.968        2670.169          17.000                                                                                                                                  
C24                   -232000.411       -1476.832          33.000                                                                                      -45697.176       -1112.794          20.000  
C26                    138623.765         621.490          33.000                                                                                       36204.140         469.959          24.000  
C33                   -397577.443       -2692.253          33.000                                                                                     -139345.538       -2027.645          22.000  
C35                   -330608.262       -2141.862          15.000                                                                                                                                  
> 2022  1 25  3 15 11.0000000  0 23                     
G10                    756638.829        3486.267          17.000                                                                  
G25                    612053.929        2778.224          30.000                      254074.527        2076.628          30.000  
G26                   -569937.368       -2575.916          29.000                     -176195.215       -1923.842          21.000  
G29                   -343939.669       -1578.126          18.000                                                                  
G31                    -85934.358        -369.472          34.000                                                                  
G32                     37208.467         174.363          38.000                       20818.211         128.125          20.000  
R 1                                                        18.000  
R 2                                                        31.000  
R12                                                        33.000  
E 2                    -41226.648        -197.492          31.000                      -17180.779        -149.172          25.000  
E 8                   -337386.635       -1649.285          32.000                     -183088.844       -1229.960          22.000  
E25                    331971.269        2031.501          34.000                      144235.716        1513.819          24.000  
E30                   -299373.295       -2335.517          25.000                      -41016.053       -1747.293          21.000  
J 2                    136693.685         598.013          31.000                       69944.756         447.052          20.000  
C 6                    -96644.165        -511.699          29.000                                                                                                                                  
C 9                   -102051.801        -593.881          28.000                                                                                                                                  
C14                   -330354.427       -1517.939          23.000                                                                                                                                  
C16                   -116716.733        -526.296          32.000                                                                                                                                  
C21                    430964.139        2671.229          21.000                                                                                                                                  
C24                   -239683.476       -1476.242          29.000                                                                                      -50053.338       -1112.109          22.000  
C26                    141869.907         621.108          35.000                                                                                       38048.797         467.310          24.000  
C33                   -411584.141       -2693.525          29.000                                                                                     -147304.795       -2026.722          22.000  
C35                   -341769.280       -2143.412          16.000                                                                                                                                  
> 2022  1 25  3 15 12.0000000  0 23                     
G10                    774962.598        3487.585          17.000                                                                  
G25                    626698.957        2781.154          32.000                      262252.925        2083.499          25.000  
G26                   -583475.285       -2574.736          28.000                     -183758.204       -1929.108          20.000  
G29                   -352240.019       -1579.997          20.000                                                                  
G31                    -87860.587        -369.986          31.000                                                                  
G32                     38148.837         176.983          35.000                       21339.899         129.853          21.000  
R 1                                                        19.000  
R 2                                                        29.000  
R12                                                        34.000  
E 2                    -42253.625        -196.146          31.000                      -17750.132        -148.167          23.000  
E 8                   -346040.922       -1647.875          27.000                     -187914.034       -1231.987          25.000  
E25                    342662.254        2032.317          27.000                      150190.343        1515.720          25.000  
E30                   -311647.071       -2336.324          24.000                      -47863.793       -1744.536          20.000  
J 2                    139852.187         601.165          29.000                       71703.941         446.643          20.000  
C 6                    -99302.707        -511.183          27.000                                                                                                                                  
C 9                   -105129.189        -593.595          25.000                                                                                                                                  
C14                   -338246.420       -1515.112          24.000                                                                                                                                  
C16                   -119436.437        -527.716          32.000                                                                                                                                  
C21                    444877.102        2672.106          23.000                                                                                                                                  
C24                   -247365.234       -1474.856          28.000                                                                                      -54413.042       -1109.244          22.000  
C26                    145130.267         619.912          35.000                                                                                       39902.479         467.730          23.000  
C33                   -425586.181       -2693.229          30.000                                                                                     -155259.841       -2030.175          20.000  
C35                   -352928.171       -2141.090          15.000                                                                                                                                  
> 2022  1 25  3 15 13.0000000  0 23                     
G10                    793286.004        3486.132          19.000                                                                  
G25                    641342.026        2780.126          35.000                      270424.501        2076.805          27.000  
G26                   -597007.418       -2573.500          27.000                     -191309.632       -1922.523          21.000  
G29                   -360530.799       -1577.701          22.000                                                                  
G31                    -89789.179        -368.992          30.000                                                                  
G32                     39088.062         176.195          35.000                       21867.780         131.717          21.000  
R 1                                                        19.000  
R 2                                                        25.000  
R12                                                        32.000  
E 2                    -43279.383        -195.164          30.000                      -18321.071        -146.330          25.000  
E 8                   -354690.381       -1645.228          28.000                     -192771.502       -1238.067          20.000  
E25                    353355.583        2032.464          28.000                      156153.827        1517.145          23.000  
E30                   -323924.440       -2333.361          24.000                      -54701.971       -1740.006          21.000  
J 2                    143008.173         597.578          30.000                       73481.007         454.631          20.000  
C 6                   -101955.968        -510.679          26.000                                                                                                                                  
C 9                   -108214.063        -593.269          25.000                                                                                                                                  
C14                   -346140.285       -1516.691          28.000                                                                                                                                  
C16                   -122162.222        -522.515          28.000                                                                                                                                  
C21                    458794.489        2673.033          20.000                                                                                                                                  
C24                   -255032.815       -1471.818          24.000                                                                                      -58764.351       -1106.664          21.000  
C26                    148393.231         622.610          29.000                                                                                       41755.986         470.515          23.000  
C33                   -439607.643       -2690.713          23.000                                                                                     -163222.565       -2028.329          19.000  
C35                   -364074.673       -2139.917          15.000                                                                                                                                  
> 2022  1 25  3 15 14.0000000  0 24                     
G10                    811611.962        3486.907          21.000                                                                  
G25                    655993.645        2784.919          30.000                      278607.055        2084.282          24.000  
G26                   -610529.347       -2570.984          24.000                     -198858.236       -1923.025          20.000  
G29                   -368819.768       -1577.828          26.000                                                                  
G31                    -91697.822        -366.704          27.000                                                                  
G32                     40024.716         176.017          34.000                       22408.381         140.420          22.000  
R 1                                                        20.000  
R 2                                                        27.000  
R12                                                        28.000  
E 2                    -44304.115        -196.004          29.000                      -18877.955        -142.242          21.000  
E 8                   -363330.598       -1645.868          25.000                     -197588.035       -1229.197          20.000  
E25                    364049.491        2034.464          26.000                      162135.645        1523.888          20.000  
E30                   -336188.873       -2332.601          20.000                      -61544.667       -1744.251          20.000  
J 2                    146153.488         596.539          26.000                       75248.590         448.824          21.000  
C 6                   -104600.486        -511.454          29.000                                                                                                                                  
C 9                   -111293.329        -589.176          23.000                                                                                                                                  
C10                    -38270.445       -1203.844          17.000                                                                                                                                  
C14                   -354020.299       -1514.796          25.000                                                                                                                                  
C16                   -124861.584        -518.182          25.000                                                                                                                                  
C21                    472711.319        2672.393          23.000                                                                                                                                  
C24                   -262699.647       -1471.616          25.000                                                                                      -63116.906       -1111.724          22.000  
C26                    151654.526         624.124          32.000                                                                                       43609.288         467.911          23.000  
C33                   -453611.048       -2688.353          18.000                                                                                     -171179.937       -2028.542          16.000  
C35                   -375207.385       -2136.944          13.000                                                                                                                                  
> 2022  1 25  3 15 15.0000000  0 24                     
G10                    829935.374        3486.907          19.000                                                                  
G25                    670630.904        2781.513          35.000                      286757.890        2078.874          24.000  
G26                   -624051.605       -2571.070          24.000                     -206412.063       -1923.119          19.000  
G29                   -377108.086       -1581.396          25.000                                                                  
G31                    -93628.567        -368.359          24.000                                                                  
G32                     40968.487         177.962          32.000                       22944.796         131.563          20.000  
R 1                                                        20.000  
R 2                                                        23.000  
R12                                                        27.000  
E 2                    -45328.560        -194.021          25.000                      -19439.723        -145.748          22.000  
E 8                   -371969.172       -1644.061          23.000                     -202400.869       -1228.054          18.000  
E25                    374745.406        2033.921          25.000                      168095.390        1515.177          24.000  
E30                   -348460.488       -2335.941          20.000                      -68388.685       -1743.038          18.000  
J 2                    149317.137         601.528          28.000                       77014.650         448.631          20.000  
C 6                   -107260.574        -511.291          25.000                                                                                                                                  
C 9                   -114367.297        -591.196          22.000                                                                                                                                  
C10                    -44543.240       -1203.513          16.000                                                                                                                                  
C14                   -361896.451       -1514.209          23.000                                                                                                                                  
C16                   -127567.442        -522.110          30.000                                                                                                                                  
C21                    486636.398        2675.240          22.000                                                                                                                                  
C24                   -270364.792       -1473.683          24.000                                                                                      -67462.440       -1106.157          19.000  
C26                    154913.179         623.838          30.000                                                                                       45463.841         471.567          20.000  
C33                   -467604.458       -2685.143          17.000                                                                                     -179137.653       -2027.862          13.000  
C35                   -386333.529       -2135.195          13.000                                                                                                                                  
> 2022  1 25  3 15 16.0000000  0 24                     
G10                    848265.370        3488.159          21.000                                                                  
G25                    685286.868        2784.917          31.000                      294928.113        2078.076          29.000  
G26                   -637572.821       -2573.008          26.000                     -213965.234       -1926.861          19.000  
G29                   -385397.530       -1576.219          25.000                                                                  
G31                    -95544.834        -363.456          29.000                                                                  
G32                     41909.546         178.988          33.000                       23471.968         132.932          24.000  
R 1                                                        20.000  
R 2                                                        29.000  
R12                                                        24.000  
E 2                    -46346.124        -192.421          28.000                      -20004.516        -145.014          23.000  
E 8                   -380611.092       -1643.507          24.000                     -207223.608       -1231.707          18.000  
E25                    385441.754        2034.823          29.000                      174060.145        1514.805          26.000  
E30                   -360733.987       -2333.413          22.000                      -75230.552       -1741.450          20.000  
J 2                    152472.917         601.180          28.000                       78768.633         447.542          24.000  
C 6                   -109910.950        -508.596          28.000                                                                                                                                  
C 9                   -117448.824        -592.211          22.000                                                                                                                                  
C10                    -50813.781       -1202.486          17.000                                                                                                                                  
C14                   -369776.689       -1513.722          26.000                                                                                                                                  
C16                   -130287.218        -522.645          30.000                                                                                                                                  
C21                    500567.826        2676.531          20.000                                                                                                                                  
C24                   -278031.757       -1467.969          27.000                                                                                      -71800.199       -1103.929          19.000  
C26                    158175.366         625.988          29.000                                                                                       47320.291         473.595          23.000  
C33                   -481579.377       -2682.793          15.000                                                                                     -187092.324       -2028.546          15.000  
C35                   -397454.180           0.027          14.000                                                                                                                                  
> 2022  1 25  3 15 17.0000000  0 25                     
G10                    866597.328        3489.027          22.000                                                                  
G25                    699942.302        2787.387          33.000                      303093.835        2079.325          25.000  
G26                   -651091.390       -2572.833          24.000                     -221522.473       -1927.189          19.000  
G29                   -393679.645       -1576.047          23.000                                                                  
G31                    -97449.108        -362.228          32.000                                                                  
G32                     42862.865         181.454          34.000                       24005.786         138.102          22.000  
R 1                                                        21.000  
R 2                                                        32.000  
R12                                                        24.000  
E 2                    -47357.623        -192.220          27.000                      -20569.151        -145.483          20.000  
E 8                   -389245.662       -1642.897          27.000                     -212039.733       -1224.957          21.000  
E25                    396140.823        2036.893          29.000                      180028.921        1517.580          25.000  
E30                   -372999.145       -2333.073          22.000                      -82069.092       -1742.255          18.000  
J 2                    155637.132         603.638          29.000                       80531.469         447.735          22.000  
C 6                   -112552.483        -508.592          25.000                                                                                                                                  
C 9                   -120520.487        -589.502          28.000                                                                                                                                  
C10                    -57080.390       -1202.178          17.000                                                                                                                                  
C14                   -377650.897       -1513.140          23.000                                                                                                                                  
C16                   -133000.165        -521.385          26.000                                                                                                                                  
C21                    514504.717        2676.466          20.000                                                                                                                                  
C24                   -285681.901       -1471.133          25.000                                                                                      -76141.593       -1108.137          17.000  
C26                    161441.481         628.282          30.000                                                                                       49178.980         475.255          21.000  
C29                     -4965.524        -699.218          17.000                                                                                                                                  
C33                   -495550.132       -2683.721          15.000                                                                                     -195054.045       -2028.256          13.000  
C35                   -408567.600           0.027          16.000                                                                                                                                  
> 2022  1 25  3 15 18.0000000  0 25                     
G10                    884933.096        3488.308          26.000                                                                  
G25                    714601.586        2790.398          31.000                      311263.793        2080.546          22.000  
G26                   -664608.686       -2572.627          25.000                     -229078.684       -1924.370          18.000  
G29                   -401963.671       -1575.431          20.000                                                                  
G31                    -99351.867        -361.652          26.000                                                                  
G32                     43817.081         182.736          31.000                       24525.522         130.838          21.000  
R 1                                                        18.000  
R 2                                                        28.000  
R12                                                        24.000  
E 2                    -48366.557        -192.535          26.000                      -21129.028        -140.509          20.000  
E 8                   -397868.606       -1642.140          25.000                     -216855.621       -1230.751          19.000  
E25                    406840.940        2036.698          27.000                      185985.290        1517.870          24.000  
E30                   -385262.424       -2333.318          22.000                      -88904.473       -1741.460          19.000  
J 2                    158804.484         602.610          28.000                       82296.907         449.453          20.000  
C 6                   -115207.583        -506.622          22.000                                                                                                                                  
C 9                   -123587.271        -589.122          24.000                                                                                                                                  
C10                    -63341.030       -1202.222          17.000                                                                                                                                  
C14                   -385527.354       -1512.035          24.000                                                                                                                                  
C16                   -135705.248        -516.688          25.000                                                                                                                                  
C21                    528437.041        2675.064          23.000                                                                                                                                  
C24                   -293336.049       -1469.836          24.000                                                                                      -80487.794       -1107.471          17.000  
C26                    164709.410         628.498          23.000                                                                                       51036.028         472.203          20.000  
C29                     -8610.272        -698.986          17.000                                                                                                                                  
C33                   -509520.969          -0.000          16.000                                                                                     -203015.904       -2028.025           9.000  
C35                   -419676.074           0.027          14.000                                                                                                                                  
> 2022  1 25  3 15 19.0000000  0 25                     
G10                    903272.530        3489.631          26.000                                                                  
G25                    729246.729        2789.539          32.000                      319427.612        2083.031          26.000  
G26                   -678131.439       -2574.790          22.000                     -236625.962       -1923.040          17.000  
G29                   -410236.957       -1571.348          24.000                                                                  
G31                   -101238.663        -359.804          26.000                                                                  
G32                     44777.596         186.795          29.000                       25063.586         140.085          20.000  
R 1                                                        20.000  
R 2                                                        26.000  
R12                                                        28.000  
E 2                    -49382.179        -190.940          24.000                      -21691.956        -142.506          19.000  
E 8                   -406504.166       -1644.876          21.000                     -221677.132       -1225.430          20.000  
E25                    417542.765        2037.881          29.000                      191943.234        1519.188          24.000  
E30                   -397513.449       -2331.324          18.000                      -95732.492       -1740.181          19.000  
J 2                    161968.725         604.237          27.000                       84059.140         449.425          22.000  
C 6                   -117855.058        -509.580          20.000                                                                                                                                  
C 9                   -126646.851        -587.264          23.000                                                                                                                                  
C10                    -69602.672       -1204.142          17.000                                                                                                                                  
C14                   -393393.244       -1509.424          25.000                                                                                                                                  
C16                   -138416.507        -519.318          25.000                                                                                                                                  
C21                    542368.528        2675.532          22.000                                                                                                                                  
C24                   -300984.779       -1469.727          22.000                                                                                      -84829.912       -1105.647          17.000  
C26                    167982.775         628.840          30.000                                                                                       52892.170         472.586          19.000  
C29                    -12225.143        -690.281          15.000                                                                                                                                  
C33                   -523502.616          -0.000          16.000                                                                                                                                  
C35                   -430779.986           0.027          14.000                                                                                                                                  
> 2022  1 25  3 15 20.0000000  0 25                     
G10                    921616.512        3490.961          20.000                                                                  
G25                    743903.030        2790.649          29.000                      327598.859        2081.952          24.000  
G26                   -691661.634       -2575.891          22.000                     -244171.020       -1922.991          17.000  
G29                   -418504.523       -1572.445          24.000                                                                  
G31                   -103134.609        -360.018          23.000                                                                  
G32                     45741.142         183.350          35.000                       25605.528         136.417          22.000  
R 1                                                        24.000  
R 2                                                        30.000  
R12                                                        25.000  
E 2                    -50386.759        -191.048          25.000                      -22252.279        -141.923          19.000  
E 8                   -415137.640       -1643.263          22.000                     -226488.980       -1227.172          19.000  
E25                    428246.910        2038.172          26.000                      197908.254        1519.126          25.000  
E30                   -409772.999       -2335.511          18.000                     -102559.587       -1740.340          18.000  
J 2                    165132.368         601.932          27.000                       85828.864         453.217          22.000  
C 6                   -120504.931        -509.449          27.000                                                                                                                                  
C 9                   -129711.240        -591.787          25.000                                                                                                                                  
C10                    -75877.966       -1203.376          17.000                                                                                                                                  
C14                   -401249.880       -1508.972          25.000                                                                                                                                  
C16                   -141120.582        -518.315          28.000                                                                                                                                  
C21                    556303.385        2677.028          24.000                                                                                                                                  
C24                   -308633.253       -1470.781          26.000                                                                                      -89164.860       -1104.057          16.000  
C26                    171261.864         629.831          28.000                                                                                       54731.582         469.723          20.000  
C29                    -15826.220        -690.654          17.000                                                                                                                                  
C33                   -537485.222       -2684.089          14.000                                                                                                                                  
C35                   -441882.476           0.027          12.000                                                                                                                                  
> 2022  1 25  3 15 21.0000000  0 25                     
G10                    939962.727        3491.660          25.000                                                                  
G25                    758577.337        2795.136          27.000                      335777.493        2087.921          27.000  
G26                   -705192.952       -2572.942          22.000                     -251706.805       -1918.825          19.000  
G29                   -426775.184       -1573.687          28.000                                                                  
G31                   -105026.883        -360.178          24.000                                                                  
G32                     46698.666         184.326          37.000                       26141.706         138.132          24.000  
R 1                                                        23.000  
R 2                                                        25.000  
R12                                                        28.000  
E 2                    -51388.309        -190.418          25.000                      -22809.846        -143.921          20.000  
E 8                   -423761.068       -1640.786          25.000                     -231301.853       -1226.422          19.000  
E25                    438954.164        2039.179          29.000                      203863.189        1518.413          21.000  
E30                   -422035.610       -2333.409          18.000                     -109389.895       -1742.663          14.000  
J 2                    168299.952         602.779          30.000                       87594.779         448.855          24.000  
C 6                   -123154.882        -507.438          25.000                                                                                                                                  
C 9                   -132781.976        -588.572          21.000                                                                                                                                  
C10                    -82143.084       -1203.384          17.000                                                                                                                                  
C14                   -409106.728       -1510.291          23.000                                                                                                                                  
C16                   -143824.386        -521.480          25.000                                                                                                                                  
C21                    570242.346          -0.013          23.000                                                                                                                                  
C24                   -316283.499       -1466.573          24.000                                                                                      -93502.697       -1107.099          17.000  
C26                    174541.013         631.272          26.000                                                                                       56589.351         474.954          21.000  
C29                    -19431.575        -694.477          17.000                                                                                                                                  
C33                   -551459.619       -2682.379          15.000                                                                                                                                  
C35                   -452984.174           0.027          14.000                                                                                                                                  
> 2022  1 25  3 15 22.0000000  0 26                     
G10                    958306.389        3489.760          20.000                                                                  
G25                    773262.083        2796.673          28.000                      343973.237        2086.329          26.000  
G26                   -718714.114       -2573.106          21.000                     -259237.500       -1920.196          17.000  
G29                   -435056.694       -1574.561          25.000                                                                  
G31                   -106923.233        -363.454          24.000                                                                  
G32                     47662.727         185.743          35.000                       26681.437         138.139          22.000  
R 1                                                        24.000  
R 2                                                        28.000  
R12                                                        27.000  
E 2                    -52386.840        -189.709          24.000                      -23375.359        -147.144          18.000  
E 5                     18571.595        2452.132          17.000                                                                  
E 8                   -432384.231       -1638.869          22.000                     -236107.252       -1221.810          17.000  
E25                    449664.155        2040.478          24.000                      209836.599        1522.377          23.000  
E30                   -434292.933       -2331.652          18.000                     -116219.499       -1739.740          17.000  
J 2                    171461.276         605.828          30.000                       89357.132         449.631          23.000  
C 6                   -125794.023        -507.549          20.000                                                                                                                                  
C 9                   -135843.580        -586.681          27.000                                                                                                                                  
C10                    -88417.995       -1204.758          19.000                                                                                                                                  
C14                   -416965.507       -1510.842          27.000                                                                                                                                  
C16                   -146525.069        -516.450          29.000                                                                                                                                  
C21                    584178.801        2677.894          25.000                                                                                                                                  
C24                   -323917.827       -1469.105          24.000                                                                                      -97846.396       -1107.640          17.000  
C26                    177825.586         630.941          30.000                                                                                       58449.150         474.412          21.000  
C29                    -23037.770        -690.281          17.000                                                                                                                                  
C33                   -565420.307       -2679.814          16.000                                                                                                                                  
C35                   -464087.457           0.027          13.000                                                                                                                                  
> 2022  1 25  3 15 23.0000000  0 26                     
G10                    976653.575        3494.267          28.000                                                                  
G25                    787945.307        2799.610          33.000                      352160.490        2088.193          27.000  
G26                   -732239.725       -2572.145          23.000                     -266772.603       -1921.398          17.000  
G29                   -443321.798       -1565.238          28.000                                                                  
G31                   -108826.204        -361.570          25.000                                                                  
G32                     48632.794         187.652          34.000                       27222.860         138.225          24.000  
R 1                                                        20.000  
R 2                                                        25.000  
R12                                                        21.000  
E 2                    -53383.103        -189.166          29.000                      -23937.115        -141.311          18.000  
E 5                     31484.523        2460.570          18.000                                                                  
E 8                   -440996.723       -1638.955          21.000                     -240901.617       -1221.777          17.000  
E25                    460380.610        2042.121          29.000                      215799.428        1520.640          21.000  
E30                   -446542.299       -2332.879          19.000                     -123043.648       -1740.160          17.000  
J 2                    174639.108         604.233          27.000                       91127.030         453.976          25.000  
C 6                   -128427.603        -505.089          30.000                                                                                                                                  
C 9                   -138902.991        -587.683          26.000                                                                                                                                  
C10                    -94687.401       -1204.123          16.000                                                                                                                                  
C14                   -424824.098       -1505.880          25.000                                                                                                                                  
C16                   -149222.918        -515.657          32.000                                                                                                                                  
C21                    598125.950        2679.263          24.000                                                                                                                                  
C24                   -331562.010       -1467.290          24.000                                                                                     -102188.775       -1105.940          18.000  
C26                    181110.341         632.303          32.000                                                                                       60315.113         475.707          26.000  
C29                    -26626.585        -690.156          17.000                                                                                                                                  
C33                   -579373.221       -2680.062          15.000                                                                                                                                  
C35                   -475189.928           0.027          14.000                                                                                                                                  
> 2022  1 25  3 15 24.0000000  0 26                     
G10                    995001.267        3491.357          25.000                                                                  
G25                    802609.428        2794.253          26.000                      360355.431        2089.799          26.000  
G26                   -745756.824       -2571.250          22.000                     -274312.871       -1921.107          19.000  
G29                   -451574.871       -1567.544          32.000                                                                  
G31                   -110721.173        -357.586          30.000                                                                  
G32                     49602.798         188.181          33.000                       27769.199         139.425          23.000  
R 1                                                        22.000  
R 2                                                        27.000  
R12                                                        27.000  
E 2                    -54377.450        -188.570          29.000                      -24487.187        -141.417          24.000  
E 5                     44405.650        2456.530          17.000                                                                  
E 8                   -449612.461       -1639.464          28.000                     -245700.766       -1223.790          21.000  
E25                    471096.020        2041.752          33.000                      221775.049        1528.730          22.000  
E30                   -458796.188       -2334.379          18.000                     -129872.511       -1740.084          16.000  
J 2                    177795.178         603.507          27.000                       92898.032         450.094          23.000  
C 6                   -131069.979        -507.364          26.000                                                                                                                                  
C 9                   -141966.487        -587.706          26.000                                                                                                                                  
C10                   -100949.875       -1201.040          18.000                                                                                                                                  
C14                   -432659.007       -1506.414          25.000                                                                                                                                  
C16                   -151926.229        -519.351          25.000                                                                                                                                  
C21                    612063.737        2677.044          24.000                                                                                                                                  
C24                   -339197.747       -1465.691          24.000                                                                                     -106531.911       -1109.416          20.000  
C26                    184388.082         630.616          24.000                                                                                       62189.222         476.256          23.000  
C29                    -30227.076        -691.373          17.000                                                                                                                                  
C33                   -593334.276       -2679.546          13.000                                                                                                                                  
C35                   -486314.948           0.027          12.000                                                                                                                                  
> 2022  1 25  3 15 25.0000000  0 26                     
G10                   1013358.011        3497.280          24.000                                                                  
G25                    817285.169        2798.313          36.000                      368543.587        2089.883          24.000  
G26                   -759260.821       -2569.017          24.000                     -281854.381       -1921.734          19.000  
G29                   -459826.577       -1568.263          29.000                                                                  
G31                   -112603.481        -354.816          29.000                                                                  
G32                     50579.160         187.694          33.000                       28317.779         139.384          23.000  
R 1                                                        20.000  
R 2                                                        32.000  
R12                                                        27.000  
E 2                    -55365.862        -187.920          28.000                      -25037.333        -139.617          20.000  
E 5                     57321.624        2455.109          18.000                                                                  
E 8                   -458229.242       -1638.604          30.000                     -250513.944       -1227.389          20.000  
E25                    481814.009        2042.377          22.000                      227745.074        1527.288          21.000  
E30                   -471056.600       -2333.458          18.000                     -136696.525       -1739.712          17.000  
J 2                    180969.016         604.536          30.000                       94668.679         453.537          24.000  
C 6                   -133714.263        -506.700          26.000                                                                                                                                  
C 9                   -145026.139        -587.692          30.000                                                                                                                                  
C10                   -107204.379       -1199.585          18.000                                                                                                                                  
C14                   -440495.607       -1505.892          26.000                                                                                                                                  
C16                   -154622.338        -516.399          26.000                                                                                                                                  
C21                    626011.821        2678.342          20.000                                                                                                                                  
C24                   -346861.589       -1472.536          27.000                                                                                     -110870.146       -1104.997          19.000  
C26                    187672.019         632.597          33.000                                                                                       64070.047         476.131          20.000  
C29                    -33825.733        -690.297          17.000                                                                                                                                  
C33                   -607298.132          -0.000          14.000                                                                                                                                  
C35                   -497437.549           0.027          14.000                                                                                                                                  
> 2022  1 25  3 15 26.0000000  0 26                     
G10                   1031740.163        3498.363          24.000                                                                  
G25                    831945.717        2787.637          25.000                      376729.299        2087.824          20.000  
G26                   -772757.588       -2569.769          25.000                     -289396.532       -1921.293          18.000  
G29                   -468073.108       -1566.407          31.000                                                                  
G31                   -114491.679        -361.552          23.000                                                                  
G32                     51555.903         190.038          32.000                       28868.173         141.778          24.000  
R 1                                                        22.000  
R 2                                                        27.000  
R 8                                                        22.000  
R12                                                        29.000  
E 2                    -56351.572        -186.721          28.000                      -25588.218        -144.495          19.000  
E 5                     70216.705        2456.444          22.000                                                                  
E 8                   -466842.159       -1637.301          21.000                     -255324.910       -1224.282          17.000  
E25                    492537.006        2042.518          30.000                      233739.578        1527.818          18.000  
E30                   -483310.967       -2330.054          18.000                     -143516.859       -1738.868          16.000  
J 2                    184135.019         605.462          29.000                       96437.605         446.630          24.000  
C 6                   -136361.463        -505.506          20.000                                                                                                                                  
C 9                   -148100.883        -590.109          23.000                                                                                                                                  
C10                   -113452.120       -1198.894          17.000                                                                                                                                  
C14                   -448340.602       -1506.660          25.000                                                                                                                                  
C16                   -157312.751        -515.880          31.000                                                                                                                                  
C21                    639962.127        2680.743          24.000                                                                                                                                  
C24                   -354514.416       -1467.210          26.000                                                                                     -115204.657       -1105.556          18.000  
C26                    190955.217         634.943          32.000                                                                                       65943.892         478.385          18.000  
C29                    -37420.721        -690.542          16.000                                                                                                                                  
C33                   -621265.097          -0.000          14.000                                                                                                                                  
> 2022  1 25  3 15 27.0000000  0 26                     
G10                   1050115.623        3498.429          32.000                                                                  
G25                    846614.698        2793.828          25.000                      384920.828        2091.307          28.000  
G26                   -786263.923       -2570.066          22.000                     -296932.270       -1922.440          20.000  
G29                   -476297.627       -1565.519          28.000                                                                  
G31                   -116376.150        -354.947          29.000                                                                  
G32                     52541.404         189.600          33.000                       29425.044         143.852          23.000  
R 1                                                        21.000  
R 2                                                        25.000  
R 8                                                        23.000  
R12                                                        26.000  
E 2                    -57338.348        -186.595          28.000                      -26139.716        -141.942          21.000  
E 5                     83121.792        2457.491          25.000                                                                  
E 8                   -475449.015       -1636.631          27.000                     -260124.492       -1220.748          22.000  
E25                    503255.054        2041.977          24.000                      239726.843        1526.826          24.000  
E30                   -495548.875       -2328.637          18.000                     -150337.173       -1738.704          17.000  
J 2                    187315.711         601.178          29.000                       98205.385         452.944          27.000  
C 6                   -138991.841        -504.965          28.000                                                                                                                                  
C 9                   -151171.456        -588.520          22.000                                                                                                                                  
C10                   -119700.034       -1200.833          20.000                                                                                                                                  
C14                   -456192.342       -1504.442          25.000                                                                                                                                  
C16                   -160019.127        -518.947          26.000                                                                                                                                  
C21                    653925.301        2682.249          22.000                                                                                                                                  
C24                   -362145.814       -1465.781          27.000                                                                                     -119541.096       -1102.872          20.000  
C26                    194252.489         635.934          25.000                                                                                       67815.173         478.649          23.000  
C29                    -41015.598        -690.858          15.000                                                                                                                                  
C33                   -635230.950          -0.000          15.000                                                                                                                                  
> 2022  1 25  3 15 28.0000000  0 26                     
G10                   1068481.386        3496.446          38.000                                                                  
G25                    861301.572        2799.120          23.000                      393114.795        2091.477          22.000  
G26                   -799767.680       -2570.760          24.000                     -304473.924       -1919.841          19.000  
G29                   -484538.330       -1565.990          31.000                                                                  
G31                   -118255.101        -353.680          32.000                                                                  
G32                     53530.404         192.087          35.000                       29977.403         143.269          24.000  
R 1                                                        21.000  
R 2                                                        29.000  
R 8                                                        21.000  
R12                                                        24.000  
E 2                    -58321.787        -185.770          28.000                      -26686.304        -137.077          23.000  
E 5                     96023.053        2454.214          20.000                                                                  
E 8                   -484050.855       -1636.281          28.000                     -264924.364       -1221.799          18.000  
E25                    513979.482        2042.589          25.000                      245710.624        1529.097          22.000  
E30                   -507793.062       -2330.951          18.000                     -157159.533       -1738.174          17.000  
J 2                    190473.567         605.143          30.000                       99968.818         453.250          26.000  
C 6                   -141612.723        -501.065          30.000                                                                                                                                  
C 9                   -154234.789        -588.301          23.000                                                                                                                                  
C10                   -125950.415       -1200.190          21.000                                                                                                                                  
C14                   -464022.279       -1501.576          26.000                                                                                                                                  
C16                   -162718.077        -517.693          27.000                                                                                                                                  
C21                    667892.915        2684.170          20.000                                                                                                                                  
C24                   -369776.277       -1463.905          29.000                                                                                     -123869.473       -1102.773          19.000  
C26                    197554.453         635.859          35.000                                                                                       69686.812         478.738          22.000  
C29                    -44609.478        -689.197          13.000                                                                                                                                  
C33                   -649193.454          -0.000          13.000                                                                                                                                  
> 2022  1 25  3 15 29.0000000  0 26                     
G10                   1086850.318        3496.306          27.000                                                                  
G25                    875988.320        2794.693          26.000                      401314.034        2092.303          28.000  
G26                   -813272.193       -2567.849          23.000                     -312007.428       -1917.935          23.000  
G29                   -492766.818       -1568.139          27.000                                                                  
G31                   -120128.975        -353.542          30.000                                                                  
G32                     54524.246         190.722          32.000                       30534.337         143.241          24.000  
R 1                                                        24.000  
R 2                                                        28.000  
R 8                                                        21.000  
R12                                                        26.000  
E 2                    -59297.239        -184.922          30.000                      -27226.612        -136.617          23.000  
E 5                    108909.526        2452.863          16.000                                                                  
E 8                   -492652.462       -1635.641          26.000                     -269720.226       -1220.667          20.000  
E25                    524706.432        2041.491          26.000                      251686.503        1520.977          22.000  
E30                   -520042.283       -2331.585          18.000                     -163975.266       -1737.902          16.000  
J 2                    193658.960         606.175          29.000                      101735.756         453.089          24.000  
C 6                   -144242.096        -503.436          29.000                                                                                                                                  
C 9                   -157295.847        -584.913          30.000                                                                                                                                  
C10                   -132199.499       -1201.266          22.000                                                                                                                                  
C14                   -471824.304       -1499.051          24.000                                                                                                                                  
C16                   -165415.376        -515.882          33.000                                                                                                                                  
C21                    681860.397        2680.918          24.000                                                                                                                                  
C24                   -377400.984       -1464.651          30.000                                                                                     -128202.289       -1103.102          20.000  
C26                    200856.801         636.082          33.000                                                                                       71554.542         474.096          22.000  
C29                    -48189.325        -687.198          12.000                                                                                                                                  
C33                   -663157.230          -0.000          11.000                                                                                                                                  
> 2022  1 25  3 15 30.0000000  0 27                     
G10                   1105227.766        3498.095          23.000                                                                  
G25                    890674.869        2800.329          34.000                      409510.778        2092.182          30.000  
G26                   -826763.198       -2566.863          24.000                                                                  
G29                   -501002.658       -1566.936          25.000                                                                  
G31                   -121996.730        -356.232          36.000                                                                  
G32                     55517.393         191.845          36.000                       31094.394         147.574          24.000  
R 1                                                        25.000  
R 2                                                        34.000  
R 8                                                        24.000  
R12                                                        29.000  
E 2                    -60269.611        -184.210          31.000                      -27774.016        -135.906          24.000  
E 5                    121806.330        2456.107          18.000                                                                  
E 8                   -501251.629       -1635.810          34.000                     -274514.833       -1219.814          22.000  
E25                    535435.454        2042.096          32.000                      257666.708        1524.489          21.000  
E30                   -532286.108       -2327.928          19.000                     -170789.325       -1735.162          16.000  
J 2                    196832.681         605.329          30.000                      103508.334         454.678          23.000  
C 6                   -146855.933        -501.039          25.000                                                                                                                                  
C 9                   -160333.515        -584.014          27.000                                                                                                                                  
C10                   -138460.104       -1202.772          22.000                                                                                                                                  
C13                     46075.429        1833.637          18.000                                                                                                                                  
C14                   -479637.459       -1501.021          23.000                                                                                                                                  
C16                   -168108.874        -518.751          28.000                                                                                                                                  
C21                    695820.782        2681.033          24.000                                                                                                                                  
C24                   -385024.815       -1464.445          28.000                                                                                     -132539.254       -1103.683          19.000  
C26                    204167.886         634.679          25.000                                                                                       73429.948         478.964          21.000  
C29                    -51763.831        -685.592          16.000                                                                                                                                  
C33                   -677132.067          -0.000          11.000                                                                                                                                  
> 2022  1 25  3 15 31.0000000  0 21                     
G10                   1123607.275        3497.120          23.000                                                                  
G25                    905367.290        2796.539          31.000                      417711.272        2090.854          28.000  
G26                   -840245.825       -2565.511          25.000                     -327031.878       -1914.394          17.000  
G29                   -509239.732       -1568.716          24.000                                                                  
G31                   -123885.491        -358.072          32.000                                                                  
G32                     56516.506         191.166          32.000                       31658.640         144.897          24.000  
R 1                                                        23.000  
R 2                                                        29.000  
R 8                                                        21.000  
R12                                                        29.000  
E 2                    -61241.554        -184.078          28.000                      -28317.719        -132.892          23.000  
E 8                   -509850.481       -1634.874          27.000                     -279309.668       -1220.320          23.000  
E25                    546161.211        2041.392          34.000                      263644.191        1528.102          25.000  
E30                   -544521.679       -2326.643          19.000                     -177598.587       -1735.191          15.000  
J 2                    200003.347         604.881          28.000                      105268.464         446.233          22.000  
C 6                   -149477.337        -503.447          23.000                                                                                                                                  
C 9                   -163385.385        -586.838          25.000                                                                                                                                  
C14                   -487448.669       -1498.705          31.000                                                                                                                                  
C21                    709777.900        2680.695          24.000                                                                                                                                  
C24                   -392668.551       -1468.117          25.000                                                                                     -136868.818       -1104.895          22.000  
C26                    207467.515         633.610          30.000                                                                                       75298.865         472.867          19.000  
> 2022  1 25  3 15 32.0000000  0 22                     
G10                   1141980.178        3499.290          26.000                                                                  
G25                    920079.181        2799.929          30.000                      425914.551        2090.146          28.000  
G26                   -853723.058       -2562.858          22.000                     -334541.135       -1912.260          19.000  
G29                   -517476.950       -1566.523          31.000                                                                  
G31                   -125754.118        -355.403          30.000                                                                  
G32                     57532.875         192.819          33.000                       32219.339         140.168          23.000  
R 1                                                        19.000  
R 2                                                        27.000  
R 8                                                        21.000  
R12                                                        31.000  
E 2                    -62205.315        -182.275          27.000                      -28853.307        -138.964          21.000  
E 5                     24549.685        2457.417          24.000                                                                  
E 8                   -518443.216       -1633.844          25.000                     -284098.860       -1218.160          21.000  
E25                    556896.791        2042.904          30.000                      269631.603        1528.993          22.000  
E30                   -556744.285       -2325.137          16.000                     -184409.783       -1736.738          14.000  
J 2                    203180.810         604.889          30.000                      107039.667         451.792          21.000  
C 6                   -152107.813        -505.062          25.000                                                                                                                                  
C 9                   -166440.003        -586.438          27.000                                                                                                                                  
C14                   -495251.820       -1498.126          26.000                                                                                                                                  
C21                    723742.804        2682.405          24.000                                                                                                                                  
C24                   -400306.932       -1465.830          23.000                                                                                     -141205.117       -1103.076          19.000  
C26                    210771.424         634.079          28.000                                                                                       77164.675         477.876          20.000  
> 2022  1 25  3 15 33.0000000  0 22                     
G10                   1160371.633        3500.031          25.000                                                                  
G25                    934796.247        2799.673          30.000                      434117.093        2092.239          23.000  
G26                   -867188.971       -2561.801          22.000                     -342044.379       -1910.904          17.000  
G29                   -525701.114       -1561.770          21.000                                                                  
G31                   -127624.976        -354.729          26.000                                                                  
G32                     58548.324         193.574          25.000                       32784.924         145.635          19.000  
R 1                                                        18.000  
R 2                                                        23.000  
R 8                                                        19.000  
R12                                                        26.000  
E 2                    -63161.343        -180.200          22.000                      -29388.904        -135.463          17.000  
E 5                     37468.538        2458.864          21.000                                                                  
E 8                   -527030.247       -1631.772          22.000                     -288890.084       -1215.164          18.000  
E25                    567636.717        2043.954          26.000                      275621.677        1526.209          19.000  
E30                   -568978.332       -2329.878          19.000                     -191228.338       -1737.772          15.000  
J 2                    206354.498         604.209          21.000                      108813.446         450.457          19.000  
C 6                   -154742.818        -504.645          23.000                                                                                                                                  
C 9                   -169487.349        -584.364          22.000                                                                                                                                  
C14                   -503059.097       -1499.831          24.000                                                                                                                                  
C21                    737700.456        2681.083          21.000                                                                                                                                  
C24                   -407932.760       -1463.125          25.000                                                                                                                                  
C26                    214088.237         637.115          29.000                                                                                       79048.871         483.152          17.000  
> 2022  1 25  3 15 34.0000000  0 22                     
G10                   1178762.525        3498.226          29.000                                                                  
G25                    949502.172        2799.877          28.000                      442324.589        2090.218          21.000  
G26                   -880654.759       -2561.697          26.000                     -349546.094       -1913.367          18.000  
G29                   -533904.505       -1562.727          28.000                                                                  
G31                   -129489.879        -356.978          30.000                                                                  
G32                     59561.077         189.811          39.000                       33352.311         143.464          21.000  
R 1                                                        22.000  
R 2                                                        28.000  
R 8                                                        18.000  
R12                                                        31.000  
E 2                    -64120.226        -184.715          26.000                      -29933.491        -140.235          19.000  
E 5                     50385.780        2456.470          18.000                                                                  
E 8                   -535616.815       -1635.879          23.000                     -293666.394       -1217.234          17.000  
E25                    578372.730        2041.629          24.000                      281608.847        1525.666          17.000  
E30                   -581205.602       -2326.384          20.000                     -198047.421       -1735.438          15.000  
J 2                    209530.781         604.103          33.000                      110586.808         452.733          20.000  
C 6                   -157371.229        -505.525          24.000                                                                                                                                  
C 9                   -172532.174        -585.468          22.000                                                                                                                                  
C14                   -510865.160       -1500.810          29.000                                                                                                                                  
C21                    751668.237        2684.333          23.000                                                                                                                                  
C24                   -415550.844       -1461.611          32.000                                                                                     -149833.557       -1102.811          22.000  
C26                    217398.487         633.934          28.000                                                                                       80940.632         481.162          18.000  
> 2022  1 25  3 15 35.0000000  0 23                     
G10                   1197157.347        3504.387          26.000                                                                  
G25                    964206.099        2797.919          24.000                      450524.621        2094.313          19.000  
G26                   -894115.593       -2561.010          30.000                     -357051.887       -1915.412          25.000  
G29                   -542108.134       -1560.800          23.000                                                                  
G31                   -131369.323        -355.878          24.000                                                                  
G32                     60565.880         190.967          35.000                       33918.883         141.931          25.000  
R 1                                                        29.000  
R 2                                                        28.000  
R 8                                                        20.000  
R12                                                        24.000  
E 2                    -65085.461        -181.230          31.000                      -30475.001        -137.207          22.000  
E 5                     63284.321        2455.246          18.000                                                                  
E 8                   -544213.197       -1632.078          23.000                     -298457.643       -1217.824          20.000  
E25                    589106.505        2045.715          24.000                      287591.777        1524.845          18.000  
E30                   -593422.874       -2325.964          25.000                     -204857.997       -1736.264          22.000  
J 2                    212711.311         604.498          28.000                      112355.094         452.210          23.000  
C 6                   -160009.634        -503.692          23.000                                                                                                                                  
C 9                   -175589.338        -586.294          20.000                                                                                                                                  
C10                     -9902.242       -1196.817          25.000                                                                                                                                  
C14                   -518677.755       -1498.496          24.000                                                                                                                                  
C21                    765650.815        2683.662          31.000                                                                                                                                  
C24                   -423156.442       -1460.150          35.000                                                                                     -154154.297       -1104.162          22.000  
C26                    220703.293         636.584          29.000                                                                                       82814.554         477.299          19.000  
> 2022  1 25  3 15 36.0000000  0 23                     
G10                   1215559.315        3499.345          22.000                                                                  
G25                    978913.819        2799.166          26.000                      458738.991        2092.390          18.000  
G26                   -907574.400       -2559.739          26.000                     -364556.904       -1911.910          23.000  
G29                   -550321.115       -1562.635          24.000                                                                  
G31                   -133230.905        -352.199          30.000                                                                  
G32                     61578.866         194.791          30.000                       34484.640         145.718          18.000  
R 1                                                        20.000  
R 2                                                        23.000  
R 8                                                        20.000  
R12                                                        27.000  
E 2                                                                                    -31001.568        -133.493          17.000  
E 5                     76183.062        2454.895          18.000                                                                  
E 8                   -552797.456       -1634.266          26.000                     -303234.589       -1217.518          17.000  
E25                    599846.890        2041.212          18.000                      293571.921        1522.079          15.000  
E30                   -605640.856       -2324.425          28.000                     -211671.202       -1734.516          18.000  
J 2                    215887.146         604.124          27.000                      114121.949         449.354          18.000  
C 6                   -162634.643        -504.249          20.000                                                                                                                                  
C 9                   -178645.252        -587.055          18.000                                                                                                                                  
C10                    -16127.830       -1195.012          22.000                                                                                                                                  
C14                   -526473.702       -1497.896          21.000                                                                                                                                  
C21                    779630.684        2685.554          23.000                                                                                                                                  
C24                   -430763.748       -1459.932          38.000                                                                                     -158472.780       -1097.160          21.000  
C26                    224013.107         633.593          25.000                                                                                       84689.855         479.729          17.000  
> 2022  1 25  3 15 37.0000000  0 24                     
G10                   1233947.850        3497.515          24.000                                                                  
G25                    993628.593        2791.131          33.000                      466936.263        2083.290          25.000  
G26                   -921040.019       -2562.228          22.000                     -372050.111       -1911.021          20.000  
G29                   -558525.792       -1561.441          23.000                                                                  
G31                   -135089.081        -358.749          33.000                                                                  
G32                     62617.468         189.894          38.000                       35051.921         140.649          21.000  
R 1                                                        22.000  
R 2                                                        25.000  
R 8                                                        21.000  
R12                                                        25.000  
E 2                    -66963.221        -182.363          31.000                      -31527.080        -135.395          22.000  
E 5                     89096.381        2459.699          16.000                                                                  
E 8                   -561376.148       -1634.628          29.000                     -308007.907       -1218.838          20.000  
E25                    610597.307        2039.643          32.000                      299550.821        1524.375          22.000  
E30                   -617849.971       -2323.380          24.000                     -218478.964       -1732.767          17.000  
J 2                    219083.219         601.879          33.000                      115894.940         450.571          19.000  
C 6                   -165259.683        -508.059          28.000                                                                                                                                  
C 9                   -181687.582        -584.233          23.000                                                                                                                                  
C10                    -22363.688       -1198.825          20.000                                                                                                                                  
C14                   -534271.287       -1497.527          23.000                                                                                                                                  
C21                    793629.198        2690.831          25.000                                                                                                                                  
C24                   -438348.884       -1460.220          26.000                                                                                     -162798.634       -1097.958          21.000  
C26                    227337.044         635.788          34.000                                                                                       86575.127         477.957          21.000  
C35                    -76525.117       -2136.374          13.000                                                                                                                                  
> 2022  1 25  3 15 38.0000000  0 23                     
G10                   1252336.427        3498.507          27.000                                                                  
G25                   1008343.177        2794.399          36.000                      475140.269        2086.640          28.000  
G26                   -934497.139       -2560.404          21.000                     -379549.782       -1910.442          19.000  
G29                   -566724.821       -1564.132          27.000                                                                  
G31                   -136941.653        -359.026          35.000                                                                  
G32                     63647.334         189.776          38.000                       35617.220         141.191          24.000  
R 1                                                        24.000  
R 2                                                        24.000  
R 8                                                        20.000  
R12                                                        26.000  
E 2                    -67916.651        -182.297          30.000                      -32047.255        -136.616          23.000  
E 5                    102031.931        2460.562          18.000                                                                  
E 8                   -569957.237       -1634.256          31.000                     -312797.493       -1219.872          21.000  
E25                    621335.488        2039.847          29.000                      305539.905        1521.256          26.000  
E30                   -630056.046       -2321.688          20.000                     -225285.080       -1733.188          17.000  
J 2                    222277.794         602.789          33.000                      117671.254         447.906          24.000  
C 6                   -167882.974        -506.530          29.000                                                                                                                                  
C 9                   -184731.493        -585.878          26.000                                                                                                                                  
C14                   -542057.050       -1494.307          24.000                                                                                                                                  
C21                    807622.938        2683.613          25.000                                                                                                                                  
C24                   -445949.422       -1458.735          25.000                                                                                     -167107.586       -1097.431          19.000  
C26                    230666.648         634.733          32.000                                                                                       88455.750         477.240          24.000  
C35                    -87658.165       -2140.653          16.000                                                                                                                                  
> 2022  1 25  3 15 39.0000000  0 23                     
G10                   1270730.991        3501.038          28.000                                                                  
G25                   1023062.743        2791.969          34.000                      483326.921        2084.209          25.000  
G26                   -947950.779       -2559.974          23.000                     -387065.475       -1915.994          18.000  
G29                   -574927.684       -1560.100          25.000                                                                  
G31                   -138806.606        -354.818          32.000                                                                  
G32                     64674.682         189.569          33.000                       36203.959         151.112          23.000  
R 1                                                        20.000  
R 2                                                        24.000  
R 8                                                        17.000  
R12                                                        25.000  
E 2                    -68866.779        -182.111          28.000                      -32565.951        -133.993          22.000  
E 5                    114961.370        2459.865          16.000                                                                  
E 8                   -578537.645       -1633.948          31.000                     -317571.306       -1212.562          22.000  
E25                    632076.875        2039.993          29.000                      311526.726        1520.694          25.000  
E30                   -642267.024       -2323.303          21.000                     -232087.726       -1733.633          17.000  
J 2                    225464.008         601.435          29.000                      119456.153         451.369          21.000  
C 6                   -170513.795        -504.177          26.000                                                                                                                                  
C 9                   -187777.368        -587.254          25.000                                                                                                                                  
C14                   -549826.867       -1492.222          26.000                                                                                                                                  
C21                    821603.603        2688.932          23.000                                                                                                                                  
C24                   -453551.197       -1458.717          26.000                                                                                     -171420.105       -1097.526          18.000  
C26                    233981.208         633.013          27.000                                                                                       90348.696         479.228          23.000  
C35                    -98814.043       -2144.069          13.000                                                                                                                                  
> 2022  1 25  3 15 40.0000000  0 23                     
G10                   1289145.723        3501.657          28.000                                                                  
G25                   1037770.822        2803.537          23.000                      491538.063        2091.109          23.000  
G26                   -961391.075       -2556.651          31.000                     -394566.964       -1910.106          24.000  
G29                   -583139.750       -1563.524          27.000                                                                  
G31                   -140666.106        -350.997          22.000                                                                  
G32                     65693.157         198.184          35.000                       36771.444         141.603          21.000  
R 1                                                        21.000  
R 2                                                        20.000  
R 8                                                        21.000  
R12                                                        32.000  
E 2                    -69822.992        -180.958          30.000                      -33087.765        -131.709          20.000  
E 5                    127882.503        2455.974          15.000                                                                  
E 8                   -587118.630       -1631.253          23.000                     -322350.656       -1218.522          19.000  
E25                    642807.840        2043.167          25.000                      317502.512        1523.742          17.000  
E30                   -654481.288       -2322.135          28.000                     -238893.381       -1732.441          19.000  
J 2                    228629.345         604.410          29.000                      121225.038         451.484          21.000  
C 6                   -173137.656        -503.360          25.000                                                                                                                                  
C 9                   -190834.322        -585.739          20.000                                                                                                                                  
C14                   -557598.817       -1494.495          27.000                                                                                                                                  
C21                    835603.063        2688.563          24.000                                                                                                                                  
C24                   -461148.686       -1457.981          34.000                                                                                     -175728.468       -1098.323          23.000  
C26                    237271.300         636.028          29.000                                                                                       92218.579         477.672          17.000  
C35                   -109943.345       -2126.337          14.000                                                                                                                                  
> 2022  1 25  3 15 41.0000000  0 24                     
G10                   1307550.141        3500.228          25.000                                                                  
G25                   1052503.023        2792.185          36.000                      499738.791        2086.679          30.000  
G26                   -974832.771       -2558.999          23.000                     -402039.856       -1904.218          21.000  
G29                   -591318.030       -1558.824          27.000                                                                  
G31                   -142516.080        -353.673          29.000                                                                  
G32                     66752.488         192.239          36.000                       37341.437         142.447          24.000  
R 1                                                        22.000  
R 2                                                        19.000  
R 8                                                        18.000  
R12                                                        31.000  
E 2                    -70750.827        -179.004          29.000                      -33588.322        -129.675          22.000  
E 5                    140802.914        2461.406          12.000                                                                  
E 8                   -595682.107       -1632.986          25.000                     -327128.862       -1217.676          18.000  
E25                    653565.153        2041.633          29.000                      323505.831        1530.053          27.000  
E30                   -666684.243       -2322.506          20.000                     -245695.344       -1732.747          18.000  
J 2                    231849.338         608.440          30.000                      123017.901         452.993          23.000  
C 6                   -175757.862        -506.444          28.000                                                                                                                                  
C 9                   -193882.827        -588.253          20.000                                                                                                                                  
C10                     -9851.276       -1190.444          20.000                                                                                                                                  
C14                   -565374.853       -1493.816          29.000                                                                                                                                  
C21                    849614.899        2689.807          23.000                                                                                                                                  
C24                   -468746.871       -1460.122          25.000                                                                                     -180031.002       -1095.156          21.000  
C26                    240598.051         630.600          30.000                                                                                       94103.057         478.896          24.000  
C35                   -121026.468       -2128.640          12.000                                                                                                                                  
> 2022  1 25  3 15 42.0000000  0 23                     
G10                   1325942.868        3499.071          28.000                                                                  
G25                   1067215.456        2793.464          35.000                      507953.304        2087.732          29.000  
G26                   -988279.420       -2557.010          23.000                     -409525.330       -1908.264          17.000  
G29                   -599510.853       -1562.528          28.000                                                                  
G31                   -144366.900        -354.148          27.000                                                                  
G32                     67799.663         196.357          37.000                       37936.898         145.766          23.000  
R 1                                                        19.000  
R 2                                                        18.000  
R 8                                                        19.000  
R12                                                        30.000  
E 2                    -71685.694        -177.984          27.000                      -34104.475        -135.087          22.000  
E 5                    153736.872        2461.205          13.000                                                                  
E 8                   -604253.211       -1632.411          24.000                     -331904.673       -1218.299          19.000  
E25                    664316.247        2042.890          34.000                      329500.019        1522.581          28.000  
E30                   -678900.395       -2324.134          21.000                     -252497.223       -1732.417          17.000  
J 2                    235051.624         606.857          29.000                      124777.524         447.021          20.000  
C 6                   -178383.346        -506.671          27.000                                                                                                                                  
C 9                   -196946.355        -587.108          18.000                                                                                                                                  
C14                   -573153.901       -1493.913          25.000                                                                                                                                  
C21                    863625.944        2691.553          25.000                                                                                                                                  
C24                   -476354.158       -1461.365          22.000                                                                                     -184347.151       -1099.205          19.000  
C26                    243923.205         635.980          32.000                                                                                       95988.897         477.301          22.000  
C35                   -132123.620           0.027          14.000                                                                                                                                  
> 2022  1 25  3 15 43.0000000  0 23                     
G10                   1344335.094        3496.846          32.000                                                                  
G25                   1081945.715        2797.861          37.000                      516178.527        2092.198          27.000  
G26                  -1001712.210       -2553.552          24.000                     -417018.626       -1909.266          17.000  
G29                   -607713.449       -1560.166          25.000                                                                  
G31                   -146222.123        -352.969          24.000                                                                  
G32                     68852.656         199.281          32.000                       38524.695         149.705          21.000  
R 1                                                        20.000  
R 2                                                        19.000  
R 8                                                        21.000  
R12                                                        26.000  
E 2                    -72621.445        -177.099          28.000                      -34651.318        -138.483          19.000  
E 5                    166676.920        2463.178          12.000                                                                  
E 8                   -612817.941       -1629.423          20.000                     -336682.163       -1215.622          17.000  
E25                    675067.180        2043.977          30.000                      335493.072        1521.526          28.000  
E30                   -691104.957       -2320.677          21.000                     -259294.536       -1731.154          17.000  
J 2                    238245.952         605.265          28.000                      126560.298         454.801          21.000  
C 6                   -181003.943        -505.987          28.000                                                                                                                                  
C 9                   -200004.904        -586.838          15.000                                                                                                                                  
C14                   -580934.998       -1493.880          22.000                                                                                                                                  
C21                    877644.509        2691.963          24.000                                                                                                                                  
C24                   -483964.734       -1460.999          21.000                                                                                                                                  
C26                    247248.687         637.951          33.000                                                                                       97866.304         478.610          24.000  
C35                   -143221.433           0.027          14.000                                                                                                                                  
> 2022  1 25  3 15 44.0000000  0 23                     
G10                   1362725.707        3499.810          32.000                                                                  
G25                   1096677.937        2798.496          38.000                      524379.560        2088.211          25.000  
G26                  -1015136.496       -2554.619          21.000                     -424513.362       -1909.748          17.000  
G29                   -615899.729       -1561.573          29.000                                                                  
G31                   -148072.414        -353.126          29.000                                                                  
G32                     69912.741         198.057          34.000                       39129.395         154.832          22.000  
R 1                                                        20.000  
R 2                                                        18.000  
R 8                                                        20.000  
R12                                                        26.000  
E 2                    -73552.111        -177.113          27.000                      -35173.558        -132.305          21.000  
E 5                    179622.065        2463.108          13.000                                                                  
E 8                   -621385.284       -1631.022          24.000                     -341448.959       -1215.669          18.000  
E25                    685817.824        2043.818          32.000                      341484.243        1522.940          28.000  
E30                   -703293.810       -2317.288          22.000                     -266090.029       -1732.192          16.000  
J 2                    241444.313         607.587          29.000                      128328.514         453.964          21.000  
C 6                   -183627.434        -501.978          28.000                                                                                                                                  
C 9                   -203053.377        -583.091          17.000                                                                                                                                  
C14                   -588715.356       -1495.638          19.000                                                                                                                                  
C21                    891661.908        2693.464          24.000                                                                                                                                  
C24                   -491565.131       -1458.176          24.000                                                                                     -192972.965       -1095.240          20.000  
C26                    250575.632         638.301          31.000                                                                                       99754.962         480.081          24.000  
C35                   -154328.668           0.027          14.000                                                                                                                                  
> 2022  1 25  3 15 45.0000000  0 24                     
G10                   1381127.414        3502.046          25.000                                                                  
G25                   1111412.088        2802.546          37.000                      532592.340        2089.856          28.000  
G26                  -1028573.180       -2558.171          21.000                     -431997.422       -1906.725          17.000  
G29                   -624087.988       -1556.315          28.000                                                                  
G31                   -149913.729        -348.901          32.000                                                                  
G32                     70958.039         199.085          36.000                       39722.608         148.258          24.000  
R 1                                                        20.000  
R 2                                                        17.000  
R 8                                                        17.000  
R12                                                        27.000  
E 2                    -74478.613        -176.677          28.000                      -35684.676        -126.256          23.000  
E 5                    192567.961        2463.707          11.000                                                                  
E 8                   -629956.975       -1630.459          29.000                     -346212.527       -1215.488          19.000  
E25                    696568.101        2045.380          32.000                      347477.043        1524.288          27.000  
E30                   -715483.055       -2321.943          19.000                     -272890.632       -1733.414          16.000  
J 2                    244629.970         603.971          29.000                      130111.722         453.783          23.000  
C 6                   -186253.461        -505.800          27.000                                                                                                                                  
C 9                   -206091.426        -583.838          19.000                                                                                                                                  
C10                     -9874.096       -1193.235          19.000                                                                                                                                  
C14                   -596491.510       -1492.292          19.000                                                                                                                                  
C21                    905672.083        2689.671          25.000                                                                                                                                  
C24                   -499137.865       -1453.645          22.000                                                                                     -197289.234       -1102.155          20.000  
C26                    253904.373         639.790          30.000                                                                                      101647.848         481.366          25.000  
C35                   -165438.331           0.027          13.000                                                                                                                                  
> 2022  1 25  3 15 46.0000000  0 24                     
G10                   1399533.688        3505.061          26.000                                                                  
G25                   1126154.585        2801.890          37.000                      540811.763        2089.385          27.000  
G26                  -1042014.999       -2557.293          24.000                     -439472.550       -1902.537          17.000  
G29                   -632263.284       -1558.155          26.000                                                                  
G31                   -151756.062        -352.743          28.000                                                                  
G32                     72020.407         200.977          36.000                       40311.894         150.673          24.000  
R 1                                                        19.000  
R 2                                                        17.000  
R 8                                                        17.000  
R12                                                        33.000  
E 2                    -75402.936        -175.092          29.000                      -36199.644        -130.721          24.000  
E 5                    205515.954        2464.087          10.000                                                                  
E 8                   -638521.464       -1629.445          27.000                     -350985.150       -1215.819          20.000  
E25                    707325.479        2046.865          35.000                      353468.482        1525.477          27.000  
E30                   -727681.841       -2318.776          23.000                     -279693.593       -1732.215          17.000  
J 2                    247811.465         607.591          30.000                      131884.692         454.048          22.000  
C 6                   -188880.032        -504.994          27.000                                                                                                                                  
C 9                   -209130.155        -583.461          18.000                                                                                                                                  
C10                    -16087.855       -1195.630          19.000                                                                                                                                  
C14                   -604267.182       -1493.304          22.000                                                                                                                                  
C21                    919679.746        2690.386          23.000                                                                                                                                  
C24                   -506714.436       -1457.055          19.000                                                                                     -201615.843       -1102.793          16.000  
C26                    257236.044         639.288          31.000                                                                                      103544.625         483.084          23.000  
C35                   -176547.813           0.027          15.000                                                                                                                                  
> 2022  1 25  3 15 47.0000000  0 23                     
G10                   1417951.269        3504.001          23.000                                                                  
G25                   1140879.729        2802.566          38.000                      549035.713        2095.817          23.000  
G26                  -1055461.104       -2557.964          24.000                     -446954.466       -1904.602          18.000  
G29                   -640444.597       -1559.534          30.000                                                                  
G31                   -153602.356        -349.524          24.000                                                                  
G32                     73076.526         201.898          34.000                       40900.885         150.234          21.000  
R 1                                                        18.000  
R 2                                                        17.000  
R 8                                                        17.000  
R12                                                        31.000  
E 2                    -76328.283        -175.146          28.000                      -36712.400        -131.102          23.000  
E 5                    218463.588        2463.739          11.000                                                                  
E 8                   -647087.146       -1629.646          22.000                     -355767.883       -1218.813          17.000  
E25                    718081.749        2046.951          35.000                      359461.982        1525.462          26.000  
E30                   -739853.139       -2316.618          26.000                     -286490.434       -1729.962          15.000  
J 2                    250991.527         605.304          27.000                      133657.215         452.394          20.000  
C 6                   -191495.816        -501.810          28.000                                                                                                                                  
C 9                   -212171.455        -583.516          17.000                                                                                                                                  
C14                   -612039.836       -1492.310          18.000                                                                                                                                  
C21                    933686.248        2690.745          24.000                                                                                                                                  
C24                   -514296.753       -1455.654          20.000                                                                                     -205939.688       -1100.918          17.000  
C26                    260564.031         639.635          30.000                                                                                      105438.355         484.014          21.000  
C35                   -187648.955           0.027          15.000                                                                                                                                  
> 2022  1 25  3 15 48.0000000  0 23                     
G10                   1436368.194        3503.782          22.000                                                                  
G25                   1155617.060        2802.870          36.000                      557257.433        2095.075          25.000  
G26                  -1068894.381       -2554.544          29.000                     -454439.375       -1908.376          19.000  
G29                   -648628.938       -1559.844          27.000                                                                  
G31                   -155450.572        -354.152          24.000                                                                  
G32                     74136.455         200.448          35.000                       41494.024         152.938          23.000  
R 1                                                        19.000  
R 2                                                        16.000  
R 8                                                        18.000  
R12                                                        30.000  
E 2                    -77253.735        -177.613          28.000                      -37226.483        -133.573          23.000  
E 5                    231411.297        2464.473          12.000                                                                  
E 8                   -655652.968       -1631.067          23.000                     -360552.244       -1219.565          17.000  
E25                    728838.455        2046.184          32.000                      365444.118        1524.670          26.000  
E30                   -752030.329       -2319.884          27.000                     -293276.692       -1728.670          17.000  
J 2                    254187.041         609.596          30.000                      135433.902         451.269          23.000  
C 6                   -194110.454        -503.754          28.000                                                                                                                                  
C 9                   -215198.464        -581.711          16.000                                                                                                                                  
C14                   -619812.848       -1491.949          18.000                                                                                                                                  
C21                    947697.025        2688.114          28.000                                                                                                                                  
C24                   -521874.462       -1453.503          24.000                                                                                     -210258.233       -1097.994          21.000  
C26                    263895.795         636.658          31.000                                                                                      107328.516         480.971          23.000  
C35                   -198757.424           0.027          14.000                                                                                                                                  
> 2022  1 25  3 15 49.0000000  0 23                     
G10                   1454776.155        3501.961          28.000                                                                  
G25                   1170327.229        2805.698          31.000                      565470.153        2095.464          23.000  
G26                  -1082303.310       -2551.272          26.000                     -461925.020       -1907.625          19.000  
G29                   -656812.763       -1555.416          25.000                                                                  
G31                   -157302.588        -350.718          21.000                                                                  
G32                     75202.608         203.486          28.000                       42103.494         158.098          18.000  
R 1                                                        20.000  
R 2                                                        17.000  
R 8                                                        16.000  
R12                                                        30.000  
E 2                    -78184.692        -173.815          27.000                      -37736.652        -127.921          19.000  
E 5                    244362.784        2465.092          11.000                                                                  
E 8                   -664223.846       -1629.311          20.000                     -365327.758       -1216.297          15.000  
E25                    739596.440        2049.909          29.000                      371426.376        1527.307          20.000  
E30                   -764215.414       -2319.766          26.000                     -300064.913       -1727.655          21.000  
J 2                    257386.020         611.534          24.000                      137189.746         449.119          18.000  
C 6                   -196737.073        -503.948          30.000                                                                                                                                  
C 9                   -218238.981        -584.326          17.000                                                                                                                                  
C14                   -627583.496       -1493.106          17.000                                                                                                                                  
C21                    961706.263        2693.298          27.000                                                                                                                                  
C24                   -529448.386       -1455.546          23.000                                                                                     -214558.722       -1096.621          17.000  
C26                    267224.003         641.708          34.000                                                                                      109216.912         484.761          22.000  
C35                   -209861.309           0.027          14.000                                                                                                                                  
> 2022  1 25  3 15 50.0000000  0 24                     
G10                   1473176.530        3500.177          26.000                                                                  
G25                   1185059.689        2808.841          31.000                      573674.350        2094.840          20.000  
G26                  -1095708.479       -2554.169          27.000                     -469419.929       -1913.409          19.000  
G29                   -664986.134       -1551.406          25.000                                                                  
G31                   -159143.435        -349.588          19.000                                                                  
G32                     76271.770         207.331          28.000                       42717.767         155.226          18.000  
R 1                                                        19.000  
R 2                                                        17.000  
R 8                                                        13.000  
R12                                                        31.000  
E 2                    -79104.911        -174.766          24.000                      -38240.272        -128.497          18.000  
E 5                    257320.503        2466.171          12.000                                                                  
E 8                   -672791.824       -1628.395          17.000                     -370103.306       -1215.228          14.000  
E25                    750349.199        2048.061          28.000                      377425.144        1531.503          20.000  
E30                   -776399.196       -2321.560          30.000                     -306835.126       -1725.786          20.000  
J 2                    260590.056         612.557          23.000                      138967.300         454.950          18.000  
C 6                   -199369.553        -503.445          29.000                                                                                                                                  
C 9                   -221275.998        -582.641          17.000                                                                                                                                  
C10                     -9859.284       -1195.908          22.000                                                                                                                                  
C14                   -635349.157       -1490.678          17.000                                                                                                                                  
C21                    975713.391        2690.864          25.000                                                                                                                                  
C24                   -537027.513       -1458.115          29.000                                                                                     -218867.478       -1099.816          18.000  
C26                    270551.724         640.376          32.000                                                                                      111098.947         482.246          22.000  
C35                   -220964.830           0.027          15.000                                                                                                                                  
> 2022  1 25  3 15 51.0000000  0 24                     
G10                   1491557.766        3498.991          23.000                                                                  
G25                   1199811.806        2812.054          28.000                      581902.620        2096.499          21.000  
G26                  -1109124.755       -2556.482          30.000                     -476916.699       -1908.995          20.000  
G29                   -673156.512       -1554.324          24.000                                                                  
G31                   -160983.825        -352.570          19.000                                                                  
G32                     77343.032         203.556          24.000                       43316.980         152.291          18.000  
R 1                                                        21.000  
R 2                                                        15.000  
R 8                                                        16.000  
R12                                                        31.000  
E 2                    -80026.955        -175.816          28.000                      -38760.198        -131.871          19.000  
E 5                    270284.535        2467.512          12.000                                                                  
E 8                   -681346.277       -1625.553          17.000                     -374881.369       -1217.456          13.000  
E25                    761104.437        2049.665          26.000                      383423.856        1530.467          23.000  
E30                   -788589.398       -2322.555          29.000                     -313624.971       -1734.452          20.000  
J 2                    263794.477         609.886          23.000                      140743.192         451.611          18.000  
C 6                   -202008.626        -504.525          30.000                                                                                                                                  
C 9                   -224311.119        -584.120          15.000                                                                                                                                  
C10                    -16086.878       -1198.047          20.000                                                                                                                                  
C14                   -643109.890       -1488.875          17.000                                                                                                                                  
C21                    989714.543        2688.544          28.000                                                                                                                                  
C24                   -544621.012       -1457.629          33.000                                                                                     -223177.918       -1097.735          18.000  
C26                    273881.735         641.854          35.000                                                                                      112989.212         483.232          25.000  
C35                   -232075.029           0.027          11.000                                                                                                                                  
> 2022  1 25  3 15 52.0000000  0 23                     
G10                   1509947.406        3501.884          21.000                                                                  
G25                   1214550.433        2805.717          25.000                      590115.458        2097.168          20.000  
G26                  -1122535.374       -2552.705          30.000                     -484395.457       -1903.358          20.000  
G29                   -681327.780       -1555.481          24.000                                                                  
G31                   -162834.635        -351.268          16.000                                                                  
G32                     78412.565         207.203          27.000                       43911.277         150.801          19.000  
R 1                                                        23.000  
R 2                                                        18.000  
R 8                                                        16.000  
R12                                                        31.000  
E 2                    -80955.101        -175.034          24.000                      -39285.614        -130.603          20.000  
E 5                    283254.680        2468.510          11.000                                                                  
E 8                   -689897.613       -1626.041          17.000                     -379662.888       -1219.476          14.000  
E25                    771860.873        2048.592          24.000                      389419.254        1527.525          20.000  
E30                   -800783.973       -2322.721          25.000                     -320427.722       -1739.296          19.000  
J 2                    266986.935         606.800          24.000                      142516.002         450.411          19.000  
C 6                   -204647.230        -506.048          25.000                                                                                                                                  
C 9                   -227348.304        -584.143          16.000                                                                                                                                  
C14                   -650857.950       -1489.299          13.000                                                                                                                                  
C21                   1003710.807        2689.531          26.000                                                                                                                                  
C24                   -552223.155       -1463.393          30.000                                                                                     -227486.936       -1097.963          20.000  
C26                    277209.514         641.202          32.000                                                                                      114879.627         482.146          23.000  
C35                   -243185.624           0.027          11.000                                                                                                                                  
> 2022  1 25  3 15 53.0000000  0 23                     
G10                   1528334.922        3498.373          25.000                                                                  
G25                   1229295.344        2807.680          29.000                      598330.225        2096.316          23.000  
G26                  -1135945.095       -2557.346          31.000                     -491876.743       -1910.337          22.000  
G29                   -689506.496       -1550.776          29.000                                                                  
G31                   -164682.851        -351.915          17.000                                                                  
G32                     79489.607         206.438          28.000                       44507.351         153.544          21.000  
R 1                                                        18.000  
R 2                                                        17.000  
R 8                                                        15.000  
R12                                                        30.000  
E 2                    -81879.748        -175.294          26.000                      -39802.114        -133.407          23.000  
E 5                    296228.549        2468.830          10.000                                                                  
E 8                   -698438.247       -1625.525          14.000                     -384452.014       -1220.560          15.000  
E25                    782611.517        2048.203          25.000                      395427.273        1529.729          20.000  
E30                   -812982.811       -2321.652          21.000                     -327242.181       -1734.456          20.000  
J 2                    270173.569         604.434          25.000                      144288.046         452.859          20.000  
C 6                   -207274.644        -501.743          20.000                                                                                                                                  
C 9                   -230384.475          -0.049          17.000                                                                                                                                  
C14                   -658611.543       -1488.981          16.000                                                                                                                                  
C21                   1017712.382        2690.704          35.000                                                                                                                                  
C24                   -559834.933       -1459.981          26.000                                                                                     -231808.656       -1100.289          23.000  
C26                    280521.189         640.353          26.000                                                                                      116774.121         482.264          19.000  
C35                   -254283.529           0.027          11.000                                                                                                                                  
> 2022  1 25  3 15 54.0000000  0 24                     
G10                   1546715.516        3500.071          31.000                                                                  
G25                   1244044.050        2812.995          30.000                      606545.448        2099.497          22.000  
G26                  -1149359.150       -2551.427          30.000                     -499363.623       -1906.534          21.000  
G29                   -697646.412       -1550.679          23.000                                                                  
G31                   -166527.201        -351.071          15.000                                                                  
G32                     80559.119         209.556          25.000                       45102.036         152.213          19.000  
R 1                                                        19.000  
R 2                                                        14.000  
R 8                                                        16.000  
R12                                                        23.000  
E 2                    -82804.871        -175.432          25.000                      -40317.478        -130.885          19.000  
E 5                    309203.857        2469.227           9.000                                                                  
E 8                   -706982.120       -1627.173          14.000                     -389245.369       -1222.988          11.000  
E25                    793364.542        2048.689          23.000                      401416.479        1527.265          17.000  
E30                   -825174.124       -2323.879          23.000                     -334044.927       -1734.383          17.000  
J 2                    273347.701         604.211          22.000                      146058.928         452.969          18.000  
C 6                   -209895.592        -503.248          18.000                                                                                                                                  
C 9                   -233411.468          -0.049          13.000                                                                                                                                  
C10                     -7651.396       -1199.463          22.000                                                                                                                                  
C14                   -666363.682       -1489.825          12.000                                                                                                                                  
C21                   1031701.479        2688.342          28.000                                                                                                                                  
C24                   -567435.364       -1458.503          31.000                                                                                     -236120.858       -1098.353          20.000  
C26                    283846.391         637.918          23.000                                                                                      118667.366         483.645          14.000  
C35                   -265364.712           0.027          13.000                                                                                                                                  
> 2022  1 25  3 15 55.0000000  0 23                     
G10                   1565105.803        3499.673          21.000                                                                  
G25                   1258791.143        2809.364          30.000                      614761.063        2098.945          23.000  
G26                  -1162763.218       -2553.641          28.000                     -506847.384       -1907.795          22.000  
G29                   -705800.566       -1550.334          24.000                                                                  
G31                   -168365.523        -349.122          15.000                                                                  
G32                     81637.751         204.202          27.000                       45702.703         152.998          20.000  
R 1                                                        23.000  
R 2                                                        18.000  
R 8                                                        13.000  
R12                                                        18.000  
E 2                    -83730.553        -176.011          23.000                      -40831.966        -132.202          21.000  
E 5                    322179.293        2468.581           9.000                                                                  
E 8                   -715534.746       -1628.750          14.000                                                                  
E25                    804113.755        2048.801          22.000                      407397.866        1524.054          17.000  
E30                   -837385.263       -2324.243          20.000                     -340848.734       -1734.010          18.000  
J 2                    276519.444         603.658          24.000                      147823.694         445.641          20.000  
C 6                   -212514.706        -503.724          16.000                                                                                                                                  
C 9                   -236447.978          -0.049          13.000                                                                                                                                  
C10                    -13896.791       -1197.360          19.000                                                                                                                                  
C14                   -674127.328       -1491.483          14.000                                                                                                                                  
C21                   1045716.958        2690.367          30.000                                                                                                                                  
C24                   -575026.274       -1459.499          30.000                                                                                     -240433.283       -1103.464          20.000  
C26                    287168.740          -0.009          23.000                                                                                      120565.122         485.708          14.000  
> 2022  1 25  3 15 56.0000000  0 23                     
G10                   1583494.606        3500.542          27.000                                                                  
G25                   1273547.251        2811.564          28.000                      622994.618        2099.550          19.000  
G26                  -1176162.736       -2549.945          26.000                     -514322.015       -1904.217          21.000  
G29                   -713956.156       -1552.436          25.000                                                                  
G31                   -170201.144          -0.007          19.000                                                                  
G32                     82704.934         206.940          30.000                       46298.294         155.169          20.000  
R 1                                                        21.000  
R 2                                                        15.000  
R 8                                                        14.000  
R12                                                        16.000  
E 2                    -84658.283        -175.500          26.000                      -41346.497        -130.738          20.000  
E 5                    335152.955        2468.939          11.000                                                                  
E 8                   -724097.117       -1629.355          12.000                                                                  
E25                    814864.452        2045.341          18.000                      413378.373        1526.105          13.000  
E30                   -849583.330       -2322.687          26.000                     -347644.725       -1730.654          20.000  
J 2                    279699.991         609.683          25.000                      149587.507         452.006          19.000  
C 6                   -215130.131        -500.768          13.000                                                                                                                                  
C 9                   -239494.538          -0.049          14.000                                                                                                                                  
C10                    -20117.522       -1196.331          19.000                                                                                                                                  
C14                   -681892.927          -0.009          15.000                                                                                                                                  
C21                   1059715.685        2688.514          26.000                                                                                                                                  
C24                   -582627.675       -1458.915          26.000                                                                                     -244745.080       -1099.270          25.000  
C26                    290495.688         640.967          19.000                                                                                      122476.691         488.329          13.000  
> 2022  1 25  3 15 57.0000000  0 22                     
G10                   1601881.065        3498.993          30.000                                                                  
G25                   1288291.641        2804.981          28.000                      631225.544        2096.698          20.000  
G26                  -1189568.762       -2553.599          27.000                     -521800.434       -1908.719          21.000  
G29                   -722114.379       -1554.187          27.000                                                                  
G31                   -172032.765        -347.551          15.000                                                                  
G32                     83781.102         205.678          33.000                       46895.335         153.832          21.000  
R 1                                                        21.000  
R 2                                                        17.000  
R 8                                                        17.000  
R12                                                        18.000  
E 2                    -85582.281        -175.207          29.000                      -41862.077        -132.153          22.000  
E 5                    348125.823        2468.446          10.000                                                                  
E 8                   -732663.996       -1630.497          12.000                                                                  
E25                    825602.965        2044.353          19.000                      419362.001        1523.710          16.000  
E30                   -861796.809       -2324.861          23.000                     -354436.039       -1736.618          20.000  
J 2                    282880.915         604.124          27.000                      151359.801         450.195          22.000  
C 6                   -217740.228        -501.340          15.000                                                                                                                                  
C 9                   -242550.662          -0.049          16.000                                                                                                                                  
C14                   -689656.897          -0.009          17.000                                                                                                                                  
C21                   1073698.847        2685.844          21.000                                                                                                                                  
C24                   -590223.168       -1456.810          29.000                                                                                     -249059.391       -1098.741          23.000  
C26                    293836.026         641.042          17.000                                                                                                                                  
