     3.03           OBSERVATION DATA    M: Mixed            RINEX VERSION / TYPE
Geo++ RINEX Logger  Geo++               20210912 101446 UTC PGM / RUN BY / DATE
************************************************************COMMENT
This file was generated by the Geo++ RINEX Logger App       COMMENT
for Android devices (Version 2.1.6). If you encounter       COMMENT
any issues, please send an email to android@geopp.de        COMMENT
Filtering Mode: MORE                                        COMMENT
************************************************************COMMENT
Geo++                                                       MARKER NAME
GEODETIC                                                    MARKER TYPE
Geo++               Geo++                                   OBSERVER / AGENCY
unknown             HUAWEI              ELS-AN00            REC # / TYPE / VERS
unknown             ELS-AN00                                ANT # / TYPE
 -2417110.6960  5385881.0742  2406618.4039                  APPROX POSITION XYZ
        0.0000        0.0000        0.0000                  ANTENNA: DELTA H/E/N
G    8 C1C L1C D1C S1C C5Q L5Q D5Q S5Q                      SYS / # / OBS TYPES
R    4 C1C L1C D1C S1C                                      SYS / # / OBS TYPES
E   12 C1B L1B D1B S1B C1C L1C D1C S1C C5Q L5Q D5Q S5Q      SYS / # / OBS TYPES
C    4 C2I L2I D2I S2I                                      SYS / # / OBS TYPES
J    8 C1C L1C D1C S1C C5Q L5Q D5Q S5Q                      SYS / # / OBS TYPES
  2021     9    12    10    15    4.9999867     GPS         TIME OF FIRST OBS
 24 R01  1 R02 -4 R03  5 R04  6 R05  1 R06 -4 R07  5 R08  6 GLONASS SLOT / FRQ #
    R09 -2 R10 -5 R11  0 R12 -1 R13 -2 R14 -7 R15  0 R16 -1 GLONASS SLOT / FRQ #
    R17  4 R18 -3 R19  3 R20  2 R21  4 R22 -3 R23  3 R24  2 GLONASS SLOT / FRQ #
G L1C                                                       SYS / PHASE SHIFT
G L5Q -0.25000                                              SYS / PHASE SHIFT
R L1C                                                       SYS / PHASE SHIFT
E L1B                                                       SYS / PHASE SHIFT
E L1C +0.50000                                              SYS / PHASE SHIFT
E L5Q -0.25000                                              SYS / PHASE SHIFT
C L2I                                                       SYS / PHASE SHIFT
J L1C                                                       SYS / PHASE SHIFT
J L5Q -0.25000                                              SYS / PHASE SHIFT
 C1C    0.000 C1P    0.000 C2C    0.000 C2P    0.000        GLONASS COD/PHS/BIS
                                                            END OF HEADER
> 2021  9 12 10 15  4.9999867  2  0
> 2021  9 12 10 15  4.9999867  0  6
C06  36666214.608   190930600.4561      -1479.948          24.000  
C25  21816917.063   113606412.2591       -992.467          27.000  
G10  20240772.305   106365976.1711       -540.631          27.000  
G31  22202071.226   116672671.2561        870.076          13.000  
G32  22062769.063                         -94.568          31.000  
J01  38273479.022   201128488.9301       -188.755          24.000    38273485.917   150193379.2321       -142.012          26.000  
> 2021  9 12 10 15  5.9999859  0  8
C06  36666259.577   190930831.935       -1482.766          20.000  
C25  21816867.597   113606156.793        -994.117          26.000  
C33  22233436.712   115775339.2601      -1184.594          18.000  
G10  20240633.801   106365257.008        -542.157          31.000  
G12  22187866.759   116598026.3831      -2147.418          22.000  
G31  22201656.613   116670538.206         869.229          12.000  
G32  22062552.013   115939465.5481        -92.421          35.000  
J01  38273274.264   201127418.906        -191.959          25.000    38273281.758   150192577.741        -138.940          19.000  
> 2021  9 12 10 15  6.9999849  0  7
C06  36666245.486   190930753.742       -1482.568          21.000  
C25  21816757.873   113605590.896        -996.211          29.000  
G10  20240438.336   106364224.134        -543.154          30.000  
G12  22187976.783   116598598.448       -2147.959          32.000  
G31  22201183.540   116668094.435         867.038          10.000  
G32  22062269.009   115937983.829         -94.437          33.000  
J01  38273013.744   201126035.410        -192.334          24.000  
> 2021  9 12 10 15  7.9999844  0  7
C06  36666380.693   190931455.521       -1482.841          26.000  
C25  21816800.443   113605807.085        -997.226          29.000  
G10  20240394.566   106363980.296        -544.706          29.000  
G12  22188234.905   116599959.400       -2149.792          34.000  
G31  22200867.859   116666440.224         865.978          15.000  
G32  22062135.901   115937290.383         -95.811          35.000  
J01  38272899.223   201125439.584        -192.430          25.000  
> 2021  9 12 10 15  8.9999834  0  8
C06  36666365.703   190931377.045       -1482.799          29.000  
C25  21816692.818   113605243.194        -998.242          29.000  
C33  22233375.554   115774994.1851      -1188.018          17.000  
G10  20240200.001   106362949.921        -545.597          28.000  
G12  22188349.126   116600534.166       -2151.326          33.000  
G31  22200404.680   116663999.536         864.348          18.000  
G32  22061852.297   115935809.768         -96.329          33.000  
J01  38272635.406   201124057.659        -193.961          23.000  
> 2021  9 12 10 15  9.9999826  0  7
C06  36666410.372   190931611.556       -1483.893          29.000  
C25  21816643.652   113604993.850       -1002.278          29.000  
C33  22233363.563   115774934.987       -1192.342          18.000  
G10  20240063.895   106362236.630        -548.376          27.000  
G12  22188517.009                       -2153.151          35.000  
G32  22061631.051   115934646.236         -94.382          34.000  
J01  38272434.245   201122991.445        -194.463          26.000  
> 2021  9 12 10 15 10.9999818  0  6
C06  36666455.341   190931846.662       -1485.143          25.000  
C25  21816593.886   113604746.165       -1001.118          24.000  
C33  22233352.171   115774880.907       -1195.819          25.000  
G10  20239928.089   106361525.542        -549.747          28.000  
G12  22188685.193   116602334.9011      -2148.700          31.000  
G32  22061408.005   115933480.855         -93.617          31.000  
> 2021  9 12 10 15 11.9999808  0  6
C25  21816485.361   113604185.252        -999.098          23.000  
C33  22233280.820   115774515.323       -1195.198          23.000  
G10  20239734.124   106360498.212        -546.469          29.000  
G12  22188792.818   116602910.889       -2152.969          30.000  
G32  22061124.701   115931999.425         -93.755          29.000  
J01  38271968.368   201120544.2321       -192.920          22.000  
> 2021  9 12 10 15 12.9999803  0  4
C06  36666577.956   190932475.1341      -1482.970          21.000  
C25  21816527.932   113604404.211        -999.922          29.000  
C33  22233360.865   115774930.273       -1196.116          27.000  
J01  38271852.348   201119949.404        -193.174          31.000    38271859.543   150186996.5661       -144.219          32.000  
> 2021  9 12 10 15 13.9999793  0  7
C06  36666566.264   190932396.106       -1482.002          15.000  
C25  21816419.407   113603843.902       -1001.536          34.000  
C33  22233291.612   115774565.383       -1196.506          30.000  
G10  20239495.489   106359232.1031       -550.362          38.000  
G31  22198357.397   116653228.0511        860.139          18.000  
G32  22060710.988   115929828.2951        -96.815          25.000  
J01  38271589.730   201118568.199        -194.120          31.000    38271596.325   150185962.924        -142.974          20.000  
> 2021  9 12 10 15 14.9999785  0  8
C06  36666611.833   190932628.473       -1480.342          16.000  
C25  21816371.440   113603594.623        -998.360          33.000  
C33  22233280.820   115774512.839       -1195.099          28.000  
G10  20239359.083   106358524.154        -553.484          26.000  
G12  22189333.944   116605758.7121      -2160.737          25.000  
G31  22197952.677   116651112.841         853.688          17.000  
G32  22060491.540   115928664.906         -96.464          31.000  
J01                                                                  38271393.965   150185168.037        -147.045          25.000  
> 2021  9 12 10 15 15.9999775  0  5
G10  20239162.419   106357501.414        -552.386          27.000  
G12  22189445.467   116606342.271       -2157.817          29.000  
G31  22197489.798   116648682.475         856.184          15.000  
G32  22060210.634   115927185.849         -96.650          28.000  
J01  38271121.154   201116117.7821       -193.095          23.000    38271131.347   150184137.737        -146.282          22.000  
> 2021  9 12 10 15 16.9999770  0  6
C06  36666729.052   190933247.0251      -1480.944          18.000  
C25  21816302.188   113603254.2111      -1003.093          23.000  
G10  20239115.652   106357265.790        -551.729          26.000  
G12  22189706.286   116607710.994       -2156.159          27.000  
G31  22197174.416   116647037.642         858.349          17.000  
J01  38271010.231   201115523.521        -194.180          26.000    38271018.026   150183693.969        -144.792          22.000  
> 2021  9 12 10 15 17.9999759  0  7
C06  36666682.884   190933011.378       -1481.869          25.000  
C25  21816164.284   113602540.511       -1004.385          27.000  
G10  20238889.908   106356084.640        -552.029          29.000  
G12  22189786.630   116608134.583       -2157.000          28.000  
G31  22196680.658   116644445.968         858.781          18.000  
G32  22059767.841   115924858.3891        -96.663          34.000  
J01  38270718.233   201113984.967        -194.530          27.000    38270725.728   150182542.487        -141.592          20.000  
> 2021  9 12 10 15 18.9999752  0  6
C06  36666756.333   190933401.282       -1483.311          25.000  
C25  21816148.395   113602452.015       -1004.966          26.000  
G10  20238783.782   106355533.828        -551.933          32.000  
G12  22189987.491   116609189.564       -2158.831          27.000  
G32  22059580.770   115923852.577         -97.521          34.000  
J01  38270548.251   201113076.743        -194.311          26.000  
> 2021  9 12 10 15 19.9999741  0  6
C06  36666708.666   190933167.456       -1483.663          24.000  
C25  21816011.390   113601740.196       -1006.581          28.000  
G10  20238558.937   106354353.274        -552.900          29.000  
G12  22190068.435   116609616.482       -2160.467          27.000  
G32  22059269.585                         -99.252          34.000  
J01  38270256.852   201111537.510        -194.144          24.000  
> 2021  9 12 10 15 20.9999736  0  8
C06  36666842.673   190933870.806       -1484.693          25.000  
C25  21816053.960   113601966.691       -1007.586          26.000  
G10  20238512.769   106354119.189        -553.416          26.000  
G12  22190328.955   116610988.387       -2159.961          25.000  
G32  22059141.874   115921552.9671        -96.176          34.000  
J01  38270143.831   201110944.292        -195.091          26.000  
R02  21500922.321   114733041.1881       1360.632          30.000  
R12  19079314.865   101918275.3531       -918.310          25.000  
> 2021  9 12 10 15 21.9999726  0  9
C06  36666827.983   190933794.056       -1484.078          26.000  
C23  52206707.948                        -899.728          20.000  
C25  21815948.133   113601412.628       -1006.624          26.000  
G10  20238317.304   106353097.289        -553.759          24.000  
G12  22190442.576   116611574.353       -2163.722          27.000  
G32  22058859.769   115920074.488         -97.255          35.000  
J01  38269882.112   201109563.173        -193.577          26.000  
R02  21500368.005   114730081.049        1360.023          30.000  
R12  19079187.453   101917594.403        -919.221          26.000  
> 2021  9 12 10 15 22.9999718  0  7
C06  36666872.652   190934028.477       -1484.343          25.000  
C25  21815902.865   113601169.649       -1005.510          24.000  
G10  20238184.796   106352390.961        -554.992          26.000  
G32  22058630.428   115918911.055         -96.837          34.000  
J01  38269677.054   201108496.348        -195.103          26.000  
R02  21499871.549   114727440.815        1360.467          31.000  
R12  19079119.101   101917229.651        -918.579          26.000  
> 2021  9 12 10 15 23.9999708  0  9
C06  36666860.361   190933952.112       -1485.091          24.000  
C23  52206168.322                        -899.728          21.000  
C25  21815796.139   113600613.555       -1003.812          25.000  
G10  20237989.032   106351370.366        -554.391          23.000  
G12  22190725.880   116613065.6111      -2165.194          23.000  
G32  22058349.822   115917432.420         -95.768          34.000  
J01  38269414.136   201107115.719        -194.432          25.000  
R02  21499315.434   114724479.603        1362.210          33.000  
R12  19078988.691   101916532.961        -917.920          27.000  
> 2021  9 12 10 15 24.9999703  0  9
C06  36666994.968   190934655.799       -1483.687          23.000  
C23  52206018.426                        -899.728          25.000  
C25  21815840.208   113600838.201       -1005.929          22.000  
G10                                                                  20237962.950    79418112.9081       -416.308          27.000  
G12  22190989.698   116614442.554       -2164.997          26.000  
G32  22058224.809   115916741.575         -97.664          34.000  
J01  38269301.714   201106522.851        -195.358          26.000  
R02  21498909.814   114722317.960        1361.434          31.000  
R12  19079012.674   101916660.728        -920.404          26.000  
> 2021  9 12 10 15 25.9999693  0  8
C06  36666979.678   190934577.697       -1483.637          25.000  
C25  21815734.981   113600284.252       -1007.883          27.000  
G10  20237758.491   106350120.1881       -557.678          30.000    20237769.584    79417353.276        -418.046          28.000  
G12  22191104.218   116615032.125       -2165.438          25.000  
G32  22057941.505   115915263.106         -95.539          35.000  
J01  38269042.093   201105142.167        -194.337          25.000  
R02  21498350.402   114719356.538        1361.712          32.000  
R12  19078885.263   101915979.849        -921.472          27.000  
> 2021  9 12 10 15 26.9999685  0  7
C06  36667022.848   190934812.389       -1484.089          25.000  
C25  21815689.712   113600043.409       -1008.407          26.000  
G10  20237627.782   106349417.638        -557.674          31.000    20237635.876    79416829.234        -416.778          28.000  
G12  22191275.700   116615936.510       -2164.178          27.000  
G32  22057721.757   115914099.681         -96.917          35.000  
R02  21497853.646   114716714.938        1360.306          31.000  
R12  19078816.310   101915612.216        -921.459          28.000  
> 2021  9 12 10 15 27.9999675  0  8
C06  36667006.959   190934734.796       -1483.802          26.000  
C23  52205179.007                        -145.762          17.000  
C25  21815584.785   113599490.422       -1007.355          28.000  
G10  20237435.915   106348400.208        -558.094          30.000    20237442.210    79416069.758        -416.923          28.000  
G32  22057439.053   115912621.504         -96.873          36.000  
J01  38268577.415   201102695.9721       -195.412          26.000  
R02  21497297.231   114713754.355        1360.940          32.000  
R12  19078685.901   101914914.885        -922.914          28.000  
> 2021  9 12 10 15 28.9999670  0  9
C06  36667141.866   190935438.837       -1483.575          28.000  
C23  52205029.110                        -899.728          23.000  
C25  21815629.754   113599717.922       -1008.984          29.000  
C33  22233064.969   115773327.0801      -1200.241          23.000  
G10  20237390.946   106348171.058        -559.439          29.000    20237399.040    79415899.008        -416.505          27.000  
G31  22192182.871   116620944.1091        857.120          17.000  
G32  22057308.343   115911931.174         -97.582          36.000  
R02  21496888.913   114711593.954        1360.775          32.000  
R12  19078704.488   101915014.290        -925.761          28.000  
> 2021  9 12 10 15 29.9999660  0  8
C06  36667125.977   190935360.984       -1482.989          27.000  
C23  52204729.318                        -899.728          24.000  
C25  21815524.527   113599166.823       -1010.906          26.000  
C33  22233000.214   115772965.957       -1200.130          22.000  
G10  20237198.479   106347155.931        -560.890          28.000    20237205.374    79415140.416        -419.672          26.000  
G32  22057026.538   115910452.905         -97.085          34.000  
R02  21496331.599   114708633.632        1360.221          31.000  
R12  19078576.476   101914330.445        -924.029          27.000  
> 2021  9 12 10 15 30.9999652  0  9
C06  36667172.745   190935594.514       -1482.409          26.000  
C23  52204489.484                        -899.728          23.000  
C25  21815480.457   113598929.206       -1011.832          26.000  
C33  22232991.820   115772917.511       -1201.368          25.000  
G10  20237065.071   106346456.428        -561.510          30.000    20237071.967    79414618.728        -419.977          26.000  
G12  22191943.637   116619401.3031      -2168.222          26.000  
G32  22056802.893   115909289.734         -97.424          34.000  
R02  21495832.145   114705993.571        1360.130          31.000  
R12  19078508.423   101913967.205        -923.230          28.000  
> 2021  9 12 10 15 31.9999642  0 10
C06  36667156.556   190935515.667       -1482.383          26.000  
C23  52204189.692                        -899.728          23.000  
C25  21815374.331   113598379.762       -1011.556          29.000  
C33  22232925.266   115772557.936       -1202.520          24.000  
G10  20236871.405   106345442.837        -562.112          31.000    20236878.900    79413861.302        -418.176          27.000  
G31  22190858.388   116613979.5101        849.961          16.000  
G32  22056526.484   115907811.433         -98.112          34.000  
J01  38267730.202   201098277.6001       -194.249          23.000  
R02  21495276.330   114703032.636        1361.153          30.000  
R12  19078381.611   101913289.858        -923.960          28.000  
> 2021  9 12 10 15 32.9999636  0 10
C06  36667261.483   190936061.114       -1482.541          26.000  
C23  24418628.735                        1328.351          23.000  
C25  21815389.320   113598454.536       -1010.980          29.000  
C33  22232975.032   115772823.659       -1203.226          23.000  
G10  20236797.956   106345059.792        -562.466          29.000    20236806.950    79413573.064        -417.184          27.000  
G31  22190514.826   116612185.975         848.553          16.000  
G32  22056363.697   115906963.297         -97.693          36.000  
J01  38267591.398   201097526.141        -193.524          26.000  
R02  21494841.931   114700712.026        1361.213          29.000  
R12  19078371.119   101913233.881        -926.941          28.000  
> 2021  9 12 10 15 33.9999626  0 10
C06  36667246.194   190935981.897       -1481.228          27.000  
C23  24418072.320                        1328.690          23.000  
C25  21815284.093   113597904.936       -1012.691          28.000  
G10  20236603.391   106344046.829        -562.459          28.000    20236613.584    79412813.963        -417.909          26.000  
G12  22192408.315   116621811.0241      -2169.441          26.000  
G31  22190051.347   116609759.735         851.304          16.000  
G32  22056081.293   115905484.845         -98.174          35.000  
J01  38267328.180   201096143.988        -192.896          23.000  
R02  21494284.017   114697750.731        1360.533          29.000  
R12  19078246.705   101912568.962        -929.145          28.000  
> 2021  9 12 10 15 34.9999619  0  9
C06  36667322.641   190936370.556       -1481.752          24.000  
C23  24417607.042   127148888.9541       1326.756          24.000  
C25  21815268.204   113597824.564       -1012.766          28.000  
C33  22232929.463   115772573.8061      -1200.619          21.000  
G10  20236499.663   106343506.481        -562.627          28.000    20236510.455    79412409.438        -419.540          25.000  
G12  22192613.973   116622877.873       -2170.803          24.000  
G32  22055892.124   115904479.273         -97.365          35.000  
J01  38267154.001   201095233.929        -193.159          24.000  
R12  19078208.931   101912367.431        -930.027          28.000  
> 2021  9 12 10 15 35.9999608  0 10
C06  36667278.271   190936136.112       -1483.494          26.000  
C23  24417020.948   127145845.675        1327.187          23.000  
C25  21815133.597   113597120.106       -1013.352          28.000  
C33  22232829.333   115772056.117       -1200.025          23.000  
G10  20236277.217   106342336.392        -563.313          30.000    20236287.710    79411534.899        -420.263          27.000  
G12  22192696.116   116623316.250       -2171.725          27.000  
G31  22189193.641   116605213.6791        861.033          15.000  
G32  22055578.241   115902843.641         -98.414          33.000  
J01  38266862.302   201093694.668        -193.486          26.000  
R12  19078051.540   101911526.866        -929.887          26.000  
> 2021  9 12 10 15 36.9999601  0 10
C06  36667354.119   190936527.359       -1484.412          25.000  
C23  24416555.071   127143424.346        1329.713          20.000  
C25  21815118.308   113597040.652       -1013.927          28.000  
G10                                                                  20236185.780    79411132.923        -423.054          25.000  
G12  22192899.675   116624385.236       -2172.972          31.000  
G31  22188818.001   116603253.385         854.402          14.000  
G32  22055381.877   115901838.313         -98.723          32.000  
J01  38266688.123   201092785.626        -193.720          27.000  
R02  21492771.264   114689667.6691       1360.764          29.000  
R12  19078017.663   101911345.192        -930.808          27.000  
> 2021  9 12 10 15 37.9999593  0  9
C06  36667398.188   190936762.591       -1483.615          25.000  
C23  24416058.914   127140845.482        1329.847          22.000  
C25  21815073.339   113596805.400       -1014.056          28.000  
C33  22232838.626   115772117.0541      -1203.653          25.000  
G10  20236043.079   106341102.1121       -565.560          28.000    20236053.871    79410614.282        -424.259          24.000  
G12  22193073.255   116625297.807       -2173.048          30.000  
G32  22055161.829   115900675.525         -97.504          33.000  
J01  38266483.665   201091719.589        -194.487          25.000  
R02  21492274.808   114687027.536        1360.075          31.000  
> 2021  9 12 10 15 38.9999585  0 10
C06  36667441.958   190936997.483       -1483.490          25.000  
C23  24415562.158   127138267.305        1329.172          21.000  
C25  21815028.670   113596571.246       -1015.879          27.000  
C33  22232829.932   115772072.659       -1205.250          24.000  
G10  20235911.470   106340407.495        -566.146          27.000    20235921.963    79410097.797        -424.306          23.000  
G12  22193246.235   116626210.692       -2173.010          30.000  
G32  22054943.280   115899512.886         -98.928          33.000  
J01  38266279.506   201090654.321        -196.077          23.000  
R02  21491780.450   114684387.245        1360.927          31.000  
R12  19077897.446   101910703.0851       -932.598          26.000  
> 2021  9 12 10 15 39.9999575  0  9
C06  36667428.467   190936919.330       -1481.803          25.000  
C25  21814923.743   113596025.481       -1014.702          28.000  
G10  20235721.402   106339398.491        -567.060          31.000    20235730.096    79409346.396        -424.999          26.000  
G12  22193358.658   116626808.607       -2174.064          31.000  
G31  22187554.076   116596606.1141        846.656          16.000  
G32  22054663.874   115898035.366         -98.375          31.000  
J01  38266018.387   201089274.891        -196.458          25.000  
R02  21491228.232   114681427.116        1359.976          31.000  
R12  19077777.529   101910062.249        -933.932          26.000  
> 2021  9 12 10 15 40.9999567  0 10
C06  36667472.837   190937152.813       -1482.508          26.000  
C23  24414515.283   127132804.0811       1327.041          22.000  
C25  21814879.373   113595791.047       -1014.839          28.000  
C33  22232747.789   115771675.6191      -1207.350          23.000  
G10  20235590.692   106338705.474        -567.629          29.000    20235597.587    79408830.172        -425.056          24.000  
G12  22193531.638   116627723.034       -2175.517          29.000  
G32  22054441.428   115896873.174         -98.144          32.000  
J01  38265815.127   201088211.031        -196.112          26.000  
R02  21490734.774   114678786.672        1360.428          31.000  
R12  19077717.871   101909744.055        -936.298          29.000  
> 2021  9 12 10 15 41.9999560  0 10
C06  36667547.485   190937542.724       -1482.340          27.000  
C23  24414048.506   127130384.539        1325.583          19.000  
C25  21814864.384   113595714.647       -1017.418          27.000  
C33  22232769.074   115771791.534       -1208.506          23.000  
G10  20235490.561   106338170.565        -568.106          29.000    20235495.958    79408431.195        -422.891          23.000  
G12  22193733.398   116628796.395       -2176.696          30.000  
G32  22054252.259   115895868.583         -98.742          33.000  
J01  38265641.548   201087304.082        -195.081          26.000  
R02  21490271.295   114676306.331        1359.568          32.000  
R12  19077684.894   101909568.140        -935.153          28.000  
> 2021  9 12 10 15 42.9999552  0 10
C06  36667591.555   190937776.375       -1483.028          26.000  
C23  24413555.347   127127809.977        1326.322          21.000  
C25  21814819.415   113595483.595       -1018.867          28.000  
C33  22232760.380   115771750.270       -1207.487          25.000  
G10  20235358.653   106337478.592        -568.696          30.000    20235364.049    79407912.672        -421.719          24.000  
G12  22193906.378   116629713.582       -2177.910          31.000  
G32  22054029.213   115894706.602         -99.952          33.000  
J01  38265436.190   201086240.243        -196.626          26.000  
R02  21489777.537   114673667.026        1358.744          32.000  
R12  19077618.939   101909215.586        -936.157          27.000  
> 2021  9 12 10 15 43.9999542  0 10
C06  36667575.965   190937699.218       -1484.905          25.000  
C23  24413001.631   127124923.509        1324.252          21.000  
C25  21814714.188   113594940.896       -1018.446          28.000  
C33  22232692.327   115771396.050       -1207.325          26.000  
G10  20235167.385   106336472.461        -569.932          24.000    20235172.781    79407161.535        -425.676          24.000  
G12  22194020.599   116630316.900       -2179.183          28.000  
G32  22053750.706   115893229.904         -98.933          36.000  
J01  38265173.871   201084861.601        -196.735          26.000  
R02  21489222.321   114670708.416        1359.103          32.000  
R12  19077493.326   101908544.687        -936.809          27.000  
> 2021  9 12 10 15 44.9999534  0 10
C06  36667620.335   190937934.835       -1484.044          26.000  
C23  24412508.472   127122350.476        1324.378          22.000  
C25  21814670.418   113594710.901       -1019.515          27.000  
G10  20235036.975   106335782.371        -570.725          25.000    20235040.873    79406645.700        -424.456          23.000  
G12  22194195.678   116631235.294       -2179.369          29.000  
G31  22185528.378   116585914.2931        851.701          16.000  
G32  22053531.258   115892068.291         -97.369          34.000  
J01  38264971.511   201083798.551        -197.491          23.000  
R02  21488729.162   114668068.808        1360.597          31.000  
R12  19077427.372   101908192.606        -937.897          25.000  
> 2021  9 12 10 15 45.9999526  0 10
C06  36667666.203   190938169.380       -1483.761          26.000  
C23  24412014.114   127119776.615        1325.049          22.000  
C25  21814625.749   113594481.185       -1019.417          26.000  
C33  22232678.537   115771310.1691      -1206.366          20.000  
G10  20234906.865   106335092.622        -570.958          24.000    20234909.863    79406129.554        -426.054          23.000  
G12  22194370.757   116632154.774       -2179.851          30.000  
G32  22053309.412   115890906.716         -99.012          35.000  
J01  38264768.852   201082734.719        -196.307          24.000  
R02  21488237.803   114665428.573        1359.912          29.000  
R12  19077359.919   101907831.691        -939.073          24.000  
> 2021  9 12 10 15 46.9999519  0 10
C06  36667740.551   190938560.005       -1483.819          26.000  
C23  24411549.436   127117358.498        1325.051          25.000  
C25  21814610.759   113594407.641       -1019.608          26.000  
G10  20234804.037   106334561.264        -572.472          25.000    20234808.234    79405731.344        -424.042          22.000  
G12  22194574.916   116633232.006       -2180.162          31.000  
G31  22184744.421   116581847.0351        852.417          13.000  
G32  22053115.446   115889903.002         -98.440          36.000  
J01  38264594.972   201081828.877        -199.337          23.000  
R02  21487774.923   114662949.662        1358.752          29.000  
R12  19077325.742   101907649.478        -939.435          24.000  
> 2021  9 12 10 15 47.9999508  0 10
C06  36667694.084   190938326.073       -1483.568          24.000  
C23  24410965.740   127114318.133        1322.667          23.000  
C25  21814477.052   113593710.643       -1020.692          25.000  
C33  22232600.591   115770917.4061      -1210.892          19.000  
G10  20234580.991   106333400.973        -573.207          28.000    20234586.987    79404862.192        -427.027          21.000  
G12  22194659.457   116633679.813       -2181.720          31.000  
G32  22052804.261   115888269.319         -98.810          35.000  
J01  38264301.775   201080295.360        -198.837          25.000  
R02  21487191.227   114659830.775        1359.398          29.000  
R12  19077169.850   101906817.055        -941.336          23.000  
> 2021  9 12 10 15 48.9999501  0 10
C06  36667769.931   190938716.189       -1482.616          26.000  
C23  24410503.760   127111903.728        1321.432          24.000  
C25  21814462.062   113593638.815       -1020.728          29.000  
C33  22232622.776   115771034.966       -1210.271          24.000  
G10  20234479.661   106332871.599        -573.656          31.000    20234486.556    79404466.920        -428.009          23.000  
G31  22183886.415   116577316.5951        844.127          13.000  
G32  22052612.694   115887265.993         -99.232          34.000  
J01  38264128.195   201079390.186        -196.853          27.000  
R02  21486727.748   114657351.529        1359.198          30.000  
R12  19077129.678   101906601.831        -940.923          23.000  
> 2021  9 12 10 15 49.9999496  0  9
C06  36667905.137   190939416.967       -1481.824          27.000  
C23  24410101.139   127109802.674        1320.898          21.000  
C25  21814507.930   113593879.358       -1020.734          29.000  
G10  20234438.889   106332657.797        -574.149          28.000    20234446.084    79404308.162        -431.765          23.000  
G12  22195128.033   116636153.5741      -2182.763          32.000  
G32  22052479.586   115886577.796         -99.166          32.000  
J01  38264015.473   201078798.699        -196.090          28.000  
R02  21486322.728   114655192.579        1359.154          31.000  
R12  19077153.661   101906729.991        -943.350          22.000  
> 2021  9 12 10 17  6.6110344  0  0
> 2021  9 12 10 17  7.6110344  0  2
G10  20391568.511                       -2648.881          34.000  
G32  22202258.296                       -2126.736          39.000  
> 2021  9 12 10 17  8.8104735  0  3
G10  20223638.267                        -645.545          33.000  
G12  22208474.493                       -2258.220          31.000  
G32  22034206.336                        -125.767          39.000  
> 2021  9 12 10 17  9.8104735  0  3
G10  20223759.683                        -647.376          34.000  
G12  22208902.896                       -2257.824          27.000  
G32  22034237.515                        -123.825          33.000  
> 2021  9 12 10 17 10.9999982  0  2
G10  20223376.248                        -649.930          38.000  
G32  22033730.566                        -125.352          31.000  
> 2021  9 12 10 17 11.9999974  0  3
G10  20223262.926   106273949.3871       -649.529          38.000  
G12  22209072.879   116709466.0231      -2262.034          35.000  
G32  22033503.923   115786902.5261       -126.490          34.000  
> 2021  9 12 10 17 12.9999964  0  3
G10  20223084.850   106273023.926        -649.166          35.000  
G12  22209205.087   116710154.735       -2264.912          29.000  
G32  22033231.411   115785453.324        -126.416          34.000  
> 2021  9 12 10 17 13.9999956  0  2
G10  20222968.530   106272414.595        -650.929          32.000  
G32  22033017.359   115784319.583        -126.644          34.000  
> 2021  9 12 10 17 14.9999949  0  2
G10  20222880.391   106271963.546        -652.488          35.000  
G12  22209617.002   116712319.1181      -2263.648          19.000  
> 2021  9 12 10 17 15.9999941  0  6
C06  36670854.795   190954764.1891      -1504.371          30.000  
C25  21810234.989   113571617.7051      -1089.947          32.000  
C33  22231431.400   115764897.8671      -1267.411          28.000  
G10  20222765.571   106271355.846        -653.703          36.000  
G12  22209804.972   116713321.865       -2263.637          26.000  
G32  22032622.833   115782210.2281       -125.459          31.000  
> 2021  9 12 10 17 16.9999931  0  6
C06  36670843.703   190954706.712       -1503.533          28.000  
C25  21810142.952   113571146.919       -1090.879          28.000  
C33  22231376.238   115764604.506       -1267.747          27.000  
G10  20222590.192   106270433.658        -653.824          36.000  
G12  22209935.082   116714011.484       -2265.504          32.000  
G32  22032343.126   115780761.824        -126.716          36.000  
> 2021  9 12 10 17 17.9999923  0  6
C06  36670894.668   190954961.550       -1503.917          32.000  
C25  21810112.973   113570989.378       -1091.890          33.000  
C33  22231378.337   115764624.394       -1269.546          25.000  
G10  20222474.772   106269827.158        -654.264          37.000  
G12  22210125.450   116715017.836       -2267.825          33.000  
G32  22032125.477   115779627.574        -126.216          32.000  
> 2021  9 12 10 17 18.9999913  0  6
C06  36670883.576   190954904.552       -1504.285          29.000  
C25  21810025.434   113570520.593       -1093.068          33.000  
C33  22231320.477   115764332.656       -1268.746          26.000  
G10  20222301.792   106268906.516        -655.637          38.000  
G12  22210256.759   116715710.108       -2267.933          29.000  
G32  22031848.469   115778179.318        -128.674          29.000  
> 2021  9 12 10 17 19.9999905  0  6
C06  36670933.641   190955160.369       -1505.931          32.000  
C25  21809995.155   113570364.636       -1092.409          26.000  
C33  22231324.674   115764352.654       -1268.393          29.000  
G10  20222178.277   106268301.373        -654.866          36.000  
G12  22210447.427   116716717.071       -2267.719          31.000  
G32  22031631.419   115777047.609        -128.789          35.000  
> 2021  9 12 10 17 20.9999898  0  6
C06  36671013.985   190955573.066       -1505.811          30.000  
C25  21809995.454   113570363.698       -1092.319          26.000  
C33  22231357.951   115764528.607       -1269.248          24.000  
G10  20222098.532   106267854.197        -656.056          32.000  
G12  22210672.272   116717882.228       -2268.620          28.000  
G32  22031444.049   115776073.312        -127.730          31.000  
> 2021  9 12 10 17 21.9999887  0  6
C06  36670973.513   190955360.447       -1503.967          28.000  
C25  21809876.737   113569739.073       -1093.049          30.000  
C33  22231274.009   115764081.204       -1270.319          27.000  
G10  20221892.575   106266777.649        -655.970          32.000  
G12  22210776.899   116718418.601       -2269.908          31.000  
G32  22031137.361   115774467.859        -127.492          32.000  
> 2021  9 12 10 17 22.9999880  0  6
C06  36671053.258   190955770.924       -1503.002          29.000  
C25  21809878.535   113569739.218       -1093.972          29.000  
C33  22231308.485   115764259.144       -1270.909          28.000  
G10  20221813.130   106266331.853        -657.437          33.000  
G12  22210999.645   116719586.272       -2271.117          27.000  
G32  22030950.590   115773492.311        -126.957          35.000  
> 2021  9 12 10 17 23.9999872  0  6
C06  36671101.525   190956024.760       -1503.085          29.000  
C25  21809849.455   113569584.668       -1094.665          29.000  
C33  22231313.882   115764281.463       -1271.124          27.000  
G10  20221695.611   106265729.278        -659.991          31.000  
G12  22211188.814   116720597.268       -2271.793          24.000  
G32  22030740.136   115772359.157        -127.916          34.000  
> 2021  9 12 10 17 24.9999864  0  5
C06  36671150.391   190956278.817       -1503.461          30.000  
C25  21809821.275   113569431.081       -1096.034          29.000  
C33  22231318.978   115764304.012       -1271.214          28.000  
G10  20221584.988   106265127.620        -657.971          30.000    20221583.789    79353838.2121       -492.385          28.000  
G12  22211379.782   116721607.361       -2269.592          23.000  
> 2021  9 12 10 17 25.9999854  0  6
C06  36671139.898   190956220.600       -1502.910          30.000  
C25  21809731.637   113568965.567       -1096.081          29.000  
C33  22231265.315   115764013.497       -1270.199          28.000  
G10  20221411.708   106264211.343        -660.781          30.000    20221409.909    79353154.909        -494.471          29.000  
G32  22030244.879   115769719.0281       -127.459          34.000  
J01  38243526.158                        -222.534          26.000  
> 2021  9 12 10 17 26.9999844  0  7
C06  36671129.705   190956162.506       -1503.964          30.000  
C25  21809643.798   113568501.817       -1097.970          30.000  
C33  22231210.753   115763722.773       -1270.713          26.000  
G10  20221233.032   106263295.781        -657.894          33.000    20221235.430    79352470.896        -492.812          28.000  
G12  22211641.501   116722998.5871      -2272.819          21.000  
G32  22029970.269   115768271.296        -128.326          34.000  
J01  38243269.835                        -222.101          26.000  
> 2021  9 12 10 17 27.9999839  0  7
C06  36671268.809   190956885.430       -1503.311          30.000  
C25  21809706.754   113568819.442       -1098.147          29.000  
C33  22231305.487   115764213.653       -1273.057          25.000  
G10  20221207.250   106263168.629        -662.342          31.000    20221210.847    79352375.382        -493.074          29.000  
G12  22211925.104   116724484.494       -2274.917          23.000  
G32  22029845.255   115767611.394        -127.930          35.000  
J01  38243163.709   200968945.4021       -222.550          26.000  
> 2021  9 12 10 17 28.9999828  0  7
C06  36671228.337   190956671.729       -1503.939          31.000  
C25  21809588.936   113568200.620       -1098.697          29.000  
C33  22231220.047   115763769.826       -1274.850          24.000  
G10  20221004.590   106262096.806        -660.816          31.000    20221006.988    79351574.029        -492.954          29.000  
G12  22212028.233   116725026.194       -2274.968          23.000  
G32  22029540.067   115766006.191        -126.605          35.000  
J01  38242876.807   200967435.043        -222.022          27.000  
> 2021  9 12 10 17 29.9999821  0  6
C06  36671307.182   190957083.227       -1504.655          30.000  
C25  21809590.135   113568206.580       -1098.935          30.000  
G10  20220917.050   106261655.711        -661.987          31.000    20220923.046    79351244.158        -494.757          29.000  
G12  22212251.278   116726198.479       -2276.570          26.000  
G32  22029352.097   115765031.152        -127.799          34.000  
J01  38242710.123   200966553.495        -220.739          27.000  
> 2021  9 12 10 17 30.9999811  0  5
C06  36671296.090   190957026.535       -1504.551          30.000  
C25  21809502.895   113567744.808       -1099.314          31.000  
G10  20220747.967   106260742.732        -661.607          30.000    20220749.766    79350562.379        -494.832          29.000  
G32  22029079.586   115763583.534        -128.309          35.000  
J01  38242454.400   200965198.724        -221.084          26.000  
> 2021  9 12 10 17 31.9999803  0  7
C06  36671345.256   190957281.718       -1504.262          30.000  
C25  21809476.214   113567595.290       -1099.758          30.000  
C33  22231199.661   115763691.7191      -1274.859          25.000  
G10  20220631.048   106260145.406        -662.886          30.000    20220636.145    79350116.963        -496.269          29.000  
G12  22212578.652   116727916.8271      -2277.865          27.000  
G32  22028867.932   115762451.051        -128.579          35.000  
J01  38242258.335   200964424.210        -222.501          27.000  
> 2021  9 12 10 17 32.9999795  0  7
C06  36671393.822   190957536.583       -1504.374          30.000  
C25  21809448.333   113567446.501       -1100.274          31.000  
C33  22231203.558   115763717.379       -1274.714          26.000  
G10  20220519.526   106259548.777        -663.719          30.000    20220523.423    79349671.849        -495.305          29.000  
G12  22212772.618   116728935.172       -2278.662          25.000  
G32  22028651.782   115761318.680        -128.258          35.000  
J01  38242059.273   200963385.216        -220.939          26.000  
> 2021  9 12 10 17 33.9999785  0  6
C06  36671382.430   190957478.774       -1502.709          31.000  
C25  21809361.093   113566985.957       -1100.699          28.000  
C33  22231147.197   115763430.610       -1273.958          24.000  
G10  20220354.640   106258637.782        -665.477          31.000    20220349.244    79348990.571        -495.562          30.000  
G32  22028376.572   115759871.370        -128.232          36.000  
J01  38241799.953   200962030.239        -220.486          24.000  
> 2021  9 12 10 17 34.9999777  0  5
C06  36671430.697   190957733.031       -1504.072          31.000  
C25  21809333.213   113566838.555       -1101.909          28.000  
G10  20220243.117   106258042.444        -663.488          30.000    20220235.622    79348546.240        -498.126          28.000  
G32  22028156.525   115758739.091        -128.860          36.000  
J01  38241600.591   200960990.311        -220.170          26.000  
> 2021  9 12 10 17 35.9999770  0  6
C06  36671509.242   190958144.331       -1504.515          30.000  
C25  21809334.112   113566847.941       -1102.304          28.000  
C33  22231181.673   115763639.5251      -1276.300          20.000  
G10  20220158.576   106257605.515        -665.893          31.000    20220152.580    79348220.317        -498.444          29.000  
G32  22027973.651   115757764.473        -127.274          36.000  
J01  38241433.007   200960108.583        -221.550          25.000  
> 2021  9 12 10 17 36.9999762  0  5
C06  36671557.809   190958399.208       -1503.487          30.000  
C25  21809305.332   113566701.700       -1103.021          30.000  
G10  20220043.755   106257011.369        -666.350          32.000    20220039.558    79347777.275        -498.234          29.000  
G32  22027762.897   115756632.272        -128.391          36.000  
J01  38241234.844   200959070.556        -223.298          24.000  
> 2021  9 12 10 17 37.9999752  0  5
C06  36671546.117   190958341.138       -1502.817          31.000  
C25  21809216.594   113566242.964       -1102.691          30.000  
G10  20219867.477   106256102.541        -666.933          33.000    20219865.978    79347096.842        -495.424          28.000  
G32  22027483.490   115755184.699        -128.198          36.000  
J01  38240978.222   200957718.240        -222.348          24.000  
> 2021  9 12 10 17 38.9999741  0  7
C06  36671504.446   190958127.296       -1502.524          31.000  
C25  21809098.775   113565628.933       -1103.531          31.000  
C33  22231043.769   115762937.8221      -1275.535          25.000  
G10  20219666.916   106255037.047        -667.847          31.000    20219662.719    79346299.719        -498.072          28.000  
G12  22213752.039   116734110.6161      -2275.166          13.000  
G32  22027178.602   115753579.892        -128.465          35.000  
J01  38240693.119   200956207.208        -222.622          23.000  
> 2021  9 12 10 17 39.9999736  0  6
C06  36671642.350   190958849.546       -1503.247          31.000  
C25  21809160.532   113565952.198       -1104.660          31.000  
C33  22231140.002   115763432.989       -1276.104          26.000  
G10  20219639.335   106254917.470        -666.606          32.000    20219640.534    79346209.964        -498.900          28.000  
G12  22214034.144   116735600.319       -2280.861          11.000  
J01  38240585.194   200955641.771        -222.183          26.000  
> 2021  9 12 10 17 40.9999726  0  6
C06  36671631.558   190958791.446       -1503.409          31.000  
C25  21809072.693   113565495.594       -1104.626          31.000  
C33  22231087.239   115763148.204       -1276.372          26.000  
G10  20219469.652   106254010.748        -668.364          32.000    20219468.153    79345533.041        -499.653          28.000  
G32  22026780.177   115751473.1111       -128.432          34.000  
J01  38240328.871   200954288.791        -222.562          25.000  
> 2021  9 12 10 17 41.9999716  0  7
C06  36671619.866   190958733.296       -1503.679          31.000  
C25  21808984.254   113565039.693       -1105.227          31.000  
C33  22231033.875   115762863.359       -1276.200          24.000  
G10  20219293.974   106253104.539        -669.934          32.000    20219296.672    79344857.319        -500.904          28.000  
G12  22214301.859   116737021.1271      -2291.203          11.000  
G32  22026502.869   115750025.728        -129.048          35.000  
J01  38240072.549   200952935.356        -220.765          25.000  
> 2021  9 12 10 17 42.9999708  0  6
C06  36671669.032                       -1503.307          31.000  
C25  21808952.476   113564894.034       -1103.986          30.000  
C33  22231039.272   115762890.207       -1275.160          25.000  
G10                                                                  20219184.250    79344415.982        -499.521          29.000  
G32  22026289.717   115748893.436        -128.031          36.000    22026291.516    86435899.6631        -93.847          25.000  
J01  38239875.885   200951895.922        -221.572          24.000  
> 2021  9 12 10 17 43.9999700  0  5
C06  36671720.296   190959258.4091      -1503.598          31.000  
C25  21808924.895   113564750.291       -1106.450          30.000  
C33  22231045.567   115762918.210       -1276.188          24.000  
G10  20219075.425   106251923.9081       -673.884          32.000    20219072.128    79343976.025        -502.203          28.000  
G32  22026072.367   115747761.093        -127.841          36.000    22026075.665    86435052.897         -95.059          24.000  
> 2021  9 12 10 17 44.9999693  0  7
C06  36671797.643   190959668.403       -1501.623          31.000  
C25  21808927.294   113564764.350       -1106.494          30.000  
C33  22231080.643   115763102.156       -1277.835          24.000  
G10  20218987.586   106251492.122        -672.481          31.000    20218989.085    79343652.479        -499.795          28.000  
G12  22214917.633   116740276.1321      -2288.544          17.000  
G32  22025889.494   115746786.329        -127.741          36.000    22025890.693    86434325.438         -95.453          25.000  
J01  38239509.838   200949973.9011       -220.666          24.000  
> 2021  9 12 10 17 45.9999683  0  6
C06  36671786.251   190959610.004       -1503.820          32.000  
C25  21808840.054   113564310.043       -1107.984          30.000  
C33  22231026.081   115762819.562       -1279.358          25.000  
G10  20218813.707   106250588.288        -673.053          31.000    20218816.405    79342976.976        -500.380          28.000  
G32  22025613.985   115745338.933        -128.468          36.000    22025616.683    86433243.933         -95.105          24.000  
J01  38239253.216   200948619.386        -221.633          26.000  
> 2021  9 12 10 17 46.9999675  0  5
C06  36671834.517   190959863.794       -1504.433          31.000  
C25  21808813.672   113564169.327       -1108.356          30.000  
G10  20218704.582   106250000.184        -673.640          31.000    20218705.182    79342537.290        -502.285          29.000  
G32  22025396.036   115744206.701        -127.308          37.000    22025401.732    86432398.780         -96.209          24.000  
J01  38239055.653   200947580.885        -221.836          22.000  
> 2021  9 12 10 17 47.9999667  0  6
C06  36671883.084   190960117.431       -1503.747          30.000  
C25  21808787.591   113564028.801       -1108.392          31.000  
C33  22231036.274   115762879.4921      -1279.053          26.000  
G10  20218594.558   106249412.622        -673.156          30.000    20218593.659    79342098.231        -502.303          29.000  
G32  22025182.284   115743074.371        -129.335          37.000    22025186.481    86431553.844         -97.688          25.000  
J01  38238856.890   200946541.808        -222.332          24.000  
> 2021  9 12 10 17 48.9999657  0  6
C06  36671871.692   190960058.845       -1502.565          30.000  
C25  21808701.250   113563576.150       -1109.048          29.000  
C33  22230984.110   115762597.895       -1279.690          26.000  
G10  20218423.976   106248510.523        -674.171          31.000    20218421.878    79341424.413        -502.600          28.000  
G32  22024905.275   115741627.027        -128.687          37.000  
J01  38238599.968   200945188.387        -220.966          24.000  
> 2021  9 12 10 17 49.9999649  0  6
C06  36671922.356   190960312.216       -1502.249          30.000  
C25  21808674.269   113563436.461       -1109.517          29.000  
C33  22230990.406   115762629.285       -1280.686          26.000  
G10  20218316.351   106247924.206        -670.965          29.000    20218310.355    79340985.948        -502.376          29.000  
G12  22215776.538   116744752.6401      -2286.116          17.000  
G32  22024688.825   115740494.632        -128.233          36.000  
> 2021  9 12 10 17 50.9999639  0  6
C06  36671913.962   190960253.161       -1501.817          30.000  
C25  21808587.329   113562985.014       -1110.201          30.000  
C33  22230935.544   115762349.093       -1280.875          27.000  
G10  20218142.171   106247022.193        -675.181          23.000    20218138.274    79340312.554        -503.905          29.000  
G32  22024413.916   115739046.996        -127.283          38.000  
J01  38238152.978   200942793.0271       -220.065          20.000  
> 2021  9 12 10 17 51.9999634  0  7
C06  36672049.169   190960974.583       -1502.167          30.000  
C25  21808650.585   113563314.547       -1109.946          31.000  
C33  22231032.976   115762849.392       -1281.688          27.000  
G10  20218119.687   106246909.503        -675.135          30.000    20218117.289    79340228.407        -503.856          30.000  
G12  22216204.642   116746966.4281      -2289.879          25.000  
G32  22024286.204   115738386.933        -128.542          38.000  
J01  38238044.153   200942224.140        -219.255          24.000  
> 2021  9 12 10 17 52.9999624  0  7
C06  36672035.678   190960915.605       -1499.911          30.000  
C25  21808562.446   113562863.019       -1109.047          31.000  
C33  22230982.611   115762569.804       -1281.492          22.000  
G10                                                                  20217946.407    79339557.024        -504.706          27.000  
G12  22216341.947   116747681.493       -2290.778          30.000  
G32  22024011.294   115736939.439        -128.645          37.000  
J01  38237785.132   200940868.117        -219.620          26.000  
> 2021  9 12 10 17 53.9999616  0  5
C06  36672089.940   190961168.586       -1500.294          29.000  
C25  21808532.767   113562723.440       -1110.664          32.000  
G10  20217833.085   106245425.2281       -676.671          33.000    20217835.484    79339120.149        -504.347          28.000  
G12  22216539.510   116748711.627       -2290.575          29.000  
G32  22023797.242   115735806.902        -127.911          36.000  
> 2021  9 12 10 17 54.9999606  0  6
C06  36672075.251   190961109.347       -1503.815          29.000  
C25  21808446.726                       -1110.907          32.000  
G10  20217666.701   106244526.885        -677.131          32.000    20217664.002    79338447.936        -505.053          27.000  
G12  22216678.913   116749427.245       -2291.441          30.000  
G32  22023525.031   115734359.444        -127.455          35.000  
J01  38237327.649   200938475.3961       -222.918          27.000  
> 2021  9 12 10 17 55.9999598  0  6
C06  36672126.215   190961362.339       -1501.264          27.000  
C25  21808420.944   113562168.1981      -1109.934          33.000  
G10  20217552.180                        -677.961          33.000    20217553.079    79338013.353        -507.044          27.000  
G12  22216878.875   116750458.159       -2291.747          30.000  
G32  22023304.384   115733227.069        -129.308          34.000  
J01  38237129.486   200937438.294        -223.334          27.000  
> 2021  9 12 10 17 56.9999590  0  7
C06  36672175.981   190961615.212       -1502.501          29.000  
C25  21808396.361   113562031.050       -1110.568          32.000  
C33  22230955.929   115762396.7011      -1281.790          19.000  
G10  20217440.057   106243371.8301       -678.950          32.000    20217442.156    79337579.231        -504.654          26.000  
G12  22217077.937   116751490.305       -2293.057          31.000  
G32  22023090.931   115732094.752        -128.481          34.000  
J01  38236930.724   200936401.051        -223.044          26.000  
> 2021  9 12 10 17 57.9999580  0  6
C06  36672160.092   190961555.778       -1502.890          28.000  
C25  21808306.124   113561582.149       -1113.539          32.000  
G10  20217268.576   106242475.099        -677.584          32.000    20217270.675    79336907.870        -504.727          26.000  
G12  22217215.542   116752208.011       -2292.696          29.000  
G32  22022813.923   115730647.288        -127.128          35.000  
J01  38236672.003   200935048.724        -222.370          26.000  
> 2021  9 12 10 17 58.9999572  0  6
C06  36672205.061   190961808.629       -1502.733          28.000  
C25  21808282.440   113561446.151       -1112.015          32.000  
C33  22230907.363   115762152.9961      -1283.552          24.000  
G10  20217162.150   106241894.112        -679.841          31.000    20217160.951    79336474.092        -507.889          26.000  
G12  22217408.908   116753240.641       -2293.134          28.000  
G32  22022596.873   115729515.092        -127.364          35.000  
> 2021  9 12 10 17 59.9999565  0  7
C06  36672287.204   190962217.487       -1505.118          29.000  
C25  21808284.839   113561466.741       -1113.964          32.000  
C33  22230943.638   115762343.523       -1283.458          21.000  
G10  20217079.407   106241471.438        -681.123          32.000    20217080.606    79336159.351        -508.429          26.000  
G12  22217633.752   116754431.280       -2294.302          29.000  
G32  22022411.602   115728540.367        -129.224          32.000  
J01  38236305.956   200933130.7341       -223.461          23.000  
> 2021  9 12 10 18  0.9999557  0  7
C06  36672336.670   190962470.170       -1499.691          28.000  
C25  21808259.056   113561331.618       -1115.726          31.000  
C33  22230948.435   115762378.854       -1286.097          22.000  
G10  20216965.786   106240891.687        -680.699          32.000    20216971.182    79335727.707        -510.444          26.000  
G12  22217828.917   116755465.650       -2295.690          29.000  
G32  22022200.248   115727408.167        -127.190          30.000  
J01  38236108.093   200932093.387        -222.955          24.000  
> 2021  9 12 10 18  1.9999547  0  6
C06  36672324.378   190962410.524       -1505.568          28.000  
C25  21808169.718   113560884.725       -1112.909          31.000  
G10  20216801.799   106239997.378        -682.195          30.000    20216800.300    79335059.603        -506.907          26.000  
G12  22217965.023   116756186.119       -2296.589          29.000  
G32  22021921.741   115725960.746        -127.917          31.000  
J01  38235852.070   200930740.911        -222.164          23.000  
> 2021  9 12 10 18  2.9999537  0  5
C06  36672316.284   190962350.492       -1501.931          29.000  
C25  21808082.778   113560438.261       -1115.851          31.000  
G10  20216629.419   106239103.638        -682.732          31.000    20216629.718    79334390.249        -508.347          27.000  
G32  22021649.829   115724513.294        -128.186          30.000  
J01  38235593.649   200929386.526        -220.350          26.000  
> 2021  9 12 10 18  3.9999532  0  6
C06  36672452.689   190963071.753       -1501.738          28.000  
C25  21808148.733   113560773.068       -1114.043          31.000  
G10  20216608.433   106238998.403        -684.956          31.000    20216610.232    79334312.641        -512.301          26.000  
G12  22218388.030   116758416.5031      -2298.144          29.000  
G32  22021522.717   115723857.785        -132.812          27.000  
J01  38235488.422   200928818.116        -219.142          25.000  
> 2021  9 12 10 18  4.9999521  0  4
C06  36672407.720   190962855.154       -1500.975          28.000  
C25  21808036.610   113560171.535       -1115.350          31.000  
G10  20216411.769   106237948.348        -683.001          31.000    20216410.270    79333529.257        -509.512          27.000  
J01  38235201.221   200927305.165        -219.934          25.000  
> 2021  9 12 10 18  5.9999514  0  6
C06  36672485.966   190963262.964       -1501.102          26.000  
C25  21808040.508   113560194.860       -1117.175          31.000  
G10  20216332.924   106237529.050        -681.829          31.000    20216329.926    79333215.227        -508.879          27.000  
G12  22218723.798   116760178.4811      -2298.635          30.000  
G32  22021028.359   115721281.4051       -127.107          22.000  
J01  38235035.436   200926423.114        -219.935          27.000  
> 2021  9 12 10 18  6.9999503  0  6
C06  36672444.895   190963046.139       -1500.324          27.000  
C25  21807925.088   113559594.443       -1115.702          31.000  
C33  22230800.337   115761668.6971      -1287.567          23.000  
G10  20216128.465   106236480.356        -684.818          30.000    20216129.365    79332429.545        -509.190          26.000  
G32  22020723.770   115719674.683        -126.115          21.000  
J01  38234748.834   200924910.268        -220.531          24.000  
> 2021  9 12 10 18  7.9999496  0  5
C06  36672523.141   190963453.628       -1501.138          27.000  
C25  21807929.884   113559618.980       -1115.411          31.000  
G10  20216050.819   106236062.436        -685.566          30.000    20216049.620    79332116.018        -510.424          26.000  
J01  38234581.850   200924027.609        -220.146          26.000  
J02  37785531.121                       -1965.213          24.000  
> 2021  9 12 10 18  8.9999488  0  5
C06  36672570.808   190963705.628       -1500.691          27.000  
C25  21807905.901   113559487.906       -1116.045          32.000  
G10  20215940.795   106235487.660        -683.061          31.000    20215941.095    79331685.399        -511.542          26.000  
J01  38234383.687   200922987.820        -220.446          27.000  
J02  37785664.229                       -1965.500          24.000  
> 2021  9 12 10 18  9.9999478  0  7
C06  36672561.814   190963644.874       -1499.822          27.000  
C25  21807820.160   113559045.144       -1118.141          31.000  
G10  20215774.710   106234598.564        -687.137          29.000    20215772.612    79331021.066        -513.278          26.000  
G12  22219403.427   116763706.3951      -2301.260          31.000  
G32  22020034.248   115716118.2171       -128.090          27.000  
J01  38234125.566   200921634.333        -222.766          28.000  
J02  37785738.578   198565395.8001      -1965.309          23.000  
> 2021  9 12 10 18 10.9999470  0  7
C06  36672610.680   190963896.546       -1501.981          25.000  
C25  21807796.177   113558915.030       -1117.969          32.000  
G10  20215662.288   106234024.752        -686.275          30.000    20215663.787    79330593.204        -513.148          25.000  
G12  22219602.789   116764747.320       -2301.481          31.000  
G32  22019819.296   115714985.820        -128.205          25.000  
J01  38233927.403   200920597.170        -223.369          28.000  
J02  37785872.585   198566101.398       -1966.603          25.000  
> 2021  9 12 10 18 11.9999462  0  7
C06  36672658.347   190964149.541       -1501.590          27.000  
C25  21807772.493   113558785.281       -1119.269          32.000  
G10  20215554.063   106233451.725        -686.033          31.000    20215554.963    79330165.599        -514.702          26.000  
G12  22219801.252   116765789.519       -2303.329          30.000  
G32  22019603.746   115713853.649        -128.015          29.000  
J01  38233729.540   200919559.850        -222.718          29.000  
J02  37786007.791   198566807.839       -1967.679          23.000  
> 2021  9 12 10 18 12.9999455  0  7
C06  36672737.792   190964558.012       -1501.451          30.000  
C25  21807777.290   113558812.315       -1120.507          34.000  
G10  20215477.916   106233036.917        -690.512          31.000    20215476.117    79329856.293        -514.548          21.000  
G12  22220028.494   116766990.789       -2304.717          33.000  
G32  22019420.273   115712878.726        -127.765          26.000    22019439.459    86408991.0491        -96.666          24.000  
J01  38233561.356   200918679.537        -222.491          30.000  
J02  37786170.279   198567672.421       -1965.840          24.000  
> 2021  9 12 10 18 13.9999444  0  6
C06  36672696.121   190964342.167       -1501.346          29.000  
C25  21807665.168   113558215.433       -1120.667          31.000  
G10  20215278.854   106231993.289        -689.358          30.000    20215277.055    79329077.092        -517.413          20.000  
G12  22220136.420   116767562.750       -2304.853          31.000  
G32  22019116.583   115711273.701        -128.124          28.000    22019133.371    86407791.278         -93.238          23.000  
J02  37786215.847   198567905.520       -1966.883          24.000  
> 2021  9 12 10 18 14.9999437  0  7
C06  36672773.467   190964750.494       -1500.985          28.000  
C25  21807670.564   113558243.171       -1118.683          31.000  
G10  20215197.910   106231579.669        -689.248          30.000    20215197.910    79328770.745        -515.261          22.000  
G12  22220365.161   116768764.874       -2305.708          31.000  
G32  22018931.011   115710299.075        -128.108          29.000    22018947.800    86407061.003         -92.730          20.000  
J01  38233102.974   200916287.8961       -221.424          28.000  
J02  37786379.534   198568769.440       -1967.081          24.000  
> 2021  9 12 10 18 15.9999427  0  8
C06  36672761.176   190964689.112       -1498.689          27.000  
C25  21807584.823   113557803.125       -1122.125          31.000  
C33  22230740.978   115761409.9171      -1288.993          24.000  
G10  20215029.127   106230693.575        -689.731          29.000    20215028.227    79328108.798        -512.858          20.000  
G12  22220503.066   116769494.923       -2306.117          29.000  
G32  22018655.202   115708851.441        -127.805          26.000    22018671.691    86405978.580         -94.473          21.000  
J01  38232844.552   200914933.374        -219.542          28.000  
J02  37786454.182   198569160.221       -1964.187          24.000  
> 2021  9 12 10 18 16.9999419  0  7
C06  36672809.143   190964939.265       -1500.085          26.000  
C25  21807558.142   113557675.781       -1121.478          31.000  
G10  20214918.803   106230123.067        -690.083          30.000    20214918.803    79327681.361        -514.109          19.000  
G12  22220702.128   116770541.214       -2306.725          31.000  
G32  22018439.352   115707719.293        -128.293          25.000    22018456.140    86405131.829         -94.847          22.000  
J01  38232647.289   200913892.766        -219.467          26.000  
J02  37786589.089   198569864.403       -1964.906          24.000  
> 2021  9 12 10 18 17.9999411  0  8
C06  36672855.910   190965189.788       -1499.297          28.000  
C25  21807532.359   113557548.903       -1122.529          31.000  
C33  22230755.968   115761489.9021      -1288.510          23.000  
G10  20214809.379   106229553.152        -690.908          31.000    20214810.878    79327256.503        -516.896          22.000  
G12  22220899.991   116771587.505       -2306.669          30.000  
G32  22018224.700   115706587.032        -128.118          25.000    22018240.889    86404285.529         -96.504          24.000  
J01  38232449.126   200912852.358        -220.337          27.000  
J02  37786723.995   198570569.813       -1964.987          23.000  
> 2021  9 12 10 18 18.9999401  0  7
C06  36672844.518   190965127.938       -1499.506          27.000  
C25  21807448.717   113557110.233       -1122.170          32.000  
G10  20214639.696   106228669.290        -692.786          31.000    20214643.593    79326595.885        -516.056          22.000  
G12  22221039.095   116772318.705       -2306.726          31.000  
G32  22017949.191   115705139.311        -127.888          25.000  
J01  38232193.403   200911497.147        -220.382          29.000  
J02  37786800.143   198570958.530       -1963.556          22.000  
> 2021  9 12 10 18 19.9999393  0  6
C06  36672893.084   190965379.077       -1500.864          27.000  
C25  21807428.332   113556984.313       -1124.302          33.000  
G10  20214530.871   106228101.579        -693.190          32.000    20214536.268    79326172.922        -519.401          24.000  
G12  22221238.757   116773365.571       -2307.157          29.000  
J01  38231994.041   200910457.224        -221.095          26.000  
J02  37786933.250   198571663.143       -1966.692          21.000  
> 2021  9 12 10 18 20.9999386  0  6
C06  36672970.131   190965786.392       -1500.487          27.000  
C25  21807434.028   113557014.539       -1123.774          27.000  
C33  22230756.867   115761454.2211      -1291.065          29.000  
G10  20214449.928   106227691.023        -692.917          22.000    20214457.722    79325868.015        -518.883          28.000  
J01  38231827.956   200909576.278        -223.080          24.000  
J02  37787095.738   198572527.187       -1968.553          22.000  
> 2021  9 12 10 18 21.9999378  0  6
C06  36673018.098   190966037.838       -1500.308          27.000  
C25  21807409.145   113556889.653       -1124.084          31.000  
C33  22230766.461   115761497.226       -1291.973          28.000  
G10  20214340.803   106227124.184        -693.607          30.000    20214349.197    79325445.213        -518.798          29.000  
G32  22017343.310   115701900.1541       -127.828          39.000  
J01  38231629.194   200908537.296        -220.482          21.000  
> 2021  9 12 10 18 22.9999368  0  5
C06  36673007.006   190965976.577       -1500.107          27.000  
C25  21807324.304   113556452.848       -1124.463          32.000  
C33  22230715.496   115761228.174       -1291.898          28.000  
G10  20214173.519   106226242.478        -693.894          32.000    20214180.414    79324785.326        -515.512          28.000  
G32  22017070.499                        -128.348          40.000  
> 2021  9 12 10 18 23.9999357  0  6
C06  36672965.634   190965759.673       -1499.570          26.000  
C25  21807209.183   113555859.733       -1123.414          31.000  
C33  22230635.751   115760802.406       -1290.767          29.000  
G10  20213974.157   106225203.453        -693.988          30.000    20213982.851    79324008.731        -519.907          28.000  
G12  22221925.281   116776929.1361      -2309.739          23.000  
G32  22016766.810   115698881.5421       -128.197          41.000  
> 2021  9 12 10 18 24.9999352  0  6
C06  36673102.040   190966478.515       -1498.671          25.000  
C25  21807275.737   113556202.752       -1123.863          29.000  
C33  22230734.383   115761312.682       -1291.901          30.000  
G10  20213956.169   106225109.831        -694.813          29.000  
G32  22016640.297   115698221.785        -128.205          40.000  
J02  37787573.008   198575042.3561      -1964.731          20.000  
> 2021  9 12 10 18 25.9999342  0  6
C06  36673089.748   190966415.572       -1498.318          27.000  
C25  21807191.795   113555766.898       -1126.548          29.000  
C33  22230684.018   115761043.865       -1292.651          31.000  
G10  20213789.485   106224228.035        -692.220          23.000  
G12  22222365.377   116779189.8721      -2313.539          25.000  
G32  22016362.090   115696774.352        -127.839          40.000  
> 2021  9 12 10 18 26.9999334  0  7
C06  36673137.115   190966665.032       -1498.488          27.000  
C25  21807167.212   113555645.099       -1127.882          28.000  
C33  22230693.611   115761087.961       -1293.380          30.000  
G10  20213682.759   106223661.047        -693.755          24.000  
G12  22222568.936   116780243.634       -2314.527          28.000  
G32  22016145.939   115695642.170        -128.002          40.000  
J02  37787781.064   198576138.6691      -1966.803          21.000  
> 2021  9 12 10 18 27.9999324  0  5
C06  36673126.023   190966602.292       -1498.979          26.000  
C25  21807083.570   113555210.605       -1126.181          21.000  
C33  22230642.646   115760819.664       -1292.888          32.000  
G10  20213516.973   106222780.041        -695.054          24.000  
G32  22015868.332   115694194.315        -126.719          34.000  
> 2021  9 12 10 18 28.9999319  0  4
C06  36673264.827   190967320.854       -1499.754          24.000  
C25  21807150.424   113555556.465       -1126.770          32.000  
C33  22230740.978   115761330.754       -1290.317          25.000  
G10  20213501.084   106222687.940        -696.612          29.000  
> 2021  9 12 10 18 29.9999309  0  5
C06  36673254.934   190967259.361       -1499.756          27.000  
C25  21807066.782   113555122.265       -1127.407          33.000  
C33  22230687.615   115761062.160       -1293.947          19.000  
G10  20213334.999   106221810.496        -698.678          31.000  
G12  22223132.845   116783245.6791      -2314.748          25.000  
> 2021  9 12 10 18 30.9999299  0  5
C06  36673242.942   190967197.125       -1498.996          26.000  
C25  21806984.938   113554688.938       -1128.211          33.000  
G10  20213170.713   106220934.223        -699.264          33.000  
G12  22223273.748   116783984.620       -2314.115          24.000  
G32  22015193.499   115690639.2851       -128.313          28.000  
> 2021  9 12 10 18 31.9999291  0  7
C06  36673290.609   190967446.619       -1498.291          27.000  
C25  21806967.251                       -1128.579          32.000  
C33  22230655.537   115760842.3091      -1293.851          19.000  
G10  20213063.387   106220372.711        -699.211          32.000  
G12  22223485.101   116785038.083       -2313.599          23.000  
G32  22014974.350   115689507.028        -127.960          27.000  
J01  38229435.313   200897038.8641       -218.346          24.000  
> 2021  9 12 10 18 32.9999283  0  5
C06  36673338.276   190967696.276       -1498.984          25.000  
C25  21806945.666   113554481.0901      -1129.717          32.000  
G10  20212953.064   106219810.927        -698.415          30.000  
G12  22223716.841   116786421.171       -2313.200          17.000  
J01  38229238.049   200895997.315        -218.920          26.000  
> 2021  9 12 10 18 33.9999276  0  6
C06  36673418.021   190968102.324       -1499.520          26.000  
C25  21806952.861   113554517.207       -1129.166          24.000  
C33  22230706.802   115761092.4361      -1296.904          32.000  
G10  20212875.717   106219406.920        -699.125          28.000  
G32  22014569.631   115687397.2981       -126.743          29.000  
J01  38229069.866   200895114.223        -221.284          24.000  
> 2021  9 12 10 18 34.9999265  0  6
C06  36673376.949   190967883.451       -1497.690          27.000  
C25  21806839.239   113553929.032       -1129.407          31.000  
C33  22230624.659   115760671.345       -1295.873          32.000  
G10  20212678.454   106218373.903        -700.549          29.000  
G32  22014262.643   115685791.116        -127.201          24.000  
J01  38228780.866   200893602.399        -220.739          27.000  
> 2021  9 12 10 18 35.9999258  0  6
C06  36673456.095   190968288.352       -1497.826          26.000  
C25  21806844.935   113553966.336       -1130.604          32.000  
C33  22230659.435   115760873.320       -1294.673          31.000  
G10  20212601.107   106217972.004        -701.659          30.000  
G32  22014077.072   115684815.668        -127.438          29.000  
J01  38228613.582   200892720.438        -220.851          30.000  
> 2021  9 12 10 18 36.9999250  0  7
C06  36673503.762   190968536.073       -1496.034          25.000  
C25  21806819.753   113553848.166       -1130.776          33.000  
C33  22230668.129   115760919.425       -1295.365          30.000  
G10  20212498.578   106217413.652        -702.028          23.000  
G32  22013862.720   115683682.609        -127.299          30.000  
J01  38228416.318   200891680.486        -219.239          32.000  
J02  37788999.720   198582558.8111      -1964.163          19.000  
> 2021  9 12 10 18 37.9999240  0  6
C06  36673492.070   190968470.997       -1496.285          25.000  
C25  21806738.809                       -1131.348          33.000  
C33  22230616.265   115760655.003       -1297.186          27.000  
G10  20212335.491   106216540.345        -702.100          24.000  
G32  22013588.110   115682234.499        -127.228          28.000  
J01  38228162.394   200890324.595        -219.180          32.000  
> 2021  9 12 10 18 38.9999232  0  5
C06  36673539.137   190968719.542       -1498.323          24.000  
C25  21806716.025   113553294.3671      -1132.617          32.000  
C33  22230622.260   115760703.119       -1299.250          24.000  
G10  20212228.166   106215982.260        -702.533          27.000  
J01  38227970.227   200889284.009        -220.323          31.000  
> 2021  9 12 10 18 39.9999222  0  6
C06  36673528.944   190968656.919       -1499.323          24.000  
C25  21806631.183   113552865.100       -1131.457          33.000  
C33  22230570.396   115760441.237       -1299.697          21.000  
G10  20212060.881   106215109.847        -703.264          30.000  
G32  22013102.746   115679653.2181       -127.229          31.000  
J01  38227710.607   200887929.671        -220.945          29.000  
> 2021  9 12 10 18 40.9999217  0  5
C06  36673665.350   190969375.154       -1497.842          22.000  
C25  21806700.435   113553216.801       -1132.019          32.000  
C33  22230669.927   115760959.952       -1298.412          26.000  
G10  20212043.793   106215025.774        -703.899          32.000  
J01  38227600.883   200887362.416        -219.759          29.000  
> 2021  9 12 10 18 41.9999206  0  6
C06  36673624.878   190969155.489       -1497.514          24.000  
C25  21806589.212   113552632.250       -1133.100          33.000  
C33  22230589.883   115760540.434       -1296.557          27.000  
G10  20211847.129   106213997.032        -704.387          31.000  
G32  22012675.242   115677386.6571       -126.077          30.000  
J01  38227311.583   200885848.995        -219.080          29.000  
> 2021  9 12 10 18 42.9999199  0  6
C06  36673702.224   190969559.956       -1496.904          26.000  
C25  21806598.206   113552672.547       -1135.760          32.000  
C33  22230628.856   115760743.758       -1296.092          29.000  
G10  20211770.682   106213598.981        -705.258          31.000  
G32  22012490.270   115676409.956        -126.150          29.000  
J01  38227142.800   200884965.498        -219.344          31.000    38227145.798                        -163.147          26.000  
> 2021  9 12 10 18 43.9999188  0  6
C06  36673659.654   190969339.950       -1497.833          26.000  
C25  21806485.184   113552088.999       -1133.283          33.000  
C33  22230548.212   115760322.342       -1296.446          29.000  
G10  20211573.719   106212571.421        -705.720          29.000  
G32  22012185.381   115674803.686        -126.998          31.000  
J01  38226853.800   200883451.625        -218.975          32.000    38226857.697                        -163.741          27.000  
> 2021  9 12 10 18 44.9999181  0  6
C06  36673736.101   190969743.662       -1496.075          24.000  
C25  21806489.382   113552130.483       -1135.157          32.000  
C33  22230588.384   115760526.340       -1297.142          30.000  
G10  20211499.070   106212174.503        -706.329          30.000  
G32  22012000.709   115673827.887        -127.230          33.000  
J01  38226685.316   200882568.141        -220.260          32.000    38226689.813   150009577.3361       -164.432          28.000  
> 2021  9 12 10 18 45.9999173  0  7
C06  36673782.868   190969991.118       -1496.672          26.000  
C25  21806468.696   113552016.189       -1134.417          25.000  
C33  22230597.977   115760575.161       -1298.056          33.000  
G10  20211392.944   106211620.759        -707.085          34.000  
G12  22226162.848   116799241.6151      -2327.403          20.000  
G32  22011784.559   115672694.597        -127.273          36.000  
J01  38226486.554   200881528.596        -220.828          32.000    38226491.651   150008799.193        -162.804          26.000  
> 2021  9 12 10 18 46.9999163  0  7
C06  36673769.678   190969926.104       -1496.220          27.000  
C25  21806386.253   113551589.854       -1135.353          27.000  
C33  22230547.612   115760312.734       -1299.629          33.000  
G10  20211228.058   106210752.776        -707.843          35.000  
G12  22226273.471   116799994.315       -2327.892          19.000  
G32  22011509.949                        -126.959          36.000  
J01  38226227.833   200880173.841        -220.587          30.000    38226234.429   150007786.387        -164.529          24.000  
> 2021  9 12 10 18 47.9999155  0  7
C06  36673818.844   190970173.670       -1497.854          28.000  
C25  21806364.068   113551477.116       -1135.887          26.000  
C33  22230560.203   115760363.763       -1299.036          33.000  
G10  20211124.929   106210199.627        -706.742          34.000  
G12  22226451.848   116800793.284       -2327.750          18.000  
G32  22011296.197   115670133.3821       -126.924          34.000  
J01  38226029.071   200879133.977        -220.453          30.000    38226037.765   150007009.687        -165.243          23.000  
> 2021  9 12 10 18 48.9999148  0  7
C06  36673897.089   190970578.768       -1498.246          29.000  
C25  21806367.966   113551520.291       -1136.452          26.000  
C33  22230597.977                       -1299.627          33.000  
G10  20211047.583   106209804.004        -707.430          32.000  
G12  22226668.897   116802016.576       -2326.048          21.000  
G32  22011099.833   115669157.858        -128.689          31.000  
J01  38225860.587   200878251.462        -219.228          31.000  
> 2021  9 12 10 18 49.9999140  0  4
C06  36673945.656   190970828.167       -1498.375          32.000  
C25  21806346.381   113551407.768       -1136.407          26.000  
C33  22230604.573   115760609.1751      -1295.812          32.000  
G32  22010885.781   115668024.967        -126.064          34.000  
> 2021  9 12 10 18 50.9999130  0  6
C06  36673933.364   190970765.148       -1497.246          27.000  
C25  21806265.137   113550982.585       -1135.415          23.000  
C33  22230548.811   115760348.254       -1303.808          28.000  
G10  20210777.170   106208386.6151       -709.636          29.000  
G32  22010612.070   115666576.419        -127.157          35.000  
J01  38225404.603   200875851.7901       -217.856          25.000  
> 2021  9 12 10 18 51.9999119  0  5
C06  36673890.494   190970545.247       -1496.709          27.000  
C33  22230466.968   115759931.690       -1301.856          29.000  
G10  20210581.705   106207363.396        -710.366          29.000  
G32  22010308.381   115664969.955        -128.828          37.000  
J01  38225115.303   200874334.451        -214.761          25.000  
> 2021  9 12 10 18 52.9999114  0  4
C25  21806220.468   113550759.2191      -1138.442          28.000  
C33  22230570.097   115760452.507       -1302.336          32.000  
G32  22010188.164   115664309.730        -128.095          35.000  
J01  38225007.678   200873762.840        -216.795          28.000  
> 2021  9 12 10 18 53.9999104  0  5
C06  36674016.107   190971199.2791      -1497.894          19.000  
C25  21806141.023   113550336.721       -1138.020          28.000  
C33  22230521.830   115760193.980       -1303.544          31.000  
G12  22227542.493   116806716.1861      -2328.318          23.000  
J01  38224749.557   200872406.001        -219.260          33.000  
> 2021  9 12 10 18 54.9999096  0  6
C06  36674062.275   190971448.586       -1498.502          25.000  
C25  21806120.937   113550225.338       -1138.176          28.000  
C33  22230538.319   115760247.801       -1301.797          30.000  
G10  20210304.397   106205875.4621       -712.647          36.000  
G32  22009691.108   115661730.7711       -127.889          30.000  
J01  38224555.291   200871365.662        -220.146          31.000  
> 2021  9 12 10 18 55.9999086  0  7
C06  36674049.084   190971384.944       -1496.672          29.000  
C25  21806041.192   113549803.040       -1138.861          28.000  
C33  22230497.247   115759988.798       -1303.462          30.000  
G10  20210140.411                        -712.929          35.000  
G31  22108611.527   116181537.9651        737.857          22.000  
G32  22009413.800   115660282.911        -127.530          31.000  
J01  38224298.669   200870009.840        -218.943          27.000  
> 2021  9 12 10 18 56.9999081  0  7
C06  36674186.689   190972100.453       -1496.045          30.000  
C25  21806109.844   113550161.365       -1139.997          28.000  
C33  22230591.981   115760510.614       -1301.727          30.000  
G10  20210127.220   106204930.2631       -713.305          36.000  
G31  22108321.328   116180013.509         736.749          23.000  
G32  22009286.688   115659622.628        -127.516          34.000  
J01  38224189.844   200869441.103        -219.551          29.000  
> 2021  9 12 10 18 57.9999071  0  7
C06  36674173.498   190972035.118       -1495.927          30.000  
C25  21806032.198   113549740.660       -1140.212          24.000  
C33  22230544.015   115760252.433       -1305.284          29.000  
G10  20209962.334   106204068.662        -713.825          35.000  
G31  22107882.132   116177701.929         735.532          24.000  
G32  22009012.678   115658174.125        -126.188          35.000  
J01  38223932.322   200868084.815        -219.252          28.000  
> 2021  9 12 10 18 58.9999063  0  6
C06  36674220.266   190972281.742       -1496.087          30.000  
C33  22230552.709   115760307.079       -1303.491          29.000  
G10  20209858.906   106203523.027        -715.552          35.000  
G31  22107502.295   116175705.847         735.154          23.000  
G32  22008798.026                        -127.224          32.000  
J01  38223736.258   200867044.169        -220.170          28.000  
> 2021  9 12 10 18 59.9999053  0  7
C06  36674207.974   190972217.253       -1497.467          28.000  
C25  21805934.765   113549211.9171      -1141.539          24.000  
C33  22230501.444   115760049.431       -1302.809          28.000  
G10  20209698.217   106202662.847        -714.778          34.000  
G31  22107060.401   116173396.708         732.884          23.000  
G32  22008519.819   115655567.2031       -127.792          34.000  
J01  38223478.137   200865688.245        -219.207          29.000  
> 2021  9 12 10 19  0.9999045  0  7
C06  36674256.541   190972465.510       -1497.196          29.000  
C25  21805916.178   113549104.130       -1141.653          24.000  
C33  22230512.536   115760103.813       -1304.894          29.000  
G10  20209593.589   106202118.246        -717.591          35.000  
G31  22106683.561   116171402.776         733.510          22.000  
G32  22008303.069   115654434.097        -126.475          34.000    22008312.362    86365317.8181        -95.039          26.000  
J01  38223281.473   200864647.282        -219.202          26.000  
> 2021  9 12 10 19  1.9999037  0  7
C06  36674303.908   190972713.318       -1496.531          30.000  
C25  21805897.891   113548996.207       -1140.694          25.000  
C33  22230521.830   115760159.665       -1304.691          29.000  
G10  20209490.161   106201574.275        -717.389          35.000  
G31  22106306.722   116169409.560         732.644          24.000  
G32  22008088.417   115653301.032        -127.028          34.000    22008096.212    86364471.937         -95.150          25.000  
J01  38223083.610   200863605.838        -218.739          28.000  
> 2021  9 12 10 19  2.9999027  0  7
C06  36674291.616   190972648.219       -1496.183          30.000  
C25  21805817.547   113548575.696       -1141.125          26.000  
C33  22230471.765   115759903.022       -1304.267          29.000  
G10  20209326.774   106200715.757        -716.686          36.000  
G31  22105870.524   116167101.280         732.589          25.000  
G32  22007816.805   115651852.817        -127.319          34.000    22007821.602    86363392.411         -97.132          25.000  
J01  38222826.388   200862248.931        -217.716          29.000  
> 2021  9 12 10 19  3.9999020  0  7
C06  36674368.063   190973051.309       -1495.810          29.000  
C25  21805828.339   113548625.350       -1143.746          26.000  
C33  22230513.136   115760114.759       -1304.904          30.000  
G10  20209253.625   106200330.413        -718.463          36.000  
G31  22105525.163   116165265.813         732.459          23.000  
G32  22007626.437   115650877.123        -127.253          34.000    22007636.031    86362663.978         -93.471          26.000  
J01  38222659.104   200861364.140        -218.693          28.000  
> 2021  9 12 10 19  4.9999012  0  7
C06  36674415.431   190973298.213       -1495.779          30.000  
C25  21805808.553   113548520.745       -1144.890          22.000  
C33  22230523.629   115760170.726       -1305.472          28.000  
G10  20209150.196   106199788.157        -716.875          35.000  
G31  22105148.024   116163273.040         732.093          23.000  
G32  22007410.587   115649744.014        -128.908          33.000    22007420.480    86361817.206         -95.339          26.000  
J01  38222462.140   200860322.484        -218.562          30.000  
> 2021  9 12 10 19  5.9999002  0  7
C06  36674403.139   190973232.740       -1495.670          31.000  
C25  21805728.508   113548104.282       -1145.075          24.000  
C33  22230473.863   115759915.191       -1306.539          27.000  
G10  20208984.711   106198931.599        -720.003          34.000  
G31  22104709.728   116160965.503         731.994          26.000  
G32  22007134.778   115648295.862        -127.807          33.000    22007145.270    86360736.116         -95.195          26.000  
J01  38222203.419   200858965.768        -218.741          30.000  
> 2021  9 12 10 19  6.9998994  0  7
C06  36674449.607   190973479.142       -1494.315          29.000  
C25  21805706.923   113547999.683       -1143.999          26.000  
C33  22230486.454   115759973.095       -1306.802          26.000  
G10  20208886.079   106198390.619        -719.296          35.000  
G31  22104330.790   116158973.180         731.810          26.000  
G32  22006922.824   115647162.792        -127.818          34.000  
J01  38222004.657   200857924.582        -219.297          29.000  
> 2021  9 12 10 19  7.9998984  0  8
C06  36674436.716   190973412.090       -1494.228          29.000  
C25  21805627.178   113547583.403       -1145.118          22.000  
C33  22230438.188   115759719.528       -1307.688          27.000  
G10  20208722.393   106197534.880        -721.331          34.000  
G23  20874115.650   109694218.3221      -3193.440          18.000  
G31  22103892.494   116156666.039         731.415          27.000  
G32  22006647.315   115645714.385        -128.152          35.000  
J01  38221745.636   200856567.753        -218.860          27.000  
> 2021  9 12 10 19  8.9998976  0  9
C06  36674483.483   190973656.987       -1494.029          29.000  
C25  21805607.092   113547480.465       -1146.184          23.000  
C33  22230452.278   115759778.097       -1306.744          26.000  
G10  20208617.465   106196994.994        -720.600          34.000  
G12  22230391.420   116821559.0841      -2339.153          30.000  
G23  20874482.896   109696151.027       -3193.148          18.000  
G31  22103514.455   116154674.383         731.150          26.000  
G32  22006429.066   115644581.124        -126.991          36.000  
J01  38221545.375   200855526.457        -218.693          27.000  
> 2021  9 12 10 19  9.9998968  0  8
C06  36674531.450   190973902.368       -1494.676          29.000  
C25  21805588.505   113547378.221       -1146.704          23.000  
C33  22230463.670   115759835.873       -1307.038          25.000  
G10  20208517.634   106196455.585        -722.600          34.000  
G12  22230598.877   116822638.007       -2339.680          30.000  
G23  20874851.641   109698087.467       -3196.904          20.000  
G32  22006212.616   115643447.887        -126.897          36.000  
J01  38221346.612   200854484.650        -218.782          27.000  
> 2021  9 12 10 19 10.9998961  0  9
C06  36674608.497   190974304.212       -1494.449          29.000  
C25  21805600.797   113547431.633       -1146.301          21.000  
C33  22230504.742   115760050.708       -1307.887          26.000  
G10  20208440.887   106196074.350        -722.198          32.000  
G12  22230834.514   116823874.919       -2339.867          29.000  
G23  20875249.166   109700180.919       -3195.817          20.000  
G31  22102779.364   116150850.0651        729.937          27.000  
G32  22006028.843   115642472.121        -126.843          36.000  
J01  38221178.429   200853599.879        -218.004          28.000  
> 2021  9 12 10 19 11.9998950  0  8
C06  36674565.627   190974081.460       -1495.746          29.000  
C25  21805491.073   113546861.864       -1147.421          22.000  
C33  22230427.395   115759641.646       -1308.081          28.000  
G10  20208246.622   106195063.386        -723.147          34.000  
G23  20875525.874   109701643.378       -3195.236          21.000  
G31  22102308.390   116148387.301         729.528          27.000  
G32  22005721.856   115640866.050        -127.753          35.000  
J01  38220891.228   200852085.146        -218.067          27.000  
> 2021  9 12 10 19 12.9998940  0  7
C06  36674554.234   190974016.010       -1495.796          29.000  
C25  21805410.129   113546448.444       -1147.784          23.000  
C33  22230380.628   115759389.235       -1308.486          27.000  
G10  20208086.533   106194210.550        -722.546          32.000  
G31  22101869.794   116146082.087         729.727          27.000  
G32  22005449.644   115639417.497        -127.306          36.000  
J01  38220633.706   200850728.891        -219.967          27.000  
> 2021  9 12 10 19 13.9998935  0  7
C06  36674693.038   190974730.557       -1494.893          28.000  
C33  22230481.958   115759917.015       -1308.042          28.000  
G10  20208075.740   106194145.863        -722.627          33.000  
G23  20876289.146   109705670.3341      -3194.854          22.000  
G31  22101579.295   116144564.679         729.333          27.000  
G32  22005319.834   115638756.543        -125.373          35.000  
J01  38220526.080   200850161.170        -220.027          26.000  
> 2021  9 12 10 19 14.9998925  0  8
C06  36674680.447   190974663.930       -1494.912          27.000  
C25  21805401.734   113546403.4761      -1149.457          20.000  
C33  22230433.091   115759663.500       -1307.813          27.000  
G12  22231541.424   116827564.1381      -2340.751          31.000  
G23  20876595.234   109707289.643       -3194.869          21.000  
G31  22101140.099   116142260.041         728.956          26.000  
G32  22005045.824   115637307.690        -126.277          35.000  
J01  38220269.158   200848805.317        -219.524          27.000  
> 2021  9 12 10 19 15.9998917  0  9
C06  36674728.714   190974909.864       -1494.975          27.000  
C25  21805382.248   113546304.613       -1150.592          17.000  
C33  22230443.584   115759725.141       -1310.080          27.000  
G10  20207800.831   106192756.6411       -725.113          28.000  
G12  22231746.782   116828644.764       -2340.981          27.000  
G23  20876961.880   109709224.756       -3196.440          21.000  
G31  22100759.962   116140271.006         728.308          27.000  
G32  22004834.170   115636173.929        -127.549          36.000  
J01  38220072.195   200847763.432        -218.532          27.000  
> 2021  9 12 10 19 16.9998907  0  5
C06  36674716.122   190974843.003       -1494.308          28.000  
C33  22230395.617   115759473.936       -1309.733          27.000  
G31  22100321.066   116137967.276         728.257          26.000  
G32  22004559.860   115634725.092        -127.431          36.000  
J01  38219814.973   200846405.942        -218.376          24.000  
> 2021  9 12 10 19 17.9998902  0  9
C06  36674852.228   190975556.794       -1495.347          27.000  
C25  21805374.453   113546263.2241      -1150.707          16.000  
C33  22230496.048   115760003.287       -1310.054          26.000  
G10  20207630.848   106191843.9231       -725.152          27.000  
G12  22232187.777   116830966.5231      -2343.881          27.000  
G23  20877715.858   109713254.9511      -3196.537          20.000  
G31  22100032.966   116136451.561         727.597          26.000  
G32  22004432.748   115634063.956        -126.700          37.000  
J01  38219707.647   200845836.225        -218.119          24.000  
> 2021  9 12 10 19 18.9998892  0  8
C06  36674838.438   190975490.221       -1494.964          26.000  
C25  21805295.008   113545854.452       -1152.798          16.000  
C33  22230447.182   115759751.198       -1308.239          26.000  
G10  20207470.459   106190993.874        -725.336          26.000  
G12  22232334.075   116831735.927       -2344.991          26.000  
G31  22099592.271   116134148.943         726.744          27.000  
G32  22004161.736   115632615.060        -128.074          37.000    22004162.635    86349029.9691        -92.603          22.000  
J01  38219450.425   200844479.771        -217.771          24.000  
> 2021  9 12 10 19 19.9998881  0  6
C06  36674795.867   190975266.592       -1492.148          28.000  
C33  22230369.236   115759342.468       -1308.658          27.000  
G10  20207278.592   106189986.741        -725.883          24.000  
G31  22099122.796   116131689.205         726.678          27.000  
G32  22003852.650   115631008.598        -126.870          37.000    22003856.247    86347830.369         -95.481          22.000  
J01  38219162.324   200842964.783        -218.358          24.000  
> 2021  9 12 10 19 20.9998874  0  7
C06  36674873.214   190975666.322       -1493.364          27.000  
C33  22230409.108   115759558.052       -1308.200          26.000  
G10  20207205.443   106189610.252        -726.857          27.000  
G12  22232686.931   116833591.9401      -2345.445          26.000  
G31  22098771.739   116129859.689         726.909          26.000  
G32  22003664.080   115630032.323        -125.898          36.000    22003669.776    86347099.703         -92.376          23.000  
J01  38218994.741   200842080.563        -219.200          24.000  
> 2021  9 12 10 19 21.9998866  0  8
C06  36674919.681   190975910.853       -1494.686          28.000  
C25  21805177.490   113545267.3661      -1161.992          15.000  
C33  22230420.200   115759618.731       -1310.885          26.000  
G10  20207103.813   106189076.728        -726.968          26.000  
G12  22232893.788   116834677.033       -2346.306          26.000  
G31  22098390.702   116127872.993         725.414          24.000  
G32  22003451.827   115628898.307        -126.922          37.000    22003453.026    86346251.415         -94.536          24.000  
J01  38218797.177   200841038.461        -217.224          24.000  
> 2021  9 12 10 19 22.9998858  0  7
C06  36674967.049   190976155.376       -1492.931          28.000  
C25  21805158.003   113545178.707       -1157.866          25.000  
C33  22230430.693   115759681.052       -1311.045          30.000  
G12  22233097.947   116835762.560       -2344.204          22.000  
G31  22098010.266   116125886.618         724.850          23.000  
G32  22003233.279   115627764.377        -126.391          36.000    22003236.876    86345405.519         -95.976          23.000  
J01  38218599.014   200839994.869        -216.921          24.000  
> 2021  9 12 10 19 23.9998848  0  6
C06  36674952.958   190976087.167       -1492.975          27.000  
C25  21805078.858   113544775.298       -1156.915          23.000  
C33  22230382.726   115759431.807       -1312.342          31.000  
G31  22097572.269   116123586.455         723.628          21.000  
G32  22002958.968   115626315.282        -127.129          36.000    22002960.767    86344323.768         -93.096          26.000  
J01  38218339.994   200838636.729        -217.797          29.000  
> 2021  9 12 10 19 24.9998840  0  6
C06  36674998.827   190976331.308       -1493.279          28.000  
C25  21805059.671   113544680.899       -1152.615          27.000  
C33  22230394.718   115759495.336       -1311.956          30.000  
G10  20206746.161   106187164.5131       -729.893          26.000  
G32  22002742.818   115625181.366        -125.662          34.000  
J01  38218138.833   200837593.773        -216.959          27.000  
> 2021  9 12 10 19 25.9998833  0  4
C06  36675075.873   190976730.891       -1492.064          28.000  
C25  21805069.265   113544740.315       -1152.071          31.000  
G10  20206674.810   106186792.176        -731.042          31.000  
G32  22002562.643   115624204.403        -126.321          30.000  
> 2021  9 12 10 19 26.9998825  0  6
C25  21805049.179   113544644.033       -1152.884          31.000  
C33  22230448.980   115759775.3171      -1310.469          17.000  
G10  20206573.780   106186263.472        -732.134          31.000  
G12  22233899.292   116839950.7741      -2350.125          26.000  
G31  22096460.039   116117793.5031        722.724          18.000  
J01  38217767.990   200835664.6991       -217.099          21.000  
> 2021  9 12 10 19 27.9998815  0  4
C25  21804969.434   113544235.863       -1153.175          31.000  
G10  20206417.588   106185418.720        -731.888          32.000  
G12  22234054.584   116840726.920       -2351.593          23.000  
J01  38217508.669   200834306.107        -216.402          24.000  
> 2021  9 12 10 19 28.9998804  0  5
C25  21804860.010   113543672.258       -1154.662          31.000  
G10  20206227.520                        -733.512          32.000  
G31  22095550.169   116113043.0171        719.150          17.000  
G32  22001752.604   115620016.5271       -126.215          20.000  
J01  38217218.770   200832789.762        -216.489          25.000  
> 2021  9 12 10 19 29.9998799  0  4
C25  21804931.660   113544046.432       -1155.079          32.000  
G10  20206222.423   106184387.2691       -730.394          33.000  
G32  22001626.091   115619355.280        -126.285          26.000  
J01  38217108.746   200832218.423        -215.355          23.000  
> 2021  9 12 10 19 30.9998789  0  7
C25  21804854.913   113543640.428       -1156.073          29.000  
C33  22230365.638   115759405.7831      -1314.739          21.000  
G10  20206059.636   106183544.513        -733.225          31.000  
G12  22234627.188   116843685.3761      -2350.148          24.000  
G31  22094823.172   116109244.3471        718.631          16.000  
G32  22001347.284   115617906.268        -126.698          26.000  
J01  38216848.526   200830858.212        -214.317          22.000  
> 2021  9 12 10 19 31.9998781  0  7
C25  21804836.326   113543547.545       -1156.492          30.000  
C33  22230376.730   115759472.157       -1314.948          21.000  
G10  20205952.310   106183017.567        -734.014          31.000  
G12  22234856.829   116844774.758       -2350.442          25.000  
G31  22094448.132   116107263.716         721.589          16.000  
G32  22001130.234   115616773.120        -126.996          27.000  
J01  38216649.164   200829811.981        -214.375          23.000  
> 2021  9 12 10 19 32.9998771  0  3
C06  36675217.675   190977503.7121      -1487.946          16.000  
C25  21804757.780   113543142.957       -1156.295          30.000  
G32  22000854.425   115615324.172        -126.487          27.000  
> 2021  9 12 10 19 33.9998766  0  4
C25  21804829.131   113543518.893       -1156.980          29.000  
G10  20205790.123   106182123.4981       -735.248          31.000  
G32  22000729.712   115614662.765        -126.329          28.000  
J01  38216286.415   200827876.8201       -215.700          23.000  
> 2021  9 12 10 19 34.9998756  0  4
C25  21804752.084   113543115.797       -1159.766          29.000  
G10  20205627.935   106181283.833        -735.360          32.000  
G31  22093292.132   116101164.4681        720.068          16.000  
J01  38216030.692   200826518.843        -218.631          23.000  
> 2021  9 12 10 19 35.9998746  0  4
C25  21804674.438   113542714.168       -1159.262          29.000  
G10  20205464.848   106180445.056        -736.171          32.000  
G32  22000179.892   115611765.2841       -127.358          28.000  
J01  38215777.368   200825162.750        -219.298          24.000  
> 2021  9 12 10 19 36.9998738  0  6
C06  36675375.666   190978316.6591      -1498.799          13.000  
C25  21804657.350   113542624.348       -1159.691          28.000  
G10  20205368.914   106179922.131        -738.623          33.000    20205367.115    79290185.4861       -551.908          26.000  
G31  22092485.990   116096889.5871        718.692          17.000  
G32  21999964.941   115610632.342        -127.559          30.000  
J01  38215582.203   200824121.888        -219.607          26.000  
> 2021  9 12 10 19 37.9998730  0  5
C06  36675423.333   190978567.088       -1503.302          13.000  
C25  21804639.962   113542535.671       -1160.294          29.000  
G10  20205272.081   106179399.932        -740.444          33.000    20205266.985    79289794.709        -548.603          26.000  
G32  21999750.590   115609499.521        -127.485          29.000  
J01  38215386.438   200823081.995        -220.833          25.000  
> 2021  9 12 10 19 38.9998723  0  5
C06  36675502.778   190978977.426       -1500.854          12.000  
C25  21804653.752   113542602.948       -1159.690          29.000  
G10                                                                  20205197.133    79289522.759        -553.513          26.000  
G32  21999565.318   115608524.268        -127.924          28.000  
J01  38215221.253   200822199.123        -219.852          23.000  
> 2021  9 12 10 19 39.9998712  0  6
C25  21804547.626   113542045.548       -1160.079          29.000  
G10  20205008.863   106178042.5691       -739.614          32.000    20205008.564    79288782.138        -552.948          26.000  
G12  22236441.232   116853288.1201      -2357.325          25.000  
G31  22091306.007   116090644.1321        713.193          18.000  
G32  21999259.829   115606918.972        -127.610          28.000  
J01  38214935.251   200820686.269        -220.725          23.000  
> 2021  9 12 10 19 40.9998705  0  5
C25  21804560.517   113542113.242       -1161.244          29.000  
G10  20204942.310   106177680.059        -739.867          32.000    20204939.012    79288511.540        -552.964          26.000  
G31  22090958.847   116088827.366         714.733          18.000  
G32  21999074.857   115605943.709        -127.608          27.000  
J01  38214769.466   200819803.790        -220.205          21.000  
> 2021  9 12 10 19 41.9998697  0  5
C25  21804544.328   113542025.814       -1161.728          30.000  
G10  20204842.778   106177160.728        -741.259          33.000    20204839.780    79288124.317        -554.696          26.000  
G12  22236901.114   116855641.9111      -2359.285          26.000  
G31  22090587.105   116086851.704         715.526          18.000  
G32  21998859.307   115604811.094        -127.743          28.000  
> 2021  9 12 10 19 42.9998687  0  4
C25  21804466.982   113541627.129       -1163.031          28.000  
G10  20204681.190   106176326.994        -743.005          33.000    20204681.490    79287502.680        -554.586          25.000  
G32  21998585.296   115603363.411        -127.890          27.000  
J01  38214313.181   200817409.5261       -219.524          22.000  
> 2021  9 12 10 19 43.9998679  0  6
C25  21804451.992   113541541.933       -1164.392          29.000  
G10  20204586.756   106175808.975        -742.729          32.000    20204583.458    79287116.652        -555.496          26.000  
G12  22237275.854   116857526.6851      -2361.513          26.000  
G23  20886878.115   109761410.7491      -3212.756          22.000  
G32  21998369.446   115602230.982        -128.036          26.000  
J01  38214116.218   200816368.032        -218.131          24.000  
> 2021  9 12 10 19 44.9998669  0  6
C25  21804376.744   113541145.078       -1164.382          29.000  
G10  20204422.170   106174976.645        -741.764          33.000    20204423.968    79286494.060        -553.670          26.000  
G23  20887189.000   109763048.192       -3212.994          23.000  
G31  22089341.167   116080294.8841        715.104          18.000  
G32  21998094.836   115600783.637        -128.111          27.000  
J01  38213855.998   200815010.167        -217.978          26.000  
> 2021  9 12 10 19 45.9998664  0  5
C25  21804450.193   113541529.749       -1165.340          28.000  
G10  20204417.373   106174932.657        -744.498          33.000    20204414.975    79286459.739        -555.307          25.000  
G23  20887653.978   109765473.773       -3213.580          20.000  
G32  21997971.321   115600124.243        -128.686          29.000  
J01  38213746.874   200814440.659        -218.872          26.000  
> 2021  9 12 10 19 46.9998653  0  5
C25  21804345.865   113540977.493       -1165.180          28.000  
G10                                                                  20204227.904    79285721.529        -555.877          25.000  
G23  20887937.582   109766954.876       -3213.903          22.000  
G32  21997668.531   115598519.750        -128.341          28.000  
J01  38213457.574   200812926.066        -219.477          24.000  
> 2021  9 12 10 19 47.9998646  0  5
C25  21804360.855   113541050.021       -1166.321          29.000  
G10  20204162.849   106173586.4991       -745.527          32.000    20204160.151    79285456.089        -557.889          25.000  
G23  20888340.203   109769066.485       -3214.986          21.000  
G32  21997483.859   115597545.217        -128.489          26.000  
J01  38213290.290   200812043.639        -221.281          24.000  
> 2021  9 12 10 19 48.9998636  0  5
C25  21804284.708   113540655.979       -1167.874          28.000  
G10  20204003.060   106172756.914        -747.037          32.000    20204002.460    79284837.341        -557.527          26.000  
G23  20888653.486   109770706.020       -3214.853          22.000  
G32  21997208.949   115596098.524        -128.557          26.000  
J01  38213031.869   200810688.337        -219.278          25.000  
> 2021  9 12 10 19 49.9998628  0  6
C25  21804270.318   113540575.040       -1167.524          28.000  
G10  20203906.826   106172243.050        -744.740          32.000    20203905.028    79284453.461        -558.544          26.000  
G23  20889021.331   109772661.098       -3215.388          23.000  
G31  22087445.280   116070263.2151        714.941          16.000  
G32  21996992.499   115594966.729        -128.557          27.000  
J01  38212833.706   200809647.223        -219.224          25.000  
> 2021  9 12 10 19 50.9998620  0  7
C25  21804255.628   113540494.273       -1168.541          29.000  
G10  20203809.094   106171729.947        -749.181          32.000    20203807.595    79284071.312        -558.783          26.000  
G12  22238660.596   116864779.6881      -2365.283          26.000  
G23  20889392.774   109774619.015       -3219.954          22.000  
G32  21996776.948   115593835.004        -129.437          27.000  
J01  38212634.644   200808605.379        -219.372          26.000  
R12  19064256.290   101837836.0421      -1184.599          26.000  
> 2021  9 12 10 19 51.9998610  0  6
C25  21804179.481   113540101.675       -1168.366          27.000  
G10  20203648.105   106170902.309        -747.094          32.000    20203650.504    79283453.946        -559.471          27.000  
G23  20889705.758   109776262.898       -3218.967          23.000  
G32  21996500.540   115592388.692        -129.281          27.000  
J01  38212376.822   200807249.547        -219.813          24.000  
R12  19064177.744   101837415.841       -1185.043          27.000  
> 2021  9 12 10 19 52.9998602  0  6
C25  21804163.891   113540021.191       -1168.455          28.000  
G10  20203550.373   106170390.401        -748.391          32.000    20203552.771    79283072.235        -559.599          26.000  
G23  20890077.500   109778222.335       -3220.036          23.000  
G32  21996284.689   115591257.056        -128.862          28.000  
J01  38212177.760   200806208.672        -218.552          24.000  
R12  19064159.157   101837317.289       -1184.679          26.000  
> 2021  9 12 10 19 53.9998595  0  6
C25  21804178.281   113540096.768       -1168.284          29.000  
G10  20203482.320   106170036.603        -748.035          32.000    20203485.918    79282808.642        -559.651          27.000  
G23  20890478.623   109780338.487       -3218.873          24.000  
G32  21996099.117   115590283.285        -129.025          26.000  
J01  38212010.476   200805324.357        -218.082          26.000  
R12  19064169.650   101837372.548       -1188.265          27.000  
> 2021  9 12 10 19 54.9998587  0  5
C25  21804162.392   113540016.844       -1169.592          32.000  
G10  20203387.286   106169525.837        -750.216          29.000    20203388.785    79282427.466        -560.990          26.000  
G12  22239469.436   116869050.1231      -2370.042          28.000  
G32  21995883.267   115589151.636        -129.000          32.000  
J01  38211814.112   200804281.481        -216.892          23.000  
> 2021  9 12 10 19 55.9998577  0  5
C25  21804086.845   113539625.460       -1170.558          30.000  
G10  20203228.996   106168700.458        -748.613          27.000    20203231.994    79281810.664        -559.122          25.000  
G12  22239594.149   116869844.580       -2369.734          25.000  
G32  21995607.758   115587705.007        -128.815          36.000  
J01  38211552.093   200802923.287        -217.999          26.000  
> 2021  9 12 10 19 56.9998566  0  7
C25  21803980.119   113539078.640       -1170.825          29.000  
G10  20203043.424   106167718.265        -750.946          30.000    20203045.223    79281076.666        -561.548          24.000  
G12  22239682.888   116870481.162       -2368.986          22.000  
G23  20891452.648   109785426.5411      -3219.221          18.000  
G31  22084642.820   116055489.0291        720.294          16.000  
G32  21995303.468   115586100.586        -128.495          37.000  
J01  38211261.294   200801408.183        -218.292          27.000  
> 2021  9 12 10 19 57.9998559  0  9
C25  21803993.010   113539156.973       -1171.059          28.000  
C33  22230320.669   115759185.8921      -1325.414          31.000  
G10  20202972.373   106167366.875        -751.293          30.000    20202978.369    79280814.311        -560.166          26.000  
G12  22239898.738   116871456.778       -2369.472          21.000  
G23  20891856.769   109787543.883       -3220.931          20.000  
G31  22084296.859   116053666.586         717.741          16.000  
G32  21995122.094   115585126.352        -129.068          37.000  
J01  38211090.113   200800523.063        -217.777          25.000  
R12  19063963.393   101836271.0221      -1191.079          15.000  
> 2021  9 12 10 19 58.9998551  0  6
C25  21803978.020   113539079.264       -1171.552          28.000  
C33  22230339.256   115759262.686       -1326.126          30.000  
G10  20202877.039   106166858.574        -753.209          30.000    20202882.436    79280434.395        -561.622          26.000  
G23  20892232.408   109789505.174       -3221.210          23.000  
G32  21994906.243                        -128.309          37.000  
R12  19063946.305   101836179.416       -1185.318          15.000  
> 2021  9 12 10 19 59.9998543  0  7
C25  21803962.731   113539001.912       -1171.987          29.000  
C33  22230357.844   115759340.202       -1326.758          31.000  
G10  20202779.907   106166350.940        -751.709          30.000    20202786.502    79280055.568        -563.950          26.000  
G23  20892608.948   109791466.029       -3220.758          20.000  
G31  22083550.076   116049720.6001        709.068          14.000  
G32  21994693.990   115582881.5911       -128.997          37.000  
J01  38210688.091   200798440.3451       -219.509          23.000  
> 2021  9 12 10 20  0.9998533  0  7
C25  21803888.382   113538613.313       -1172.925          30.000  
C33  22230314.973   115759105.680       -1326.655          32.000  
G10  20202625.813   106165529.213        -753.250          29.000    20202630.010    79279441.562        -560.844          25.000  
G23  20892920.132   109793111.373       -3220.985          21.000  
G31  22083118.975   116047436.535         708.286          14.000  
G32  21994416.682   115581434.806        -128.847          37.000  
J01  38210429.070   200797085.619        -221.821          24.000  
> 2021  9 12 10 20  1.9998525  0  8
C25  21803873.393   113538536.933       -1173.024          29.000  
C33  22230329.663   115759184.033       -1326.708          34.000  
G10  20202527.481   106165022.125        -753.264          29.000    20202533.177    79279061.741        -562.374          25.000  
G23  20893293.374   109795071.294       -3220.718          21.000  
G31  22082746.633   116045469.469         706.007          16.000  
G32  21994199.333   115580303.107        -127.650          36.000  
J01  38210229.109   200796046.080        -220.770          24.000  
R12  19063838.679   101835604.9421      -1190.991          16.000  
> 2021  9 12 10 20  2.9998518  0  7
C25  21803886.883   113538617.710       -1173.514          26.000  
C33  22230375.231                       -1327.708          31.000  
G10  20202463.026   106164672.815        -754.176          26.000    20202466.324    79278800.745        -562.933          26.000  
G12  22240857.475   116876495.8601      -2376.407          26.000  
G23  20893697.794   109797189.980       -3222.302          21.000  
G32  21994011.962   115579328.925        -127.957          37.000  
J01  38210057.028   200795163.993        -220.842          25.000  
> 2021  9 12 10 20  3.9998508  0  8
C06  36676225.877   190982733.4091      -1492.599          27.000  
C25  21803811.036   113538230.217       -1174.014          27.000  
C33  22230328.764   115759165.1861      -1329.192          28.000  
G10  20202303.836   106163851.923        -754.553          27.000    20202309.832    79278187.860        -564.237          26.000  
G23  20894010.478   109798837.491       -3223.567          24.000  
G31  22081976.166   116041380.6931        704.188          18.000  
G32  21993732.856   115577882.194        -129.653          37.000  
J01  38209798.307   200793809.000        -220.124          25.000  
> 2021  9 12 10 20  4.9998500  0  7
C06  36676272.045   190982976.890       -1491.957          27.000  
C25  21803796.346   113538155.490       -1174.736          25.000  
C33  22230342.854   115759244.724       -1328.778          28.000  
G10  20202202.806   106163347.374        -756.511          18.000    20202214.498    79277811.974        -565.798          28.000  
G23  20894382.820   109800801.254       -3224.563          25.000  
G32  21993518.504   115576750.818        -127.803          37.000  
J01  38209599.545   200792768.506        -219.457          27.000  
> 2021  9 12 10 20  5.9998490  0  9
C06  36676258.255   190982908.003       -1492.224          27.000  
C25  21803723.197   113537768.387       -1172.754          23.000  
C33  22230296.086   115759012.314       -1323.357          29.000  
G10  20202047.813   106162528.493        -756.649          24.000    20202058.306    79277201.343        -566.749          27.000  
G23  20894694.304   109802450.873       -3225.671          25.000  
G31  22081162.829   116037135.1871        704.822          20.000  
G32  21993247.492   115575304.438        -128.671          36.000  
J01  38209340.524   200791412.644        -220.070          27.000  
R12  19063676.491   101834738.0301      -1198.267          21.000  
> 2021  9 12 10 20  6.9998484  0  9
C06  36676364.981   190983462.972       -1491.479          29.000  
C25  21803770.564   113538004.500       -1173.301          23.000  
C33  22230369.835   115759402.817       -1329.522          27.000  
G10  20202013.637   106162340.259        -757.373          31.000    20202021.731    79277062.391        -566.410          24.000  
G23  20895126.305   109804731.495       -3225.981          22.000  
G31  22080849.246   116035485.305         704.138          19.000  
G32  21993093.698   115574487.801        -128.223          34.000  
J01  38209203.219   200790686.494        -218.633          28.000  
R12  19063723.559   101834990.092       -1198.101          22.000  
> 2021  9 12 10 20  7.9998474  0  9
C06  36676351.190   190983393.340       -1491.360          32.000  
C25  21803696.515   113537618.511       -1176.232          20.000  
C33  22230324.567   115759171.299       -1329.910          28.000  
G10  20201859.244   106161522.460        -757.994          31.000    20201865.540    79276453.332        -566.649          24.000  
G23  20895437.190   109806382.154       -3226.573          20.000  
G31  22080418.744   116033205.726         704.543          19.000  
G32  21992815.491   115573041.350        -128.672          35.000  
J01  38208945.098   200789330.099        -220.091          25.000  
R12  19063657.005   101834634.376       -1201.257          22.000  
> 2021  9 12 10 20  8.9998467  0  7
C06  36676428.537   190983791.790       -1492.069          32.000  
C33  22230369.835   115759408.957       -1330.816          28.000  
G10  20201795.388   106161177.904        -758.728          27.000    20201799.885    79276197.921        -566.777          25.000  
G23  20895843.409   109808506.153       -3226.786          21.000  
G32  21992630.519   115572067.402        -128.753          33.000  
J01  38208776.015   200788447.978        -221.299          27.000  
R12  19063677.391   101834743.483       -1200.789          21.000  
> 2021  9 12 10 20  9.9998456  0  8
C06  36676385.667   190983567.916       -1493.306          31.000  
C25  21803608.376   113537166.9921      -1181.446          16.000  
C33  22230296.386   115759022.408       -1330.737          31.000  
G10  20201612.515   106160203.901        -759.418          33.000    20201614.913    79275470.850        -566.052          26.000  
G31  22079604.208   116028954.1971        709.361          17.000  
G32  21992327.129   115570463.282        -129.407          35.000  
J01  38208488.214   200786936.340        -221.669          24.000  
R12  19063570.665   101834173.358       -1198.196          24.000  
> 2021  9 12 10 20 10.9998449  0  7
C06  36676461.814   190983967.954       -1492.682          31.000  
C33  22230342.254   115759260.077       -1330.833          31.000  
G10  20201549.258   106159860.767        -759.986          34.000    20201549.558    79275213.822        -566.418          27.000  
G31  22079262.744   116027147.814         698.023          15.000  
G32  21992144.555   115569489.423        -128.133          34.000  
J01  38208319.731   200786053.798        -219.831          24.000  
R12  19063581.757   101834232.351       -1200.210          22.000  
> 2021  9 12 10 20 11.9998441  0  9
C06  36676509.181   190984211.024       -1492.060          31.000  
C25  21803619.468   113537188.7151      -1182.307          19.000  
C33  22230357.544   115759341.278       -1329.998          28.000  
G10  20201456.922   106159360.291        -757.706          34.000    20201455.124    79274839.325        -566.610          27.000  
G12  22242610.661   116885765.7191      -2379.059          25.000  
G31  22078888.603   116025184.112         698.630          15.000  
G32  21991926.306   115568357.818        -129.451          34.000  
J01  38208120.369   200785011.799        -217.402          24.000  
R12  19063563.769   101834136.693       -1200.762          22.000  
> 2021  9 12 10 20 12.9998431  0  9
C06  36676495.990   190984141.674       -1491.860          30.000  
C25  21803549.916   113536810.808       -1184.182          19.000  
C33  22230313.474   115759110.624       -1330.662          29.000  
G10  20201301.930                        -760.492          34.000    20201299.831    79274229.656        -567.408          27.000  
G23  20897230.249   109815749.4431      -3229.804          17.000  
G31  22078463.498   116022915.812         690.099          11.000  
G32  21991644.501   115566911.183        -128.616          29.000  
J01  38207861.348   200783654.039        -218.853          23.000  
R12  19063492.719   101833756.673       -1201.233          24.000  
> 2021  9 12 10 20 13.9998423  0  7
C06  36676542.458   190984384.670       -1491.952          30.000  
C33  22230329.363   115759192.026       -1330.870          27.000  
G10  20201205.996   106158060.0371       -760.491          34.000    20201205.097    79273856.645        -569.052          27.000  
G31  22078093.854   116020962.778         696.371          12.000  
G32  21991429.850   115565779.896        -128.236          31.000  
J02  37800572.908   198643351.9271      -1974.920          25.000  
R12  19063474.431   101833659.027       -1204.634          22.000  
> 2021  9 12 10 20 14.9998415  0  6
C06  36676588.926   190984627.650       -1491.589          30.000  
C33  22230343.154   115759274.448       -1332.115          25.000  
G10  20201109.763   106157561.771        -760.079          32.000    20201110.063    79273486.349        -571.023          26.000  
G32  21991213.999   115564648.461        -128.215          31.000  
J02  37800708.714   198644065.987       -1974.229          24.000  
R12  19063461.840   101833592.279       -1205.776          21.000  
> 2021  9 12 10 20 15.9998408  0  8
C06  36676665.073   190985026.123       -1490.887          31.000  
C33  22230389.622   115759514.066       -1332.828          29.000  
G10  20201046.806   106157220.663        -759.525          33.000    20201045.907    79273233.696        -569.233          27.000  
G12  22243451.879   116890098.2991      -2382.852          19.000  
G32  21991031.426   115563674.287        -129.648          32.000  
J01  38207306.132   200780688.4801       -219.317          20.000  
J02  37800875.998   198644937.869       -1975.099          24.000  
R12  19063478.029   101833678.691       -1207.372          21.000  
> 2021  9 12 10 20 16.9998397  0  6
C06  36676620.404   190984799.283       -1489.839          27.000  
C33  22230315.573   115759129.149       -1332.334          27.000  
G10                                                                  20200861.235    79272507.616        -567.586          26.000  
G32  21990720.541   115562069.652        -129.301          29.000  
J01  38207018.931   200779175.214        -220.338          22.000  
R12  19063378.797   101833148.574       -1207.171          25.000  
> 2021  9 12 10 20 17.9998387  0  7
C06  36676607.213   190984727.873       -1490.354          27.000  
C33  22230275.101   115758901.044       -1334.279          25.000  
G10  20200706.842   106155436.6011       -763.504          20.000    20200705.942    79271900.846        -571.599          25.000  
G12  22243734.283   116891554.7511      -2382.549          29.000  
G32  21990445.032   115560623.428        -129.130          28.000  
J01  38206760.810   200777819.445        -219.446          28.000  
R12  19063308.046   101832770.444       -1208.088          27.000  
> 2021  9 12 10 20 18.9998382  0  8
C06  36676745.717   190985437.998       -1491.059          27.000  
C33  22230381.527   115759454.289       -1333.735          25.000  
G10                                                                  20200702.045    79271883.568        -571.043          25.000  
G12  22244039.772   116893149.798       -2383.772          30.000  
G31  22076196.167   116011008.3971        701.055          13.000  
G32  21990320.018   115559964.769        -129.506          28.000  
J01  38206651.985   200777250.441        -218.709          29.000  
R12  19063389.290   101833204.343       -1209.609          27.000  
> 2021  9 12 10 20 19.9998372  0  7
C06  36676732.826   190985368.092       -1491.729          29.000  
C33  22230336.558   115759227.345       -1334.017          26.000  
G10  20200544.954   106154599.4711       -762.315          24.000    20200547.352    79271278.731        -571.530          26.000  
G12  22244197.163   116893958.228       -2384.115          30.000  
G32  21990044.509   115558518.219        -127.122          26.000  
J01  38206392.965   200775893.226        -218.130          29.000  
R12  19063321.237   101832840.857       -1209.015          26.000  
> 2021  9 12 10 20 20.9998364  0  6
C06  36676780.493   190985610.868       -1491.456          29.000  
G10  20200448.421   106154102.555        -765.453          27.000    20200452.618    79270910.126        -575.052          26.000  
G12  22244416.011   116895082.223       -2385.101          29.000  
G32  21989826.860   115557384.763        -127.020          23.000  
J01  38206193.003   200774850.661        -217.721          29.000  
R12  19063307.147   101832765.278       -1211.598          27.000  
> 2021  9 12 10 20 21.9998354  0  8
C06  36676767.602   190985540.928       -1491.840          29.000  
C25  21803269.611   113535419.2921      -1183.135          27.000  
C33  22230307.478   115759085.7471      -1334.814          25.000  
G10  20200294.027   106153292.895        -765.122          29.000    20200299.124    79270307.644        -574.929          25.000  
G12  22244575.201   116895892.707       -2386.544          29.000  
G32  21989548.652   115555935.819        -126.769          22.000  
J01  38205934.582   200773493.843        -218.984          29.000  
R12  19063231.899   101832363.121       -1212.722          26.000  
> 2021  9 12 10 20 22.9998346  0  9
C06  36676813.171   190985782.942       -1490.982          28.000  
C25  21803256.719   113535353.851       -1183.702          27.000  
C33  22230321.868   115759171.512       -1334.605          25.000  
G10  20200198.394   106152798.197        -766.383          26.000    20200205.289    79269941.891        -575.123          24.000  
G12  22244788.353   116897018.177       -2385.130          28.000  
G31  22074589.580   116002527.7661        701.887          14.000  
G32  21989332.502   115554802.929        -127.305          27.000  
J01  38205735.220   200772452.834        -219.735          30.000  
R12  19063217.809   101832288.805       -1215.168          26.000  
> 2021  9 12 10 20 23.9998339  0  8
C06  36676889.917   190986180.786       -1490.907          28.000  
C25  21803273.808   113535444.876       -1184.199          27.000  
C33  22230366.837   115759413.578       -1335.947          23.000  
G10  20200133.039   106152462.805        -768.027          28.000    20200141.433    79269693.685        -574.646          23.000  
G12  22245028.187   116898301.107       -2386.266          27.000  
G31  22074246.617   116000722.781         700.270          13.000  
J01  38205566.137   200771570.005        -220.005          30.000  
R12  19063230.700   101832356.721       -1215.215          26.000  
> 2021  9 12 10 20 24.9998328  0  8
C06  36676847.047   190985954.576       -1491.105          28.000  
C33  22230293.388   115759033.155       -1337.595          22.000  
G10  20199949.266   106151498.309        -768.531          27.000    20199957.061    79268973.128        -572.888          24.000  
G12  22245148.404   116898955.741       -2387.982          29.000  
G31  22073781.639   115998289.218         701.372          12.000  
G32  21988847.138   115552220.8131       -127.952          23.000  
J01  38205277.737   200770056.746        -218.875          28.000  
R12  19063123.974   101831786.883       -1216.840          27.000  
> 2021  9 12 10 20 25.9998321  0  5
C06  36676925.593   190986353.665       -1491.869          29.000  
G10  20199886.010   106151164.854        -769.660          28.000    20199892.605    79268721.982        -573.078          24.000  
G25  20852591.152                        -632.305          26.000  
J01  38205109.253   200769172.083        -217.929          29.000  
R12  19063138.364   101831863.960       -1216.103          26.000  
> 2021  9 12 10 20 26.9998313  0  8
C06  36676972.960   190986595.648       -1490.438          28.000  
C25  21803175.476   113534941.4601      -1185.467          26.000  
C33  22230354.246   115759364.4711      -1336.600          25.000  
G10  20199793.674   106150673.934        -769.798          28.000    20199799.670    79268353.983        -574.890          24.000  
G25  20852472.734                        -633.315          25.000  
G32  21988448.714   115550113.6231       -129.395          18.000  
J01  38204910.491   200768129.779        -218.565          29.000  
R12  19063126.372   101831799.584       -1215.563          27.000  
> 2021  9 12 10 20 27.9998305  0  7
C06  36677020.327   190986836.451       -1489.618          28.000  
C25  21803164.084   113534878.038       -1185.433          27.000  
C33  22230370.735   115759451.658       -1335.893          25.000  
G10  20199701.638   106150183.723        -770.634          29.000    20199706.434    79267987.896        -574.954          25.000  
G25  20852357.014   109579857.4171       -633.826          26.000  
J01  38204712.328   200767088.096        -218.855          29.000  
R12  19063116.479   101831746.636       -1216.665          27.000  
> 2021  9 12 10 20 28.9998295  0  7
C06  36677005.937   190986764.632       -1489.161          28.000  
C25  21803091.834   113534502.605       -1185.921          26.000  
C33  22230330.862   115759227.047       -1336.824          24.000  
G10  20199549.043   106149379.033        -770.243          27.000    20199553.540    79267386.687        -575.228          24.000  
G25  20852178.937   109578915.502        -634.359          26.000  
G32  21987961.851   115547537.0061       -129.975          26.000  
J01  38204454.806   200765731.263        -218.418          30.000  
> 2021  9 12 10 20 29.9998285  0  8
C06  36676992.147   190986693.708       -1490.709          28.000  
C25  21803018.984   113534127.903       -1187.362          24.000  
C33  22230287.392   115759002.759       -1337.175          24.000  
G10  20199395.549   106148574.072        -771.007          29.000    20199400.346    79266787.650        -575.732          24.000  
G25  20851997.562   109577974.459        -633.907          26.000  
G32  21987686.941   115546091.453        -129.810          23.000  
J01  38204197.584   200764374.154        -218.577          29.000  
R12  19062977.375   101831004.2141      -1218.817          28.000  
> 2021  9 12 10 20 30.9998280  0  6
C06  36677128.852   190987403.410       -1490.582          29.000  
C25  21803095.131   113534534.058       -1187.567          24.000  
C33  22230394.418   115759560.363       -1339.108          23.000  
G10  20199393.151   106148557.786        -771.302          29.000    20199396.449    79266774.088        -575.007          25.000  
J01  38204088.760   200763805.535        -220.040          30.000  
R12  19063060.118   101831446.300       -1219.164          29.000  
> 2021  9 12 10 20 31.9998269  0  8
C06  36677085.382   190987176.367       -1490.498          27.000  
C25  21802993.801   113534004.389       -1188.015          26.000  
C33  22230322.768   115759181.489       -1338.230          24.000  
G10  20199213.875   106147596.276        -772.125          28.000    20199213.575    79266054.831        -575.035          26.000  
G25  20851760.427   109576724.4971       -635.592          25.000  
G32  21987258.238   115543830.8491       -129.616          19.000  
J01  38203800.659   200762292.631        -219.884          29.000  
R12  19062956.690   101830893.348       -1220.542          28.000  
> 2021  9 12 10 20 32.9998262  0  9
C06  36677161.230   190987574.219       -1490.825          28.000  
C25  21803012.688   113534099.512       -1188.265          24.000  
C33  22230372.533   115759427.781       -1339.345          26.000  
G10  20199151.818   106147266.228        -773.400          27.000    20199150.619    79265806.751        -577.902          25.000  
G25  20851671.688   109576257.264        -636.020          25.000  
G31  22070745.041   115982322.7841        693.064          17.000  
G32  21987066.970   115542857.422        -128.959          19.000  
J01  38203632.176   200761409.796        -220.098          29.000  
R12  19062978.874   101831011.991       -1221.862          28.000  
> 2021  9 12 10 20 33.9998252  0  7
C06  36677146.840   190987504.312       -1491.758          27.000  
C25  21802940.738   113533727.138       -1189.698          21.000  
C33  22230330.862   115759206.363       -1340.009          22.000  
G10  20198998.624   106146464.591        -774.212          26.000    20198999.524    79265207.847        -578.314          22.000  
G25  20851496.010   109575318.330        -636.701          23.000  
J01  38203373.455   200760053.912        -218.873          30.000  
R12  19062907.824   101830632.366       -1221.291          28.000  
> 2021  9 12 10 20 34.9998246  0  6
C06  36677253.866   190988059.349       -1491.779          27.000  
C25  21802988.705   113533979.752       -1188.371          21.000  
C33  22230407.009   115759609.175       -1339.880          19.000  
G10  20198965.647   106146292.842        -773.638          25.000    20198968.045    79265080.743        -579.431          23.000  
J01  38203234.351   200759327.582        -218.839          28.000  
R12  19062953.392   101830875.367       -1222.717          25.000  
> 2021  9 12 10 20 35.9998236  0  6
C33  22230367.137   115759387.767       -1339.984          23.000  
G10  20198814.552   106145491.108        -773.792          25.000    20198814.552    79264483.280        -579.343          24.000  
G12  22247381.558   116910773.0461      -2388.595          22.000  
G25  20851262.471   109574073.9191       -639.647          22.000  
G32  21986366.955   115539147.9411       -130.575          24.000  
J01  38202980.727   200757970.668        -218.243          26.000  
> 2021  9 12 10 20 36.9998226  0  6
C06  36677230.781   190987919.0411      -1490.517          25.000  
C33  22230324.267   115759166.784       -1339.809          20.000  
G10  20198661.658   106144690.103        -775.165          20.000    20198663.156    79263886.549        -580.159          23.000  
G25  20851083.795   109573136.451        -637.738          21.000  
G31  22069141.451   115973879.0611        693.648          14.000  
J01  38202725.304   200756613.394        -218.557          23.000  
> 2021  9 12 10 20 37.9998218  0  8
C25  21802836.710   113533172.3341      -1188.645          17.000  
C33  22230341.055   115759256.937       -1338.319          21.000  
G10  20198566.623   106144205.791        -777.341          16.000    20198570.820    79263526.774        -581.689          24.000  
G12  22247759.597   116912722.0051      -2395.530          26.000  
G25  20850960.281   109572513.996        -639.280          23.000  
G31  22068763.413   115971925.190         693.130          13.000  
J01  38202527.441   200755571.288        -218.320          24.000  
R12  19062806.194   101830089.7601      -1226.759          20.000  
> 2021  9 12 10 20 38.9998211  0  6
C06  36677349.799   190988556.5661      -1490.068          24.000  
C25  21802856.796   113533268.447       -1189.236          17.000  
C33  22230387.523   115759503.374       -1342.606          21.000  
G10  20198501.568   106143880.241        -778.041          17.000    20198508.464    79263283.013        -579.846          25.000  
G25  20850874.240   109572051.953        -642.481          22.000  
R12  19062830.477   101830219.724       -1228.244          20.000  
> 2021  9 12 10 20 39.9998203  0  7
C06  36677393.569   190988797.285       -1490.187          24.000  
C33  22230401.913   115759596.700       -1341.631          20.000  
G10                                                                  20198415.828    79262921.421        -580.295          24.000  
G25  20850759.420   109571435.060        -645.366          23.000  
G32  21985479.869   115534499.8301       -135.586          16.000  
J01  38202157.197   200753640.5981       -216.955          22.000  
R12  19062821.483   101830170.760       -1229.442          20.000  
> 2021  9 12 10 20 40.9998193  0  6
C06  36677378.879   190988726.631       -1490.650          23.000  
C33  22230357.244   115759377.176       -1342.477          19.000  
G10  20198256.038   106142599.4511       -777.272          18.000    20198263.533    79262326.164        -581.058          24.000  
G12  22248376.869   116915977.1681      -2399.700          17.000  
G31  22067600.218   115965909.7171        691.917          10.000  
J01  38201898.476   200752282.250        -216.377          24.000  
> 2021  9 12 10 20 41.9998185  0  6
C06  36677424.447   190988968.595       -1490.752          23.000  
C33  22230377.030   115759470.569       -1341.360          19.000  
G10  20198162.503   106142116.443        -777.206          18.000    20198172.096    79261968.167        -584.245          25.000  
G25  20850462.925   109569890.7561       -644.474          22.000  
G31  22067224.578   115963957.605         690.877          11.000  
J01  38201697.615   200751238.909        -218.425          23.000  
> 2021  9 12 10 20 42.9998177  0  5
C06  36677471.215   190989210.291       -1489.501          24.000  
C33  22230395.318   115759563.504       -1342.201          19.000  
G12  22248807.071   116918257.0861      -2399.791          18.000  
J01  38201499.452   200750197.691        -220.007          25.000  
R12  19062744.437   101829759.8911      -1229.938          20.000  
> 2021  9 12 10 20 43.9998167  0  6
C06  36677457.425   190989137.751       -1487.782          24.000  
C25  21802687.713   113532346.9761      -1196.690          15.000  
G10  20197922.070   106140838.0271       -781.520          18.000  
G12  22248961.764   116919082.910       -2407.109          17.000  
J01  38201242.230   200748841.826        -219.154          24.000  
R12  19062677.283   101829400.470       -1227.475          19.000  
> 2021  9 12 10 20 44.9998159  0  8
C06  36677502.693   190989377.152       -1488.707          24.000  
C25  21802676.621   113532294.731       -1195.563          14.000  
C33  22230371.934   115759436.6641      -1344.138          19.000  
G10  20197829.733   106140359.068        -780.975          19.000  
G12  22249181.812   116920228.859       -2403.732          16.000  
G25  20850050.111   109567739.9011       -650.515          11.000  
G32  21984292.091   115528208.0811       -126.872          18.000  
J01  38201043.168   200747799.914        -218.732          26.000  
> 2021  9 12 10 20 45.9998149  0  6
C06  36677490.102   190989304.102       -1489.135          24.000  
G12  22249346.998   116921056.461       -2402.638          16.000  
G25  20849873.833   109566813.842        -644.690          11.000  
G32  21984012.685   115526759.996        -127.741          28.000  
J01  38200783.848   200746442.883        -217.817          27.000  
R12  19062596.639   101828969.9771      -1236.195          19.000  
> 2021  9 12 10 20 46.9998141  0  6
C33  22230351.548   115759310.9181      -1342.592          19.000  
G10  20197586.602   106139088.2071       -783.525          27.000  
G12  22249564.647   116922198.402       -2402.101          28.000  
G32  21983796.834   115525627.626        -127.840          24.000  
J01  38200584.186   200745400.557        -219.040          25.000  
R12  19062583.148   101828898.400       -1234.536          19.000  
> 2021  9 12 10 20 47.9998134  0  8
C06  36677608.520   190989939.2751      -1488.640          19.000  
C33  22230400.414   115759560.794       -1343.014          24.000  
G10  20197527.543   106138768.521        -783.059          29.000  
G12  22249812.875   116923497.764       -2402.404          30.000  
G25  20849665.777   109565739.6061       -645.210          15.000  
G32  21983609.164   115524652.596        -127.723          23.000  
J01  38200416.902   200744516.211        -217.948          28.000  
R12  19062602.335   101829000.141       -1234.017          24.000  
> 2021  9 12 10 20 48.9998126  0  7
C06  36677654.388   190990179.052       -1488.685          24.000  
C33  22230419.901   115759655.811       -1343.737          22.000  
G10  20197436.406   106138290.759        -782.641          31.000  
G25  20849549.757   109565123.961        -645.445          17.000  
G32  21983393.313   115523519.762        -128.353          23.000  
J01  38200219.938   200743473.584        -217.387          30.000  
R12  19062589.744   101828933.759       -1233.413          26.000  
> 2021  9 12 10 20 49.9998116  0  7
C06  36677640.598   190990106.406       -1488.864          31.000  
C33  22230378.829   115759438.327       -1343.393          25.000  
G12  22250189.714   116925467.8491      -2403.676          29.000  
G25  20849371.680   109564193.950        -645.944          24.000  
G32  21983116.305   115522073.128        -129.202          31.000  
J01  38199962.117   200742116.200        -218.248          28.000  
R12  19062516.594   101828542.842       -1234.229          29.000  
> 2021  9 12 10 20 50.9998108  0  8
C06  36677685.567   190990346.004       -1487.961          29.000  
C33  22230398.315   115759533.156       -1344.122          31.000  
G10  20197199.869   106137021.3991       -783.617          36.000  
G12  22250406.464   116926612.651       -2406.611          24.000  
G25  20849255.061   109563581.268        -648.909          22.000  
G32  21982898.956   115520941.533        -128.085          23.000  
J01  38199763.054   200741074.092        -217.907          28.000  
R12  19062506.701   101828489.271       -1235.463          29.000  
> 2021  9 12 10 20 51.9998100  0  7
C06  36677732.334   190990585.071       -1488.451          29.000  
C25  21802507.238   113531460.0091      -1197.023          29.000  
C33  22230416.303   115759629.179       -1345.483          24.000  
G10  20197108.133                        -785.518          35.000  
G32  21982680.407   115519808.721        -127.209          24.000  
J01  38199565.491   200740030.900        -216.079          26.000  
R12  19062495.909   101828432.035       -1236.711          26.000  
> 2021  9 12 10 20 52.9998090  0  8
C06  36677718.244   190990512.199       -1488.294          30.000  
C25  21802436.787   113531095.867       -1197.009          28.000  
G10  20196960.036   106135729.2731       -785.091          35.000  
G12  22250778.507   116928589.0021      -2405.906          26.000  
G25  20848968.160   109562045.8311       -650.747          19.000  
G32  21982403.399   115518360.278        -126.853          25.000  
J01  38199304.971   200738671.949        -216.528          26.000  
R12  19062423.659   101828046.374       -1237.130          26.000  
> 2021  9 12 10 20 53.9998083  0  8
C06  36677793.792   190990907.112       -1487.055          31.000  
C25  21802457.473   113531200.286       -1197.853          29.000  
C33  22230424.098   115759663.4771      -1344.675          23.000  
G10  20196902.176   106135411.407        -785.523          36.000  
G12  22251021.938   116929891.944       -2404.653          24.000  
G32  21982216.029   115517384.957        -127.622          28.000  
J01  38199135.889   200737786.833        -218.424          25.000  
R12  19062442.546   101828147.313       -1238.726          24.000  
> 2021  9 12 10 20 54.9998072  0  8
C06  36677750.022   190990677.272       -1487.771          29.000  
C25  21802358.241   113530680.575       -1197.697          29.000  
C33  22230352.147   115759291.027       -1345.171          30.000  
G10  20196719.002   106134463.853        -784.753          37.000  
G25  20848680.959   109560514.4351       -653.851          19.000  
G32                                                                  21981913.838    86261767.4031        -96.314          22.000  
J01  38198849.587   200736272.097        -218.693          26.000  
R12  19062345.713   101827629.753       -1239.261          24.000  
> 2021  9 12 10 20 55.9998067  0  7
C06  36677886.128   190991384.119       -1487.541          29.000  
C25  21802439.185   113531097.811       -1197.972          29.000  
C33  22230461.272   115759856.123       -1346.352          30.000  
G10  20196717.204                        -785.360          37.000  
G32                                                                  21981787.625    86261274.653         -95.721          20.000  
J01  38198741.961   200735703.551        -219.821          28.000  
R12  19062411.067   101827978.993       -1240.188          21.000  
> 2021  9 12 10 20 56.9998057  0  7
C06  36677872.637   190991310.035       -1487.106          30.000  
C25  21802369.634   113530734.529       -1197.720          29.000  
C33  22230419.901   115759641.219       -1346.286          29.000  
G10  20196568.207   106133673.9361       -787.833          35.000  
G32                                                                  21981514.514    86260194.978         -97.752          20.000  
J01  38198485.339   200734347.670        -218.432          26.000  
R12  19062340.017   101827598.974       -1240.511          21.000  
> 2021  9 12 10 20 57.9998047  0  7
C06  36677858.847   190991236.299       -1487.904          31.000  
C25  21802301.281   113530371.364       -1198.519          29.000  
C33  22230378.829   115759426.865       -1347.678          27.000  
G10  20196420.409   106132885.671        -787.379          34.000  
G12  22251766.323   116933846.6321      -2407.611          18.000  
G32  21981240.804                        -129.115          33.000    21981240.204    86259117.761         -99.446          21.000  
J01  38198228.117   200732991.012        -217.776          22.000  
> 2021  9 12 10 20 58.9998039  0  8
C06  36677904.715   190991475.162       -1488.055          29.000  
C25  21802294.086   113530321.676       -1199.041          30.000  
C33  22230397.416   115759524.815       -1346.198          24.000  
G10  20196332.270   106132413.055        -789.149          34.000  
G12  22251984.871   116934994.918       -2411.401          17.000  
G32  21981023.754   115511068.0171       -127.816          33.000    21981023.754    86258278.962        -101.768          19.000  
J01  38198029.954   200731948.173        -217.247          24.000  
R12  19062274.662   101827250.2611      -1239.602          17.000  
> 2021  9 12 10 20 59.9998031  0  9
C06  36677950.883   190991713.378       -1486.826          28.000  
C25  21802286.291   113530272.305       -1200.528          30.000  
C33  22230415.404   115759622.445       -1347.478          25.000  
G10  20196236.936   106131941.227        -790.981          33.000  
G12  22252202.821   116936146.391       -2411.307          17.000  
G25  20848089.768   109557325.3761       -656.164          18.000  
G32  21980810.901   115509935.855        -128.315          34.000    21980808.803    86257438.604        -100.682          18.000  
J01  38197830.592   200730904.434        -216.609          28.000  
R12  19062245.282   101827092.814       -1236.961          15.000  
> 2021  9 12 10 21  0.9998024  0  9
C06  36678026.431   190992107.122       -1486.699          28.000  
C25  21802307.876   113530380.351       -1200.779          31.000  
C33  22230463.970   115759877.123       -1347.198          26.000  
G10  20196182.674   106131627.582        -790.298          33.000  
G12  22252457.045   116937456.312       -2413.904          16.000  
G25  20848003.428   109556877.719        -655.820          19.000  
G32  21980627.728   115508961.251        -129.350          35.000  
J01  38197661.509   200730017.883        -216.240          28.000  
R12  19062260.572   101827174.482       -1237.904          14.000  
> 2021  9 12 10 21  1.9998013  0  8
C06  36677980.862   190991876.359       -1486.744          28.000  
C25  21802208.345   113529864.236       -1201.400          30.000  
C33  22230390.221   115759507.592       -1348.095          24.000  
G10  20196005.197   106130684.280        -790.678          33.000  
G12  22252587.154   116938137.148       -2413.333          16.000  
G23  20914915.605   109908689.7261      -3253.295          25.000  
G32  21980321.640   115507356.413        -129.522          35.000  
J01  38197374.008   200728501.872        -217.354          26.000  
> 2021  9 12 10 21  2.9998006  0  8
C06  36678056.110   190992270.163       -1487.445          28.000  
C25  21802229.930   113529972.658       -1201.204          28.000  
C33  22230438.188   115759763.009       -1348.056          23.000  
G12  22252839.280   116939447.274       -2412.794          17.000  
G23  20915323.923   109910840.867       -3254.351          25.000  
G25  20847717.126   109555355.9571       -657.694          19.000  
G32  21980132.771   115506381.870        -127.003          34.000  
J01  38197209.722   200727616.952        -217.837          26.000  
> 2021  9 12 10 21  3.9997998  0  9
C06  36678101.978   190992508.527       -1486.709          27.000  
C16  65484914.937                       -1026.390          24.000  
C25  21802220.637   113529925.903       -1203.130          28.000  
C33  22230457.375   115759863.273       -1350.052          24.000  
G10  20195849.005   106129902.2301       -790.731          30.000  
G12  22253072.818   116940599.411       -2412.276          18.000  
G23  20915705.858   109912835.040       -3255.146          23.000  
G25  20847602.305   109554752.353        -655.878          19.000  
G32  21979917.220   115505249.519        -126.410          35.000  
> 2021  9 12 10 21  4.9997988  0 11
C06  36678086.989   190992434.158       -1486.753          27.000  
C16  65484615.144                       -1026.390          23.000  
C25  21802152.284   113529567.504       -1202.511          30.000  
C33  22230417.202   115759652.353       -1350.273          22.000  
G10  20195701.507   106129118.034        -791.836          31.000  
G12  22253244.899   116941436.458       -2412.694          19.000  
G23  20916026.636   109914514.667       -3255.245          22.000  
G25  20847426.327   109553832.718        -655.666          20.000  
G32  21979642.610   115503801.935        -128.648          34.000  
J01  38196756.736   200725219.6421       -219.769          23.000  
R12  19062113.074   101826386.5321      -1246.555          15.000  
> 2021  9 12 10 21  5.9997980  0 10
C06  36678134.056   190992671.687       -1486.253          27.000  
C16  65484375.310                       -1026.390          24.000  
C25  21802144.789   113529520.769       -1201.839          29.000  
C33  22230437.588   115759753.737       -1350.919          24.000  
G10  20195614.867   106128649.513        -793.229          31.000  
G12  22253475.739   116942589.041       -2413.395          20.000  
G23  20916406.773   109916509.972       -3256.538          24.000  
G32  21979428.858   115502669.519        -126.536          35.000  
J01  38196559.472   200724178.344        -219.582          25.000  
R12  19062099.583   101826315.194       -1248.495          15.000  
> 2021  9 12 10 21  6.9997970  0  9
C06  36678119.666   190992597.001       -1486.873          27.000  
C16  65484075.518                       -1026.390          23.000  
C25  21802076.736   113529161.557       -1201.540          29.000  
C33  22230396.517   115759542.312       -1348.657          24.000  
G10  20195467.069   106127866.542        -794.023          31.000  
G12  22253646.921   116943704.159       -2414.210          21.000  
G23  20916726.052   109918191.337       -3256.954          22.000  
G32  21979152.449   115501221.947        -127.674          34.000  
J01  38196301.351   200722822.203        -218.751          24.000  
> 2021  9 12 10 21  7.9997965  0  9
C06  36678254.873   190993302.406       -1485.952          26.000  
C16  65483925.622                       -1977.658          23.000  
C25  21802157.680   113529582.724       -1202.819          29.000  
C33  22230504.442   115760110.477       -1348.941          25.000  
G10  20195464.671   106127872.026        -791.592          30.000  
G12  22253971.896   116945331.025       -2414.832          20.000  
G23  20917194.028   109920660.367       -3256.858          20.000  
G32  21979028.935   115500562.162        -127.913          34.000  
J01  38196192.526   200722251.699        -216.560          25.000  
> 2021  9 12 10 21  8.9997955  0  7
C06  36678239.883   190993226.737       -1484.660          25.000  
C16  65483625.829                       -1977.658          21.000  
C25  21802087.829   113529224.775       -1203.941          31.000  
C33  22230464.270   115759898.780       -1349.989          28.000  
G23  20917512.407   109922341.915       -3256.806          22.000  
G32  21978748.029   115499114.549        -130.120          33.000  
J01  38195933.206   200720892.268        -214.813          24.000  
> 2021  9 12 10 21  9.9997947  0  7
C06  36678285.751   190993463.299       -1486.310          26.000  
C16  65483385.995                       -1978.983          24.000  
C25  21802080.034   113529180.455       -1205.491          29.000  
C33  22230482.857   115759998.768       -1347.599          22.000  
G10  20195226.636   106126621.8971       -793.165          27.000  
G23  20917889.846   109924338.860       -3257.548          23.000  
J01  38195731.445   200719846.726        -214.672          20.000  
> 2021  9 12 10 21 10.9997937  0  8
C06  36678270.462   190993388.848       -1487.606          24.000  
C16  65483086.203                       -1028.125          23.000  
C25  21802012.581   113528824.880       -1205.238          30.000  
C33  22230441.186   115759786.053       -1350.158          23.000  
G10  20195076.140   106125840.465        -794.352          24.000  
G23  20918209.725   109926020.686       -3257.551          19.000  
G32  21978262.066   115496534.2941       -128.336          32.000  
J01  38195468.827   200718486.315        -214.851          24.000  
> 2021  9 12 10 21 11.9997929  0  8
C06  36678316.330   190993626.706       -1485.143          25.000  
C16  65482846.369                       -1028.125          20.000  
C25  21802004.486   113528781.726       -1206.148          31.000  
C33  22230461.871   115759886.742       -1349.779          25.000  
G10  20194989.799   106125374.881        -795.168          25.000  
G12  22254757.352   116949322.8381      -2416.888          22.000  
G32  21978040.819   115495401.728        -127.795          31.000  
J01  38195270.065   200717440.466        -214.831          23.000  
> 2021  9 12 10 21 12.9997921  0  6
C06  36678360.399   190993862.298       -1484.957          24.000  
C25  21801996.092   113528738.982       -1206.140          30.000  
C33  22230481.658   115759986.855       -1349.497          24.000  
G10  20194900.761   106124909.982        -795.903          25.000  
G32  21977824.069   115494269.125        -128.120          32.000  
J01  38195069.504   200716394.800        -214.621          23.000  
> 2021  9 12 10 21 13.9997911  0  7
C06  36678344.510   190993786.630       -1486.116          26.000  
C25  21801928.339   113528384.146       -1206.886          30.000  
C33  22230443.284   115759775.347       -1349.816          22.000  
G10  20194754.462   106124131.191        -797.198          22.000  
G23  20919285.980   109931700.5241      -3259.228          20.000  
G32  21977553.356   115492821.236        -127.923          32.000  
J01  38194809.584   200715034.654        -216.635          21.000  
> 2021  9 12 10 21 14.9997903  0  8
C06  36678388.280   190994023.638       -1485.776          25.000  
C16  65482066.908                       -1976.848          20.000  
C25  21801921.144   113528341.986       -1206.647          30.000  
C33  22230465.169   115759876.102       -1350.217          22.000  
G10  20194665.724   106123668.285        -797.722          24.000  
G32  21977337.506   115491688.511        -127.324          32.000  
J01  38194613.219   200713991.342        -217.898          24.000  
J02  37807933.712   198681902.9721      -1976.955          21.000  
> 2021  9 12 10 21 15.9997896  0  9
C06  36678463.828   190994417.402       -1485.648          25.000  
C23  52788865.029                       -1535.517          24.000  
C25  21801943.628   113528456.485       -1208.168          31.000  
C33  22230513.136   115760134.673       -1351.664          22.000  
G10  20194609.063   106123362.997        -797.303          23.000  
G12  22255636.943   116954161.9951      -2419.551          24.000  
G23  20920079.231   109935857.0941      -3261.163          21.000  
G32  21977152.834   115490713.295        -127.165          33.000  
J01  38194446.535   200713107.233        -218.848          22.000  
> 2021  9 12 10 21 16.9997888  0  8
C06  36678509.097   190994653.891       -1486.236          25.000  
C16  65481617.220                       -1976.848          22.000  
C23  52788625.195                       -1535.517          24.000  
C25  21801935.234   113528415.487       -1208.366          30.000  
C33  22230534.121   115760237.307       -1351.712          25.000  
G10  20194517.926   106122899.994        -797.910          24.000  
G12  22255865.085   116955321.564       -2420.523          22.000  
G32  21976936.983   115489580.676        -127.916          32.000  
> 2021  9 12 10 21 17.9997878  0 11
C06  36678494.407   190994580.112       -1487.840          25.000  
C16  65481317.427                       -1976.848          23.000  
C23  52788325.403                       -1535.517          22.000  
C25  21801867.481   113528062.687       -1208.669          30.000  
C33  22230496.348   115760029.122       -1353.440          29.000  
G10  20194373.126   106122122.252        -794.796          22.000  
G12  22256031.770   116956166.883       -2421.038          24.000  
G23  20920787.340   109939544.3941      -3262.380          19.000  
G25  20845750.487   109545122.9201       -659.645          17.000  
G32  21976659.675   115488132.956        -127.689          33.000  
J02  37808312.050   198683895.9121      -1979.044          20.000  
> 2021  9 12 10 21 18.9997868  0 11
C06  36678480.017   190994505.662       -1485.339          24.000  
C16  65481017.635                       -1976.848          22.000  
C23  52788025.610                       -1535.517          22.000  
C25  21801800.028   113527710.612       -1209.286          30.000  
C33  22230457.375   115759821.396       -1352.584          24.000  
G10  20194226.528   106121343.247        -797.085          23.000  
G12  22256197.255   116957012.496       -2421.509          24.000  
G23  20921109.617   109941232.172       -3263.969          20.000  
G25  20845573.310   109544208.593        -663.332          17.000  
G32  21976383.566   115486685.184        -128.925          31.000  
J01  38193731.230   200709357.0771       -220.217          19.000  
> 2021  9 12 10 21 19.9997862  0 10
C16  65480837.759                       -1976.848          24.000  
C23  52787845.735                       -1535.517          23.000  
C25  21801852.492   113527982.857       -1209.102          29.000  
C33  22230538.618   115760236.545       -1351.670          24.000  
G10  20194201.345   106121196.142        -798.447          21.000  
G12  22256482.358   116958488.511       -2422.172          24.000  
G23  20921550.612   109943550.282       -3263.289          20.000  
G25  20845516.949   109543926.112        -662.578          15.000  
G32  21976232.471   115485867.618        -127.767          32.000  
J01  38193593.925   200708630.925        -217.693          20.000  
> 2021  9 12 10 21 20.9997852  0  9
C06  36678565.757   190994977.0281      -1485.769          24.000  
C16  37327542.980                       -1468.143          23.000  
C23  52787545.942                         677.614          25.000  
C25  21801786.237   113527631.433       -1210.086          30.000  
C33  22230496.947   115760028.265       -1353.774          22.000  
G12  22256646.644   116959335.525       -2422.775          25.000  
G23  20921870.790   109945237.221       -3262.430          21.000  
G32  21975954.263   115484419.723        -127.156          32.000  
J01  38193334.305   200707272.350        -216.023          21.000  
> 2021  9 12 10 21 21.9997844  0  8
C06  36678611.326   190995213.144       -1485.153          24.000  
C16  37327584.651                       -1467.283          21.000  
C23  24245785.492                        1197.017          23.000  
C25  21801778.443   113527592.058       -1209.583          31.000  
C33  22230517.633   115760132.674       -1353.918          26.000  
G10  20193962.711   106119961.4071       -802.239          24.000  
G23  20922250.927   109947239.940       -3262.633          22.000  
J01  38193132.844   200706227.496        -214.383          25.000  
> 2021  9 12 10 21 22.9997834  0 11
C06  36678597.535   190995137.188       -1485.410          24.000  
C16  37327565.164   194374435.2651      -1466.379          21.000  
C23  24245256.058                        1197.161          23.000  
C25  21801710.690   113527241.062       -1210.898          30.000  
C33  22230478.660   115759926.139       -1354.543          28.000  
G10  20193815.213   106119187.858        -801.785          22.000  
G12  22257033.676   116961347.7441      -2422.840          25.000  
G23  20922574.103   109948926.512       -3262.251          23.000  
G25  20845053.770   109541517.4611       -668.575          13.000  
G32  21975456.308   115481839.5521       -128.093          33.000  
J01  38192872.624   200704866.579        -214.481          25.000  
> 2021  9 12 10 21 23.9997829  0  9
C06  36678731.842   190995840.789       -1484.076          24.000  
C16  37327695.574   194375121.627       -1467.693          23.000  
C23  24244873.224   126249432.3121       1197.764          21.000  
C25  21801793.432   113527671.232       -1211.671          31.000  
C33  22230591.682   115760500.936       -1356.442          24.000  
G10  20193817.011   106119202.395        -803.662          23.000  
G23  20923046.576   109951401.746       -3265.305          24.000  
G32  21975330.995   115481179.675        -128.304          32.000  
J01  38192762.001   200704292.926        -214.587          23.000  
> 2021  9 12 10 21 24.9997819  0  9
C06  36678715.654   190995763.373       -1483.032          25.000  
C16  37327674.888   194375027.057       -1466.074          22.000  
C23  24244344.390   126246673.203        1197.485          20.000  
C25  21801726.279   113527322.453       -1213.373          31.000  
C33  22230550.610   115760296.170       -1355.984          24.000  
G10  20193670.413   106118430.399        -804.106          21.000  
G23  20923367.054   109953090.798       -3264.093          23.000  
G32  21975058.184   115479732.201        -128.238          31.000  
J01  38192503.280   200702932.381        -215.511          23.000  
> 2021  9 12 10 21 25.9997809  0  8
C06  36678700.664   190995685.340       -1483.047          24.000  
C16  37327653.903   194374933.112       -1468.213          23.000  
C25  21801658.826   113526974.801       -1213.695          31.000  
C33  22230511.337   115760091.026       -1355.971          29.000  
G10  20193522.915   106117658.485        -804.083          21.000  
G12  22257663.540   116964682.9131      -2423.932          23.000  
G32  21974782.075   115478284.557        -129.408          31.000  
J01  38192245.159   200701573.330        -217.076          20.000  
> 2021  9 12 10 21 26.9997801  0  9
C06  36678748.331   190995920.002       -1484.861          29.000  
C16  37327695.274   194375152.369       -1467.388          24.000  
C25  21801649.232   113526939.163       -1213.162          29.000  
C33  22230535.620   115760197.817       -1355.797          26.000  
G10  20193433.277   106117203.114        -805.748          27.000  
G12  22257860.204   116965847.829       -2425.910          20.000  
G23  20924073.066   109956785.7941      -3265.617          22.000  
G32  21974563.826   115477151.238        -125.568          25.000  
J01  38192044.897   200700529.612        -216.618          19.000  
> 2021  9 12 10 21 27.9997793  0 10
C06  36678796.298   190996155.711       -1484.353          27.000  
C16  37327736.046   194375370.792       -1467.967          26.000  
C23  24242874.207   126239019.8751       1194.750          19.000  
C25  21801638.440   113526903.923       -1213.935          28.000  
C33  22230554.507   115760304.260       -1356.037          20.000  
G10  20193345.438   106116748.241        -805.502          27.000  
G12  22258061.365   116967013.998       -2427.933          25.000  
G23  20924455.001   109958791.499       -3266.526          27.000  
G32  21974347.076   115476016.486        -126.742          26.000  
J01  38191846.735   200699485.049        -215.654          26.000  
> 2021  9 12 10 21 28.9997786  0  7
C06  36678874.244   190996546.982       -1483.444          25.000  
C23  24242436.510   126236731.622        1195.874          20.000  
C25  21801660.325   113527024.549       -1213.202          27.000  
C33  22230605.172   115760567.838       -1357.346          32.000  
G10  20193289.077   106116451.122        -806.097          28.000  
G12  22258288.907   116968337.825       -2427.383          19.000  
G23  20924866.616   109960955.009       -3267.007          25.000  
> 2021  9 12 10 21 29.9997775  0 10
C06  36678828.975   190996312.953       -1483.722          24.000  
C16  37327760.929   194375493.7291      -1466.128          22.000  
C23  24241872.301   126233819.471        1193.755          20.000  
C25  21801562.892   113526520.939       -1214.374          25.000  
C33  22230535.620   115760208.734       -1358.842          32.000  
G10  20193112.199   106115524.898        -806.718          29.000  
G23  20925158.015   109962489.775       -3267.822          26.000  
G25  20844174.178   109536897.2911       -673.788          18.000  
G32  21973860.813   115473434.0871       -126.769          25.000  
J01  38191386.553   200697079.3691       -213.715          21.000  
> 2021  9 12 10 21 30.9997768  0  9
C06  36678903.923   190996702.848       -1482.856          24.000  
C16  37327832.579   194375867.382       -1466.214          21.000  
C23  24241432.505   126231531.863        1195.615          20.000  
C25  21801585.676   113526643.461       -1216.959          26.000  
C33  22230588.983   115760473.809       -1358.159          33.000  
G10  20193054.639   106115229.294        -807.792          29.000  
G23  20925568.730   109964655.228       -3268.803          26.000  
G25  20844092.935   109536470.566        -678.514          19.000  
J01  38191212.973   200696192.561        -215.668          17.000  
> 2021  9 12 10 21 31.9997760  0  9
C06  36678951.290   190996937.170       -1484.340          25.000  
C16  37327876.649   194376085.914       -1468.104          23.000  
C23  24240965.729   126229087.456        1196.778          24.000  
C25  21801579.680   113526611.761       -1217.779          26.000  
C33  22230609.969                       -1359.032          33.000  
G10  20192970.997   106114777.581        -809.323          30.000  
G12  22258857.314   116971085.1361      -2429.661          21.000  
G23  20925949.467   109966663.584       -3269.257          25.000  
G25  20843981.112   109535885.957        -676.028          19.000  
> 2021  9 12 10 21 32.9997750  0  8
C06  36678936.601   190996859.983       -1483.109          24.000  
C16  37327860.760   194375992.096       -1466.773          26.000  
C23  24240438.993   126226330.452        1195.273          22.000  
C25  21801513.426   113526267.475       -1215.522          24.000  
C33  22230567.099   115760418.3921      -1359.850          32.000  
G10  20192827.396   106114011.623        -809.647          27.000  
G23  20926270.245   109968358.410       -3271.103          23.000  
G25  20843810.830   109534987.174        -677.103          20.000  
> 2021  9 12 10 21 33.9997742  0  8
C06  36678981.869   190997094.605       -1484.575          23.000  
C16  37327903.030   194376210.500       -1467.297          25.000  
C23  24239967.720   126223886.217        1194.636          21.000  
C25  21801508.929   113526234.555       -1216.692          25.000  
C33  22230585.986   115760529.157       -1361.976          32.000  
G10  20192744.354   106113561.175        -809.971          23.000  
G23  20926653.379   109970369.536       -3272.029          22.000  
G32  21972974.326   115468745.6151       -128.604          27.000  
> 2021  9 12 10 21 34.9997732  0  8
C06  36678966.880   190997018.048       -1484.395          25.000  
C16  37327886.242   194376115.903       -1465.343          25.000  
C23  24239437.686   126221129.942        1195.761          21.000  
C25  21801444.774   113525891.729       -1220.721          24.000  
C33  22230545.214   115760328.093       -1361.216          31.000  
G10  20192597.755   106112795.673        -810.118          25.000  
G23  20926978.055   109972066.607       -3272.461          21.000  
G25  20843533.822   109533507.0251       -678.659          21.000  
> 2021  9 12 10 21 35.9997727  0  8
C06  36679102.386   190997721.993       -1484.460          26.000  
C16  37328018.451   194376800.652       -1465.089          27.000  
C23  24239060.548   126219154.728        1195.877          22.000  
C25  21801529.615   113526330.877       -1219.512          27.000  
C33  22230662.133   115760907.891       -1360.186          32.000  
G12  22259667.653   116975343.7131      -2433.283          26.000  
G23  20927453.525   109974551.134       -3272.258          19.000  
G25  20843512.836   109533398.694        -679.919          21.000  
> 2021  9 12 10 21 36.9997716  0  6
C06  36679056.817   190997489.274       -1484.452          24.000  
C16  37327968.985   194376549.246       -1465.909          26.000  
C25  21801434.581   113525832.094       -1218.113          26.000  
C33  22230594.680   115760551.309       -1361.369          32.000  
G10  20192422.677   106111896.3301       -811.610          25.000  
G32                                                                  21972268.615    86223910.6831        -97.583          28.000  
> 2021  9 12 10 21 37.9997709  0  9
C06  36679132.065   190997880.742       -1484.112          22.000  
C16  37328038.836   194376922.997       -1468.119          26.000  
C23  24238067.635   126213957.7191       1192.057          23.000  
C25  21801460.063   113525957.049       -1217.749          25.000  
C33  22230645.045   115760819.485       -1360.859          31.000  
G12  22260033.999   116977377.4301      -2435.946          17.000  
G23  20928167.631   109978260.8181      -3273.369          21.000  
G25  20843231.031   109531921.6271       -679.573          23.000  
G32  21972079.746   115464060.0231       -128.394          28.000    21972082.444    86223183.764         -95.987          27.000  
> 2021  9 12 10 21 38.9997699  0  7
C06  36679117.375   190997803.238       -1483.410          20.000  
C16  37328022.648   194376829.696       -1467.757          26.000  
C25  21801395.608   113525613.737       -1218.179          23.000  
C33  22230606.072   115760619.736       -1362.059          31.000  
G10  20192220.317   106110841.8491       -812.499          26.000  
G25  20843061.349   109531026.725        -681.589          22.000  
G32                                                                  21971806.935    86222103.193         -96.735          27.000  
> 2021  9 12 10 21 39.9997691  0  6
C06  36679162.344   190998037.460       -1483.089          22.000  
C16  37328064.619   194377047.675       -1466.742          26.000  
C25  21801391.711   113525583.439       -1220.363          22.000  
C33  22230627.657   115760732.564       -1361.291          30.000  
G10  20192138.174   106110394.224        -813.609          27.000  
G32                                                                  21971592.283    86221258.114         -96.246          27.000  
> 2021  9 12 10 21 40.9997683  0  5
C16  37328108.089   194377264.411       -1466.017          27.000  
C25  21801387.813   113525554.240       -1218.716          25.000  
C33  22230651.041   115760845.749       -1362.475          31.000  
G10  20192054.532   106109947.725        -814.195          25.000  
G32  21971371.336   115460350.0501       -128.177          26.000    21971376.732    86220412.522         -96.495          27.000  
> 2021  9 12 10 21 41.9997673  0  6
C06  36679191.724   190998192.3151      -1482.743          24.000  
C16  37328090.101   194377169.246       -1466.156          28.000  
C25  21801322.159   113525212.617       -1220.230          24.000  
C33  22230616.265   115760647.248       -1360.792          32.000  
G10  20191909.732   106109186.706        -814.731          26.000  
G32  21971097.026   115458902.691        -127.886          23.000    21971101.223    86219332.335         -96.447          27.000  
> 2021  9 12 10 21 42.9997665  0  8
C06  36679239.091   190998427.373       -1484.727          23.000  
C16  37328131.472   194377386.762       -1467.173          27.000  
C25  21801317.062   113525183.957       -1220.429          25.000  
C33  22230634.852   115760761.392       -1362.285          31.000  
G10  20191827.888   106108741.215        -815.336          26.000  
G23  20929962.788   109987702.9121      -3279.209          15.000  
G25  20842564.293   109528391.8961       -680.065          21.000  
G32  21970882.075   115457770.240        -127.920          26.000    21970885.672    86218488.060         -98.337          28.000  
> 2021  9 12 10 21 43.9997658  0  7
C06  36679313.440   190998819.073       -1485.019          23.000  
C16  37328202.523   194377760.471       -1465.408          27.000  
C25  21801341.046   113525311.198       -1219.890          24.000  
C33  22230683.718   115761031.956       -1360.932          31.000  
G10  20191773.026   106108454.095        -816.057          27.000  
G25  20842485.448   109527968.893        -681.859          22.000  
G32  21970696.204   115456795.401        -128.317          22.000    21970701.300    86217762.053         -97.789          27.000  
> 2021  9 12 10 21 44.9997647  0  7
C06  36679270.569   190998587.355       -1486.152          24.000  
C16  37328155.156   194377509.211       -1466.086          27.000  
C25  21801245.712   113524813.992       -1220.027          24.000  
C33  22230618.663   115760678.402       -1363.878          30.000  
G10  20191596.748   106107537.255        -815.768          27.000  
G25  20842286.685   109526918.952        -684.902          21.000  
G32                                                                  21970396.411    86216565.881         -97.190          27.000  
> 2021  9 12 10 21 45.9997640  0  9
C06  36679345.817   190998978.885       -1483.734          21.000  
C16  37328226.806   194377883.183       -1466.956          26.000  
C25  21801270.594   113524942.022       -1221.539          25.000  
C33  22230672.326   115760949.442       -1365.354          30.000  
G10  20191539.788   106107250.383        -816.161          24.000  
G12  22261687.954   116986000.6051      -2438.709          23.000  
G23  20931074.718   109993605.9091      -3283.031          13.000  
G25  20842208.439   109526501.480        -685.332          21.000  
G32  21970206.343   115454216.1331       -128.906          25.000    21970210.240    86215838.603         -95.751          27.000  
> 2021  9 12 10 21 46.9997629  0  6
C06  36679299.649   190998744.814       -1483.822          24.000  
C16  37328177.341   194377632.829       -1467.183          26.000  
C25  21801172.862   113524447.587       -1223.026          26.000  
C33  22230603.374   115760596.451       -1363.445          31.000  
G10  20191364.109   106106334.109        -817.114          29.000  
G32  21969902.053   115452612.182        -128.809          24.000    21969903.852    86214639.778         -95.360          27.000  
> 2021  9 12 10 21 47.9997622  0  8
C06  36679374.897   190999135.272       -1482.905          26.000  
C16  37328248.691   194378006.076       -1465.293          24.000  
C25  21801196.546   113524577.856       -1223.342          30.000  
C33  22230652.839   115760868.610       -1365.008          30.000  
G10  20191308.948   106106048.988        -817.896          28.000  
G23  20931766.939   109997329.8191      -3277.390          16.000  
G25  20841928.433   109525037.2271       -685.033          21.000  
G32  21969716.782   115451637.834        -128.374          27.000    21969718.281    86213911.832         -95.046          27.000  
> 2021  9 12 10 21 48.9997614  0  6
C06  36679419.266   190999368.927       -1482.876          28.000  
C16  37328288.863   194378222.932       -1465.813          25.000  
C25  21801190.550   113524551.872       -1223.340          28.000  
C33  22230675.923   115760985.271       -1366.487          24.000  
G10  20191226.505   106105607.316        -819.118          30.000  
G32  21969500.931   115450505.316        -127.967          31.000    21969502.130    86213065.861         -94.641          24.000  
> 2021  9 12 10 21 49.9997606  0  7
C06  36679461.537   190999602.468       -1482.814          27.000  
C16  37328331.734   194378439.784       -1466.035          27.000  
C25  21801186.053   113524526.730       -1224.174          31.000  
C33  22230698.708   115761102.663       -1366.411          26.000  
G10  20191143.162   106105165.959        -819.189          31.000  
G32                                                                  21969286.579    86212220.690         -96.490          29.000  
J01  38187132.798   200674790.0981       -215.060          30.000  
> 2021  9 12 10 21 50.9997596  0  8
C06  36679444.149   190999523.800       -1482.589          27.000  
C16  37328312.547   194378344.595       -1465.983          23.000  
C25  21801120.698   113524189.823       -1224.311          33.000  
C33  22230659.135   115760907.514       -1366.631          26.000  
G10  20191000.461   106104409.785        -819.613          37.000  
G25  20841546.498   109523004.1071       -688.149          20.000  
G32  21969005.674   115447925.8771       -128.306          36.000    21969011.070    86211139.972         -95.073          29.000  
J01  38186876.176   200673430.210        -215.841          28.000  
> 2021  9 12 10 21 51.9997588  0  7
C06  36679488.219   190999757.450       -1483.119          28.000  
C16  37328356.017   194378561.212       -1464.581          25.000  
C25  21801113.503   113524166.263       -1226.991          32.000  
C33  22230681.020   115761024.762       -1366.023          28.000  
G10  20190917.119   106103969.296        -820.234          38.000  
G25  20841439.771   109522432.362        -689.537          25.000  
G32  21968793.121                        -128.035          36.000    21968795.819    86210294.215         -96.205          29.000  
> 2021  9 12 10 21 52.9997581  0  7
C06  36679561.968   191000147.193       -1481.832          24.000  
C25  21801140.185                       -1226.712          32.000  
C33  22230733.184   115761298.846       -1367.467          30.000  
G10  20190862.557   106103686.746        -820.770          37.000  
G23  20933655.932   110007261.0531      -3281.794          22.000  
G32  21968605.751   115445813.0921       -127.562          34.000    21968610.248    86209567.684         -97.121          26.000  
J01  38186511.328   200671499.3761       -217.153          28.000  
> 2021  9 12 10 21 53.9997571  0  6
C25  21801074.230   113523923.5991      -1224.720          32.000  
C33  22230696.009   115761105.061       -1367.718          29.000  
G10  20190720.155                        -821.720          38.000  
G12  22263377.285   116994664.8641      -2444.307          26.000  
G32  21968332.940   115444365.987        -128.710          34.000    21968335.038    86208486.955         -95.901          28.000  
J01  38186254.106   200670140.988        -216.649          30.000  
> 2021  9 12 10 21 54.9997563  0  8
C06  36679590.448   191000300.9531      -1482.485          24.000  
C25  21801072.432   113523901.029       -1227.827          31.000  
C33  22230716.395   115761225.001       -1369.064          20.000  
G10  20190634.714   106102512.2661       -821.776          37.000    20190636.513    79232420.7101       -612.073          24.000  
G23  20934367.639   110010989.9981      -3283.363          26.000  
G25  20841083.318   109520570.9081       -693.826          17.000  
G32  21968118.288   115443233.979        -127.905          35.000    21968119.188    86207641.981         -96.315          27.000  
J01  38186054.445   200669096.756        -216.251          29.000  
> 2021  9 12 10 21 55.9997553  0  7
C06  36679573.360   191000222.364       -1482.427          24.000  
C25  21801009.475   113523566.387       -1225.479          31.000  
C33  22230677.122   115761033.393       -1369.877          21.000  
G10  20190490.214   106101759.171        -823.031          37.000    20190493.212    79231857.472        -613.410          24.000  
G12  22263773.310   116996718.6911      -2446.571          25.000  
G23  20934693.513   110012697.928       -3283.512          26.000  
G32  21967840.980   115441786.605        -128.162          36.000    21967843.378    86206561.282         -95.343          28.000  
> 2021  9 12 10 21 56.9997548  0  7
C06  36679707.067   191000923.432       -1481.338          25.000  
C16  37328570.668   194379637.0411      -1462.643          18.000  
C25  21801092.518   113524013.770       -1226.484          29.000  
G10  20190497.110   106101794.307        -820.136          35.000    20190498.908    79231882.362        -615.069          24.000  
G25  20840894.449   109519592.6941       -690.752          18.000  
G32  21967719.864   115441127.382        -129.241          35.000    21967717.765    86206068.718         -95.066          28.000  
J01  38185688.398   200667164.1801       -216.379          29.000  
> 2021  9 12 10 21 57.9997537  0  8
C06  36679662.098   191000687.757       -1481.720          21.000  
C25  21800998.982   113523523.554       -1228.310          27.000  
C33  22230724.490   115761273.4021      -1367.867          32.000  
G10  20190323.530   106100883.587        -823.217          29.000    20190327.127    79231203.481        -616.029          25.000  
G23  20935466.678   110016743.9451      -3282.736          27.000  
G25  20840699.884   109518550.229        -690.447          19.000  
G32  21967417.074   115439522.852        -128.309          32.000    21967411.977    86204871.047         -97.129          29.000  
J01  38185402.396   200665647.166        -215.746          28.000  
> 2021  9 12 10 21 58.9997527  0  9
C16  37328499.917   194379279.4811      -1462.531          17.000  
C25  21800933.927   113523190.980       -1228.620          28.000  
C33  22230687.915   115761080.620       -1368.618          27.000  
G10  20190179.030   106100132.002        -824.563          30.000    20190185.625    79230645.140        -619.323          25.000  
G12  22264394.480   116999967.2841      -2449.169          25.000  
G23  20935795.850   110018451.425       -3283.435          21.000  
G25  20840529.901   109517667.156        -694.275          20.000  
G32  21967141.265   115438076.000        -129.203          32.000    21967137.067    86203792.174         -96.726          27.000  
J01  38185145.774   200664288.065        -216.684          30.000  
> 2021  9 12 10 21 59.9997519  0  8
C06  36679691.778   191000843.4061      -1483.881          28.000  
C16  37328540.389   194379493.802       -1463.602          25.000  
C25  21800929.730   113523170.615       -1228.461          21.000  
C33  22230711.599   115761200.621       -1369.165          26.000  
G10  20190095.388   106099696.878        -825.974          28.000    20190104.981    79230324.966        -620.591          21.000  
G25  20840421.676   109517100.088        -693.046          21.000  
G32  21966924.814   115436944.021        -128.914          37.000    21966921.816    86202947.147         -96.048          32.000  
J01  38184947.011   200663243.765        -214.915          26.000  
> 2021  9 12 10 22  0.9997512  0  8
C06  36679767.325   191001233.551       -1482.210          28.000  
C16  37328611.140   194379864.839       -1463.738          27.000  
C33  22230764.962   115761477.152       -1369.182          26.000  
G10  20190042.624   106099419.360        -825.105          27.000    20190054.916    79230119.539        -616.728          13.000  
G23  20936601.093   110022655.4051      -3283.850          22.000  
G25  20840342.531   109516690.204        -692.118          21.000  
G32  21966739.543   115435969.412        -127.648          30.000    21966736.245    86202219.269         -96.369          33.000  
J01  38184778.528   200662355.983        -215.823          24.000  
> 2021  9 12 10 22  1.9997504  0  7
C06  36679813.494   191001466.417       -1481.968          31.000  
C16  37328652.811   194380080.797       -1464.847          28.000  
C33  22230788.345   115761598.177       -1369.998          22.000  
G10  20189955.385   106098984.271        -825.200          21.000    20189971.873    79229792.733        -613.372          16.000  
G23  20936988.125   110024679.823       -3285.487          25.000  
G32  21966522.493   115434836.791        -128.706          29.000    21966521.294    86201374.200         -96.300          30.000  
J01  38184578.866   200661311.758        -216.608          22.000  
> 2021  9 12 10 22  2.9997494  0  8
C06  36679799.403   191001386.114       -1480.225          25.000  
C16  37328633.924   194379984.899       -1465.278          23.000  
C33  22230749.972   115761407.699       -1374.541          19.000  
G10  20189814.182   106098234.439        -826.340          22.000  
G23  20937316.397   110026390.574       -3286.820          27.000  
G25  20840064.923   109515243.7571       -694.604          21.000  
G32  21966245.485   115433389.876        -128.556          30.000    21966245.784    86200293.663         -97.284          30.000  
J01  38184322.544   200659952.776        -216.082          27.000  
> 2021  9 12 10 22  3.9997486  0  7
C06  36679845.571   191001617.725       -1480.799          30.000  
C16  37328675.895   194380201.738       -1466.236          27.000  
G10  20189732.039   106097800.638        -827.299          23.000  
G23  20937705.228   110028417.322       -3287.662          26.000  
G25  20839960.595   109514676.824        -694.359          20.000  
G32  21966031.133   115432258.133        -128.526          24.000    21966030.234    86199449.311         -96.719          31.000  
J01  38184124.681   200658908.907        -217.261          24.000  
> 2021  9 12 10 22  4.9997478  0  7
C06  36679891.739   191001849.774       -1480.888          30.000  
C16  37328718.466   194380418.371       -1465.502          27.000  
C33  22230799.438   115761659.1851      -1372.740          19.000  
G10  20189649.596   106097367.928        -828.203          26.000  
G23  20938092.560   110030444.500       -3287.505          27.000  
G32  21965815.283   115431126.272        -128.516          30.000    21965814.983    86198605.162         -96.945          30.000  
J01  38183926.218   200657864.928        -215.543          24.000  
> 2021  9 12 10 22  5.9997468  0  9
C06  36679878.548   191001769.443       -1481.903          26.000  
C16  37328699.279   194380320.772       -1462.456          22.000  
C25  21800818.507   113522581.5691      -1231.543          20.000  
C33  22230763.163   115761470.864       -1372.132          25.000  
G10  20189507.195   106096621.107        -829.561          28.000  
G12  22265867.661   117007830.7961      -2452.661          19.000  
G23  20938419.934   110032156.565       -3287.802          28.000  
G32  21965538.574   115429679.227        -128.532          30.000    21965539.174    86197524.141         -96.025          28.000  
J01  38183667.797   200656505.040        -215.452          25.000  
> 2021  9 12 10 22  6.9997460  0  8
C06  36679924.117   191002002.723       -1482.746          29.000  
C16  37328740.651   194380535.278       -1464.883          22.000  
C25  21800812.811   113522563.945       -1231.884          21.000  
C33  22230786.547   115761594.184       -1371.011          25.000  
G10  20189424.152   106096190.574        -830.044          26.000  
G23  20938806.366   110034184.453       -3288.579          27.000  
G32  21965326.021   115428547.303        -128.430          28.000    21965323.923    86196679.480         -97.386          29.000  
J01  38183469.634   200655459.590        -214.459          27.000  
> 2021  9 12 10 22  7.9997450  0  8
C06  36679911.226   191001924.597       -1482.205          29.000  
C16  37328723.263   194380439.575       -1465.223          22.000  
C25  21800748.656   113522234.696       -1231.510          21.000  
C33  22230749.073   115761404.161       -1371.242          25.000  
G10  20189283.250   106095445.539        -830.718          26.000  
G23  20939130.741   110035897.993       -3289.454          27.000  
G32  21965050.512   115427100.442        -128.690          31.000    21965048.713    86195599.245         -96.636          29.000  
J01  38183212.412   200654099.285        -215.648          28.000  
> 2021  9 12 10 22  8.9997445  0  8
C06  36680045.533   191002626.235       -1482.957          30.000  
C16  37328854.272   194381124.680       -1465.626          26.000  
C25  21800834.996   113522686.516       -1234.067          20.000  
C33  22230860.895   115761994.967       -1372.237          20.000  
G10  20189291.045   106095488.523        -831.160          21.000  
G12  22266572.473   117011566.6361      -2454.666          24.000  
G32  21964926.098   115426441.225        -128.524          27.000    21964924.000    86195107.276         -96.194          29.000  
J01  38183104.787   200653527.706        -216.560          29.000  
> 2021  9 12 10 22  9.9997435  0  7
C06  36680029.344   191002547.522       -1482.686          30.000  
C16  37328834.785   194381028.739       -1464.455          26.000  
C25  21800772.639   113522360.363       -1234.717          24.000  
C33  22230826.419   115761807.084       -1373.853          25.000  
G12  22266743.654   117012446.184       -2455.483          24.000  
G32  21964650.589   115424994.595        -128.648          23.000    21964649.090    86194027.041         -95.952          29.000  
J01  38182845.166   200652169.378        -217.667          27.000  
> 2021  9 12 10 22 10.9997427  0 10
C06  36680074.013   191002781.026       -1482.832          28.000  
C16  37328875.857   194381243.537       -1463.676          27.000  
C25  21800769.941   113522346.604       -1235.549          27.000  
C33  22230853.101   115761932.327       -1374.238          27.000  
G10  20189077.892   106094316.1871       -832.639          30.000  
G12  22266960.704   117013635.589       -2447.676          17.000  
G23  20940306.228   110042148.2941      -3295.752          12.000  
G25  20839117.579   109510282.5901       -703.811          18.000  
G32  21964430.541   115423862.795        -129.083          24.000    21964433.839    86193182.494         -97.395          30.000  
J01  38182647.004   200651127.108        -218.122          28.000  
> 2021  9 12 10 22 11.9997417  0  7
C06  36680058.724   191002702.667       -1482.578          27.000  
C16  37328856.970   194381145.295       -1463.560          26.000  
C25  21800708.184   113522020.829       -1236.431          22.000  
C33  22230815.627   115761745.463       -1374.880          25.000  
G10  20188938.789   106093573.908        -833.924          35.000  
G32  21964153.533   115422416.565        -129.453          34.000    21964158.629    86192103.593         -98.343          30.000  
J01  38182387.683   200649769.198        -217.589          28.000  
> 2021  9 12 10 22 12.9997409  0  8
C06  36680102.493   191002935.862       -1482.361          29.000  
C16  37328898.042   194381359.703       -1463.574          29.000  
C33  22230839.610   115761871.759       -1375.951          27.000  
G10  20188859.943   106093147.572        -834.363          30.000  
G12  22267347.136   117015703.7491      -2455.169          19.000  
G23  20941018.235   110045901.1981      -3292.525          14.000  
G32  21963936.183   115421285.596        -129.472          35.000    21963943.079    86191259.901         -96.945          29.000  
J01  38182191.019   200648728.094        -220.205          23.000  
> 2021  9 12 10 22 13.9997402  0  8
C06  36680176.242   191003325.120       -1481.539          30.000  
C16  37328968.193   194381730.187       -1463.352          27.000  
C33  22230895.072   115762154.594       -1375.396          28.000  
G10  20188809.578   106092879.440        -835.138          34.000  
G23  20941435.246   110048090.512       -3291.983          17.000  
G25  20838776.115   109508450.1581       -701.483          21.000  
G32                                                                  21963757.207    86190533.239         -96.965          29.000  
J01  38182022.236   200647844.485        -219.001          25.000  
> 2021  9 12 10 22 14.9997391  0  8
C06  36680130.074   191003089.349       -1481.647          30.000  
C16  37328919.926   194381476.491       -1463.789          25.000  
C33  22230831.216   115761813.007       -1376.361          28.000  
G10  20188640.195   106091981.910        -835.789          35.000  
G23  20941732.640   110049649.972       -3292.678          18.000  
G25  20838579.452   109507419.580        -703.587          22.000  
G32  21963449.021   115418706.8911       -128.945          31.000    21963452.318    86189335.848         -96.988          29.000  
J01  38181736.234   200646330.245        -219.070          24.000  
> 2021  9 12 10 22 15.9997384  0  8
C06  36680204.723   191003478.246       -1482.467          29.000  
C16  37328990.977   194381847.066       -1464.625          24.000  
C33  22230886.378   115762096.933       -1377.131          28.000  
G10  20188588.631   106091715.412        -836.637          34.000  
G23  20942148.452   110051839.965       -3293.403          24.000  
G25  20838503.904   109507020.761        -704.960          23.000  
G32  21963266.147   115417734.610        -130.992          31.000    21963266.747    86188609.355         -97.191          29.000  
J01  38181568.950   200645445.456        -218.309          26.000  
> 2021  9 12 10 22 16.9997376  0  9
C06  36680249.692   191003710.573       -1480.526          29.000  
C16  37329031.449   194382062.081       -1463.313          24.000  
C33  22230910.961   115762225.528       -1377.218          26.000  
G10  20188505.888                        -836.688          33.000  
G12  22268252.510   117020342.1291      -2461.401          25.000  
G23  20942536.684   110053873.358       -3294.601          24.000  
G25  20838398.677   109506465.860        -705.319          24.000  
G32  21963047.599                        -131.373          33.000    21963050.896    86187764.342         -95.803          26.000  
J01  38181370.187   200644402.319        -215.660          25.000  
> 2021  9 12 10 22 17.9997368  0  7
C06  36680295.560   191003942.489       -1481.211          29.000  
C33  22230936.743   115762354.339       -1378.044          25.000  
G10  20188427.942   106090892.2071       -838.761          31.000  
G12  22268480.951   117021543.503       -2461.818          25.000  
G23  20942924.015   110055907.944       -3295.593          25.000  
G32  21962833.247   115415464.5301       -129.794          33.000    21962835.046    86186918.754         -95.048          24.000  
J01  38181170.526   200643357.706        -215.542          18.000  
> 2021  9 12 10 22 18.9997358  0  8
C06  36680280.270   191003863.219       -1482.622          28.000  
C16  37329053.634   194382183.0471      -1467.180          23.000  
C33  22230901.367   115762171.782       -1378.729          27.000  
G10  20188285.241   106090155.497        -839.477          33.000  
G12  22268648.835   117022430.035       -2461.801          26.000  
G23  20943249.290   110057628.252       -3296.513          26.000  
G32  21962564.333   115414019.408        -130.237          36.000    21962560.436    86185839.097         -98.621          26.000  
J01  38180911.505   200641996.946        -215.331          19.000  
> 2021  9 12 10 22 19.9997348  0  7
C06  36680264.381   191003784.558       -1482.910          29.000  
C16  37329034.447   194382088.507       -1466.233          25.000  
C33  22230867.191   115761989.695       -1379.366          29.000  
G10  20188148.236   106089419.258        -839.169          34.000  
G23  20943576.364   110059349.806       -3297.827          26.000  
G32  21962287.924   115412574.332        -130.819          36.000    21962286.725    86184760.661         -97.546          27.000  
J01  38180652.484   200640637.783        -217.613          27.000  
> 2021  9 12 10 22 20.9997343  0  9
C06  36680398.389   191004487.019       -1483.297          29.000  
C16  37329165.756   194382774.848       -1467.369          25.000  
C33  22230982.011   115762588.040       -1378.687          29.000  
G10  20188152.733   106089471.715        -838.943          35.000  
G12  22269137.797   117024991.4751      -2462.085          23.000  
G23  20944057.830   110061860.232       -3298.625          27.000  
G25  20837944.191   109504096.3081       -706.026          20.000  
G32  21962163.511   115411917.322        -131.644          35.000    21962162.611    86184269.823         -97.582          27.000  
J01  38180544.559   200640066.957        -216.607          25.000  
> 2021  9 12 10 22 21.9997332  0  8
C06  36680353.720   191004252.749       -1483.006          27.000  
C16  37329118.089   194382524.029       -1466.338          24.000  
C33  22230917.856   115762250.118       -1379.157          25.000  
G10  20187981.851   106088579.909        -840.706          33.000  
G12  22269277.800   117025720.639       -2462.706          22.000  
G23  20944357.323   110063425.540       -3298.604          27.000  
G32  21961856.823   115410315.302        -129.912          35.000    21961857.422    86183074.388         -99.964          26.000  
J01  38180254.360   200638551.358        -217.895          25.000  
> 2021  9 12 10 22 22.9997325  0  7
C06  36680429.867   191004642.696       -1483.057          31.000  
C16  37329190.939   194382897.172       -1464.548          27.000  
C33  22230974.517   115762536.677       -1379.993          30.000  
G10  20187933.584   106088318.621        -841.430          35.000  
G23  20944775.833   110065622.134       -3299.479          27.000  
G32  21961673.949   115409343.330        -131.028          36.000    21961672.151    86182350.158         -98.632          26.000  
J01  38180087.975   200637667.430        -219.654          26.000  
> 2021  9 12 10 22 23.9997315  0  8
C06  36680414.278   191004564.751       -1483.066          30.000  
C16  37329171.452   194382801.191       -1465.827          26.000  
C33  22230940.040   115762355.761       -1380.379          30.000  
G10  20187797.778   106087585.201        -842.167          37.000  
G12  22269707.702   117027974.6641      -2467.485          22.000  
G23  20945103.207   110067347.037       -3300.106          28.000  
G32  21961399.340   115407898.496        -131.667          35.000    21961397.841    86181273.048         -98.088          26.000  
J01  38179831.353   200636311.402        -219.166          27.000  
> 2021  9 12 10 22 24.9997309  0  8
C06  36680519.805   191005110.978       -1482.622          31.000  
C16  37329274.281   194383330.105       -1465.692          27.000  
C33  22231025.781   115762799.134       -1380.032          30.000  
G10  20187777.093   106087482.572        -843.624          37.000  
G12  22269998.801   117029498.243       -2469.223          23.000  
G23  20945552.895   110069701.684       -3299.537          27.000  
G32  21961244.946   115407083.840        -130.671          36.000    21961242.548    86180665.148         -98.882          26.000  
J01  38179694.348   200635584.974        -218.145          27.000  
> 2021  9 12 10 22 25.9997299  0  7
C06  36680504.815   191005032.116       -1482.305          31.000  
C16  37329254.495   194383235.314       -1466.828          27.000  
C33  22230991.605   115762618.638       -1380.916          31.000  
G10  20187637.689   106086750.700        -844.803          37.000  
G23  20945881.468   110071426.233       -3300.771          27.000  
G32  21960968.238   115405639.516        -130.602          38.000    21960967.638    86179587.590         -98.685          27.000  
J01  38179435.627   200634227.313        -217.694          30.000  
> 2021  9 12 10 22 26.9997289  0  8
C06  36680492.823   191004954.616       -1483.211          31.000  
C16  37329235.908   194383140.257       -1466.532          26.000  
C33  22230955.929   115762439.648       -1382.291          29.000  
G10  20187503.982   106086020.268        -846.527          35.000  
G12  22270345.960   117031282.0751      -2467.429          28.000  
G23  20946210.041   110073152.613       -3303.098          27.000  
G32  21960691.829   115404195.939        -132.215          39.000    21960692.129    86178508.850         -97.792          27.000  
J01  38179176.906   200632870.606        -220.011          31.000  
> 2021  9 12 10 22 27.9997281  0  6
C06  36680534.195                       -1484.010          31.000  
C16  37329277.879   194383357.145       -1465.383          28.000  
C33  22230982.311   115762573.257       -1383.084          31.000  
G23  20946598.871   110075195.425       -3302.602          26.000  
G32  21960477.778   115403067.624        -132.506          41.000    21960477.178    86177666.079         -97.932          26.000  
J01  38178978.743   200631829.416        -219.164          27.000  
> 2021  9 12 10 22 28.9997274  0  8
C06  36680611.841   191005558.7041      -1482.650          32.000  
C16  37329351.028   194383730.146       -1466.224          28.000  
C33  22231037.773   115762864.097       -1384.234          31.000  
G10  20187371.174   106085349.6111       -847.408          35.000  
G12  22270843.916   117033855.8981      -2470.365          28.000  
G23  20947014.983   110077395.856       -3303.856          25.000  
G32  21960294.305   115402097.149        -132.023          40.000    21960292.806    86176940.996         -98.814          25.000  
J01  38178809.960   200630945.878        -219.651          28.000  
> 2021  9 12 10 22 29.9997266  0  9
C06  36680653.212   191005792.922       -1485.033          31.000  
C16  37329392.699   194383948.319       -1467.323          26.000  
C33  22231063.555   115762999.280       -1383.799          29.000  
G10  20187290.530   106084936.282        -847.441          36.000  
G12  22271078.953   117035066.340       -2471.557          25.000  
G23  20947402.615   110079441.689       -3306.981          22.000  
G25  20836843.354   109498348.3931       -713.086          17.000  
G32  21960080.553   115400968.780        -130.638          39.000    21960078.754    86176098.448         -97.748          24.000  
J01  38178611.797   200629904.259        -218.234          29.000  
> 2021  9 12 10 22 30.9997256  0  8
C06  36680640.321   191005715.220       -1484.478          29.000  
C16  37329374.112   194383854.641       -1467.679          24.000  
C33  22231029.079   115762821.678       -1383.547          28.000  
G10  20187148.428   106084208.683        -847.329          36.000  
G12  22271251.933   117035962.700       -2471.685          27.000  
G23  20947732.986   110081172.587       -3305.946          24.000  
G32  21959805.343   115399525.647        -132.887          38.000    21959804.144    86175020.191         -98.490          24.000  
J01  38178353.676   200628546.955        -218.947          28.000  
> 2021  9 12 10 22 31.9997245  0 10
C06  36680598.350   191005481.303       -1484.662          29.000  
C16  37329325.546   194383604.874       -1467.345          25.000  
C33  22230964.024   115762487.893       -1383.550          29.000  
G10  20186983.242   106083324.239        -848.587          36.000  
G12  22271393.435   117036700.738       -2471.362          26.000  
G23  20948033.978   110082745.190       -3305.635          25.000  
G25  20836488.099   109496474.0121       -720.306          15.000  
G32  21959501.653   115397924.951        -131.297          39.000    21959500.154    86173824.300         -98.890          24.000  
J01  38178064.976   200627033.218        -220.333          29.000  
J02  37817226.979   198730869.8141      -1984.792          22.000  
> 2021  9 12 10 22 32.9997240  0  9
C06  36680731.758   191006184.295       -1484.014          30.000  
C16  37329457.754   194384290.828       -1465.676          26.000  
C33  22231080.943   115763091.432       -1385.200          29.000  
G10  20186997.033   106083385.659        -846.685          34.000  
G12  22271714.813   117038651.463       -2473.021          28.000  
G23  20948516.044   110085263.273       -3306.374          25.000  
G32  21959376.640   115397269.943        -133.009          40.000    21959375.441    86173335.565        -100.397          25.000  
J01  38177956.151   200626465.826        -220.143          29.000  
J02  37817456.620   198732068.680       -1987.077          23.000  
> 2021  9 12 10 22 33.9997230  0  8
C06  36680714.969   191006106.713       -1484.179          31.000  
C16  37329438.268   194384195.069       -1464.932          27.000  
C33  22231047.966   115762915.427       -1385.152          30.000  
G10  20186857.629   106082659.019        -849.578          29.000  
G12  22271888.093   117039549.786       -2474.481          25.000  
G23  20948844.617   110086995.162       -3308.213          21.000  
G32  21959098.732   115395827.178        -132.820          41.000    21959099.931    86172258.820        -100.972          23.000  
J01  38177700.128   200625110.121        -218.844          26.000  
> 2021  9 12 10 22 34.9997222  0  8
C06  36680761.437   191006340.824       -1483.650          30.000  
C16  37329478.740   194384410.373       -1463.656          27.000  
C33  22231073.448   115763052.214       -1386.340          30.000  
G10  20186777.884   106082248.725        -850.550          27.000  
G12  22272120.432   117040764.065       -2475.031          23.000  
G23  20949240.642   110089045.916       -3309.812          14.000  
G32  21958885.880   115394699.227        -133.303          42.000    21958883.481    86171417.028         -96.636          24.000  
J02  37817671.871   198733204.7671      -1987.151          24.000  
> 2021  9 12 10 22 35.9997212  0  9
C06  36680746.747   191006263.457       -1482.627          29.000  
C16  37329459.853   194384313.881       -1465.935          26.000  
C33  22231040.171   115762877.425       -1386.283          30.000  
G10  20186637.582   106081524.438        -851.696          26.000  
G23  20949571.014   110090784.707       -3316.285          11.000  
G25  20836058.497   109494164.7211       -722.614          18.000  
G32  21958611.270   115393256.924        -133.704          42.000    21958607.672    86170335.882         -98.768          23.000  
J01  38177241.746   200622712.9851       -220.440          21.000  
J02  37817748.917   198733617.588       -1989.095          23.000  
> 2021  9 12 10 23  5.9999956  0  4
C06  36681589.764   191010664.644       -1490.487          27.000  
C16  37330204.237   194388169.877       -1474.511          25.000  
C33  22231354.354   115764496.633       -1406.108          26.000  
G32  21951672.274   115356816.657        -143.973          37.000  
> 2021  9 12 10 23  6.9999949  0  5
C06  36681668.609   191011062.015       -1489.819          26.000  
C16  37330280.385   194388551.134       -1473.337          26.000  
C33  22231411.014   115764811.943       -1408.782          23.000  
G10                                                                  20183822.530    79205655.2951       -657.032          26.000  
G32  21951489.100   115355856.851        -143.977          38.000  
> 2021  9 12 10 23  7.9999941  0  4
C16  37330325.653   194388775.541       -1473.471          25.000  
G10  20183755.976   106066353.7571       -882.025          30.000    20183750.880    79205372.053        -657.425          26.000  
G23  20961627.767   110154097.8021      -3335.577          24.000  
G32  21951279.545   115354739.845        -143.983          36.000  
> 2021  9 12 10 23  8.9999931  0  6
C06  36681701.586   191011232.6951      -1491.136          26.000  
C16  37330310.664   194388688.451       -1473.788          26.000  
C33  22231410.715   115764825.9021      -1412.551          22.000  
G10  20183623.168   106065660.699        -882.858          28.000    20183618.971    79204853.318        -657.785          26.000  
G23  20961961.136   110155858.181       -3336.256          26.000  
G32  21951006.135   115353308.118        -144.767          37.000  
> 2021  9 12 10 23  9.9999921  0  4
C06  36681688.096   191011162.861       -1491.639          23.000  
G10  20183492.759   106064968.758        -884.018          28.000    20183487.063    79204335.687        -658.801          25.000  
G23  20962295.405   110157619.501       -3337.594          26.000  
G32  21950735.722   115351876.812        -143.276          38.000  
> 2021  9 12 10 23 10.9999913  0  4
C06  36681735.163   191011405.857       -1492.532          24.000  
G10  20183420.209   106064592.738        -884.741          29.000    20183414.813    79204052.999        -660.658          24.000  
G23  20962689.332   110159696.985       -3338.228          26.000  
G32  21950520.171   115350760.748        -145.273          36.000  
> 2021  9 12 10 23 11.9999905  0  5
C06  36681781.631   191011651.531       -1495.589          25.000  
C16  37330378.417   194389049.4181      -1470.919          24.000  
G10  20183347.959   106064217.678        -885.812          29.000    20183343.762    79203772.967        -663.137          26.000  
G23  20963083.859   110161775.171       -3338.983          27.000  
G32  21950308.218   115349645.037        -144.870          36.000  
> 2021  9 12 10 23 12.9999898  0  6
C06  36681859.877   191012054.381       -1495.267          22.000  
C16  37330448.868   194389429.032       -1472.599          22.000  
C33  22231508.147   115765318.4691      -1411.577          24.000  
G10  20183306.588   106064000.980        -886.359          33.000    20183303.290    79203613.390        -664.496          25.000  
G23  20963508.365   110164011.885       -3340.045          28.000  
G32  21950124.445   115348687.252        -144.760          34.000  
> 2021  9 12 10 23 13.9999887  0  4
C33  22231450.887   115765012.608       -1410.887          28.000  
G10  20183143.800   106063154.919        -887.495          37.000    20183142.901    79202982.649        -662.691          26.000  
G23  20963812.055   110165619.279       -3340.523          25.000  
G32  21949821.954   115347099.719        -145.169          31.000  
> 2021  9 12 10 23 14.9999880  0  5
C06  36681896.751   191012229.5001      -1491.097          17.000  
C33  22231512.644   115765331.810       -1412.416          29.000  
G10  20183101.829   106062938.548        -886.340          28.000    20183101.829    79202821.586        -660.864          26.000  
G23  20964237.460   110167857.299       -3341.095          24.000  
G32  21949645.077   115346141.975        -146.420          32.000  
> 2021  9 12 10 23 15.9999872  0  7
C06  36681942.919   191012471.538       -1491.687          26.000  
C16  37330513.923   194389790.0241      -1475.569          24.000  
C25  21799784.523   113517199.5311      -1282.907          28.000  
C33  22231545.921   115765496.262       -1413.311          30.000  
G10  20183030.479   106062565.439        -888.280          27.000    20183031.078    79202541.256        -659.901          25.000  
G23  20964632.887   110169938.548       -3341.211          23.000  
G32  21949438.520   115345028.817        -151.673          34.000  
> 2021  9 12 10 23 16.9999862  0  7
C06  36681929.728   191012402.712       -1492.752          27.000  
C16  37330500.432   194389704.006       -1475.016          23.000  
C25  21799729.961   113516920.901       -1282.625          26.000  
C33  22231520.139   115765348.608       -1414.076          27.000  
G10  20182895.272   106061880.005        -890.883          31.000    20182900.369    79202023.962        -662.261          20.000  
G23  20964966.556   110171704.569       -3341.784          20.000  
G32  21949166.308   115343600.385        -145.469          28.000  
> 2021  9 12 10 23 17.9999854  0  7
C06  36681979.194   191012646.266       -1492.359          27.000  
C16  37330545.401   194389929.419       -1474.747          23.000  
C25  21799737.156   113516955.107       -1283.282          32.000  
C33  22231554.915   115765513.843       -1414.527          29.000  
G10  20182823.922   106061510.906        -891.764          30.000    20182830.817    79201746.830        -666.644          23.000  
G23  20965362.881   110173786.286       -3342.935          19.000  
G32  21948952.856   115342485.446        -145.772          29.000  
> 2021  9 12 10 23 18.9999844  0  5
C06  36681965.704   191012577.978       -1493.335          28.000  
C25  21799683.193   113516678.037       -1286.173          32.000  
C33  22231528.833   115765367.490       -1415.021          32.000  
G10  20182694.411   106060826.837        -892.018          28.000    20182700.107    79201237.353        -667.750          22.000  
G32  21948681.244   115341055.762        -145.336          29.000  
> 2021  9 12 10 23 19.9999836  0  7
C06  36682013.071   191012822.262       -1493.670          28.000  
C16  37330569.385   194390067.5101      -1472.914          22.000  
C25  21799689.789   113516714.464       -1284.724          30.000  
C33  22231561.210   115765533.954       -1416.223          31.000  
G10                                                                  20182629.656    79200962.151        -668.030          22.000  
G23  20966092.576   110177639.4601      -3344.945          21.000  
G32  21948467.792   115339940.817        -145.826          38.000  
> 2021  9 12 10 23 20.9999828  0  6
C06  36682060.138   191013067.027       -1493.606          27.000  
C16  37330613.154   194390292.232       -1473.763          22.000  
C25  21799695.785   113516750.701       -1285.071          30.000  
C33  22231594.787   115765701.802       -1416.897          30.000  
G10  20182559.505   106060092.8371       -894.289          30.000  
G32  21948255.239   115338826.820        -146.720          39.000  
> 2021  9 12 10 23 21.9999818  0  5
C06  36682046.348   191013000.365       -1494.927          24.000  
C16  37330597.265   194390207.395       -1477.075          22.000  
C25  21799641.822   113516475.542       -1286.659          28.000  
G10  20182428.795   106059411.789        -894.721          34.000  
G32  21947982.728   115337398.179        -146.764          40.000  
> 2021  9 12 10 23 22.9999811  0  6
C06  36682122.795   191013401.067       -1493.704          23.000  
C16  37330672.813   194390591.307       -1475.895          25.000  
C25  21799678.397   113516669.272       -1286.324          26.000  
C33  22231626.565   115765885.8931      -1418.826          22.000  
G10  20182388.024   106059203.836        -895.066          34.000  
G32  21947798.056                        -146.854          38.000  
> 2021  9 12 10 23 23.9999803  0  6
C06  36682170.762   191013645.381       -1493.031          25.000  
C16  37330715.384   194390818.240       -1477.379          23.000  
C25  21799686.191   113516706.769       -1288.192          29.000  
C33  22231659.542   115766055.613       -1418.789          27.000  
G10  20182323.268   106058839.424        -895.617          32.000  
G32  21947587.002   115335345.1891       -148.092          40.000  
> 2021  9 12 10 23 24.9999793  0  5
C06  36682157.571   191013578.204       -1494.370          25.000  
C25  21799632.229   113516433.682       -1287.874          25.000  
C33  22231634.360   115765912.983       -1417.882          31.000  
G10  20182192.859   106058160.829        -896.752          31.000  
G32  21947315.989   115333917.456        -147.116          41.000  
> 2021  9 12 10 23 25.9999785  0  7
C06  36682204.638   191013823.819       -1494.253          23.000  
C16  37330744.763   194390965.9261      -1480.205          23.000  
C25  21799640.023   113516471.943       -1287.040          25.000  
C33  22231667.337   115766082.844       -1419.479          31.000  
G10  20182123.007   106057797.285        -896.680          32.000  
G23  20968386.588   110189687.2711      -3349.761          21.000  
G32  21947106.135   115332804.699        -148.021          38.000  
> 2021  9 12 10 23 26.9999775  0  6
C06  36682192.946   191013757.009       -1494.523          23.000  
C16  37330726.776   194390884.116       -1478.421          22.000  
C25  21799586.660   113516198.996       -1288.984          28.000  
C33  22231641.855   115765941.567       -1420.336          30.000  
G10  20181992.297   106057118.539        -896.524          30.000  
G32  21946830.925   115331377.056        -147.107          37.000  
> 2021  9 12 10 23 27.9999767  0  7
C06  36682240.613   191014001.093       -1492.482          25.000  
C16  37330767.547   194391113.387       -1478.447          22.000  
C25  21799594.455   113516239.547       -1290.882          25.000  
C33  22231675.431   115766112.935       -1420.804          31.000  
G10  20181921.546   106056755.642        -897.817          29.000  
G12  22283670.836   117101481.4941      -2523.683          26.000  
G32  21946620.771   115330264.430        -148.269          37.000  
> 2021  9 12 10 23 28.9999759  0  7
C06  36682286.781   191014245.527       -1493.760          25.000  
C16  37330812.216   194391340.809       -1475.299          25.000  
C25  21799603.149   113516282.515       -1292.585          23.000  
C33  22231707.809   115766284.916       -1421.601          28.000  
G10  20181851.095   106056393.702        -898.556          30.000  
G23  20969530.896   110195648.4991      -3354.870          20.000  
G32  21946407.618   115329151.762        -149.438          37.000  
> 2021  9 12 10 23 29.9999749  0  7
C06  36682272.991   191014177.715       -1493.264          31.000  
C16  37330797.527   194391254.498       -1474.625          28.000  
C25  21799552.484   113516013.821       -1292.212          27.000  
C33  22231679.628   115766144.968       -1420.433          27.000  
G10  20181721.885   106055718.088        -902.127          22.000  
G23  20969869.961   110197427.519       -3354.101          20.000  
G32  21946131.809   115327724.130        -147.329          32.000  
> 2021  9 12 10 23 30.9999741  0  7
C06  36682316.461   191014422.483       -1494.565          32.000  
C16  37330842.496   194391480.709       -1475.661          30.000  
C25  21799563.276   113516056.820       -1292.433          27.000  
C33  22231712.006   115766316.523       -1420.513          27.000  
G10  20181652.033   106055359.549        -902.004          24.000  
G23  20970267.786   110199520.403       -3352.529          25.000  
G32  21945915.959   115326611.845        -150.204          32.000  
> 2021  9 12 10 23 31.9999734  0  9
C06  36682392.608   191014823.802       -1493.762          32.000  
C16  37330915.345   194391863.101       -1474.668          29.000  
C25  21799601.050   113516255.777       -1292.998          24.000  
C33  22231772.864   115766642.468       -1418.428          25.000  
G10  20181611.561   106055158.541        -901.832          29.000  
G12  22284592.398   117106383.9671      -2525.200          26.000  
G23  20970697.088   110201769.255       -3351.265          25.000  
G31  22002604.014   115624464.7211        600.168          23.000  
G32  21945742.678   115325657.026        -147.422          35.000  
> 2021  9 12 10 23 32.9999724  0  9
C06  36682380.017   191014756.036       -1493.182          30.000  
C16  37330897.657   194391776.595       -1475.112          27.000  
C25  21799548.886   113515987.745       -1294.301          25.000  
C33  22231742.585   115766500.094       -1420.352          24.000  
G10  20181482.950   106054484.857        -901.827          30.000  
G12  22284771.674   117107334.353       -2526.506          27.000  
G23  20971034.955   110203545.153       -3351.594          23.000  
G31  22002190.001   115622289.259         599.882          19.000  
G32  21945472.565   115324229.444        -147.336          36.000  
> 2021  9 12 10 23 33.9999716  0  8
C06  36682427.084   191015000.305       -1493.811          32.000  
C16  37330942.027   194392002.511       -1474.531          28.000  
C25  21799559.979   113516032.184       -1292.820          27.000  
C33  22231776.461   115766672.342       -1422.115          26.000  
G10  20181413.698   106054126.871        -902.737          22.000  
G12  22285006.111   117108601.065       -2527.520          25.000  
G23  20971435.178   110205636.699       -3352.292          24.000  
G32  21945254.017   115323117.182        -148.971          33.000  
> 2021  9 12 10 23 34.9999706  0  7
C06  36682413.893   191014932.640       -1492.521          31.000  
C16  37330926.437   194391915.804       -1474.395          30.000  
C25  21799510.513   113515764.052       -1294.237          25.000  
C33  22231750.979   115766533.248       -1421.983          28.000  
G10  20181285.986   106053454.559        -903.178          27.000  
G12  22285182.089   117109553.583       -2528.207          23.000  
G23  20971777.241   110207413.815       -3352.989          24.000  
> 2021  9 12 10 23 35.9999698  0  8
C06  36682459.162   191015176.378       -1492.997          28.000  
C16  37330968.708   194392141.867       -1475.554          25.000  
C25  21799520.406   113515808.203       -1292.814          25.000  
C33  22231786.654   115766707.151       -1423.757          29.000  
G10  20181220.332   106053097.381        -903.401          30.000  
G12  22285412.330   117110820.370       -2522.445          23.000  
G23  20972177.164   110209507.061       -3354.241          25.000  
G32  21944779.445   115320577.7411       -146.677          36.000  
> 2021  9 12 10 23 36.9999690  0  6
C06  36682505.330   191015421.403       -1494.505          29.000  
C25  21799529.700   113515852.875       -1294.150          22.000  
C33  22231821.430   115766882.510       -1424.339          30.000  
G23  20972576.188   110211601.423       -3355.234          26.000  
G31  22000718.020   115614532.2721        602.088          16.000  
G32  21944573.188   115319465.695        -146.813          35.000  
> 2021  9 12 10 23 37.9999680  0  6
C06  36682491.839   191015353.987       -1493.845          27.000  
C16  37330987.895   194392282.5871      -1475.378          19.000  
C33  22231794.749   115766745.634       -1424.122          29.000  
G10  20181028.465   106052069.6281       -904.927          32.000  
G23  20972915.253   110213381.604       -3355.914          24.000  
G32  21944300.677   115318038.496        -150.369          33.000  
> 2021  9 12 10 23 38.9999670  0  8
C06  36682478.648   191015287.103       -1494.341          28.000  
C16  37330969.608   194392196.720       -1473.377          21.000  
C25  21799427.470   113515321.5191      -1296.902          18.000  
C33  22231767.168   115766607.814       -1423.350          27.000  
G10  20180903.451   106051399.101        -904.532          32.000  
G12  22286004.420   117113990.7851      -2530.578          24.000  
G23  20973252.819   110215161.826       -3355.819          23.000  
G32  21944030.564   115316611.389        -148.479          32.000  
> 2021  9 12 10 23 39.9999665  0  9
C06  36682613.855   191016000.473       -1494.620          27.000  
C16  37331104.814   194392889.855       -1474.478          21.000  
C23  50073709.492                       -1296.642          22.000  
C25  21799526.402   113515838.373       -1297.117          19.000  
C33  22231890.982   115767250.650       -1423.935          28.000  
G10  20180928.334                        -906.320          33.000  
G12  22286332.993   117115470.385       -2532.250          25.000  
G23  20973742.080   110217730.495       -3356.975          23.000  
G32  21943907.049   115315971.921        -148.743          35.000  
> 2021  9 12 10 23 40.9999654  0  7
C06  36682570.985   191015777.633       -1494.075          27.000  
C16  37331056.847   194392646.461       -1473.935          24.000  
C33  22231835.221   115766957.694       -1424.628          30.000  
G10  20180774.241   106050668.4331       -906.175          31.000  
G12  22286485.587   117116270.227       -2533.510          24.000  
G23  20974046.370   110219354.710       -3357.489          24.000  
G32  21943606.657   115314387.450        -152.582          34.000  
> 2021  9 12 10 23 41.9999644  0  7
C06  36682558.093   191015709.870       -1493.406          27.000  
C16  37331039.459   194392559.158       -1474.168          23.000  
C33  22231807.940   115766822.220       -1425.846          28.000  
G10  20180647.728   106050000.380        -910.277          25.000  
G12  22286666.062   117117228.455       -2534.056          24.000  
G23  20974386.035   110221137.973       -3359.583          22.000  
G32  21943326.651   115312961.122        -148.134          33.000  
> 2021  9 12 10 23 42.9999636  0  7
C06  36682604.561   191015953.548       -1491.560          27.000  
C16  37331084.128   194392784.414       -1472.966          23.000  
C33  22231842.116   115766998.353       -1424.034          24.000  
G10  20180580.875   106049649.646        -908.869          22.000  
G12  22286896.003   117118502.082       -2529.605          20.000  
G23  20974791.054   110223237.052       -3359.427          18.000  
G32  21943114.398   115311848.676        -146.920          34.000    21943116.796    86109503.4191       -110.073          26.000  
> 2021  9 12 10 23 43.9999629  0  6
C06  36682681.908   191016351.087       -1490.338          27.000  
C33  22231905.072   115767329.410       -1424.779          26.000  
G10  20180539.803   106049455.428        -907.970          21.000  
G12  22287159.521   117119932.610       -2536.202          15.000  
G23  20975226.053   110225493.939       -3360.396          20.000  
G32  21942928.826   115310893.614        -145.746          35.000    21942934.822    86108791.316        -112.228          23.000  
> 2021  9 12 10 23 44.9999621  0  5
C06  36682729.275   191016593.123       -1491.083          28.000  
C16  37331200.448   194393387.4791      -1471.332          24.000  
C33  22231935.951   115767506.218       -1427.223          25.000  
G10  20180471.750   106049103.018        -908.083          27.000  
G32                                                                  21942722.869    86107962.532        -110.350          25.000  
> 2021  9 12 10 23 45.9999611  0  5
C06  36682717.883   191016523.128       -1490.875          27.000  
C23  50072090.613                       -1471.332          17.000  
C25  21799399.290   113515194.4231      -1299.021          17.000  
G10  20180343.739   106048435.895        -908.720          28.000  
G32  21942455.454   115308353.1241       -147.163          33.000    21942450.358    86106895.114        -109.184          27.000  
> 2021  9 12 10 23 46.9999601  0  6
C06  36682705.891   191016452.091       -1489.926          27.000  
C16  37331167.770   194393209.3451      -1473.043          23.000  
C33  22231880.190   115767234.7781      -1425.707          24.000  
G10  20180217.526   106047769.306        -909.032          27.000  
G23  20976311.002   110231160.8661      -3357.713          18.000  
G32  21942179.645   115306925.052        -147.050          33.000    21942178.446    86105828.784        -110.339          27.000  
> 2021  9 12 10 23 47.9999596  0  6
C06  36682841.697   191017161.765       -1491.090          26.000  
C16  37331301.178   194393903.221       -1473.400          22.000  
C33  22232000.706   115767880.684       -1427.899          23.000  
G10  20180240.011   106047890.987        -909.734          28.000  
G12  22288111.661   117124872.1451      -2533.730          18.000  
G32  21942055.531   115306284.806        -145.836          33.000    21942056.730    86105352.045        -111.282          24.000  
> 2021  9 12 10 23 48.9999585  0  3
C06  36682797.927   191016935.735       -1492.607          27.000  
G10  20180081.720   106047068.484        -910.900          29.000  
G32  21941756.038   115304699.547        -146.984          33.000  
> 2021  9 12 10 23 49.9999575  0  4
C06  36682786.535   191016867.033       -1491.950          26.000  
C33  22231914.366   115767460.8701      -1429.976          20.000  
G10  20179953.409   106046404.338        -912.318          31.000  
G32  21941491.322   115303271.764        -147.112          31.000  
> 2021  9 12 10 23 50.9999567  0  7
C06  36682833.603   191017109.734       -1491.677          27.000  
C16  37331283.190   194393791.3441      -1471.565          22.000  
C23  50070771.526                       -1299.021          18.000  
C25  21799329.738   113514827.0891      -1300.018          18.000  
G10  20179886.555   106046056.474        -913.004          30.000  
G12  22288703.152   117127910.9161      -2537.208          24.000  
G32  21941276.071   115302159.024        -146.312          34.000  
> 2021  9 12 10 23 51.9999560  0  5
C06  36682909.150   191017508.763       -1491.843          26.000  
C16  37331357.839   194394170.735       -1472.785          22.000  
G10  20179850.280   106045866.899        -913.579          25.000  
G23  20978265.049   110241493.5431      -3354.722          15.000  
G32  21941093.497   115301204.063        -146.883          34.000  
> 2021  9 12 10 23 52.9999552  0  5
C16  37331403.107   194394394.540       -1471.851          24.000  
C23  50070321.837                       -1299.021          18.000  
G10  20179782.527   106045520.230        -913.865          32.000  
G23  20978659.576   110243587.440       -3354.904          15.000  
G32  21940889.638   115300091.019        -148.333          32.000  
> 2021  9 12 10 23 53.9999542  0  5
C06  36682942.128   191017680.5571      -1490.801          23.000  
C16  37331387.218   194394304.816       -1470.760          24.000  
C23  50070022.045                       -1299.021          18.000  
G10  20179657.214   106044858.646        -913.508          31.000  
G32  21940618.326   115298663.009        -148.182          31.000  
> 2021  9 12 10 23 54.9999532  0  8
C06  36682928.037   191017610.956       -1492.917          24.000  
C16  37331371.629   194394213.802       -1469.827          23.000  
C23  50069722.253                       -1299.021          18.000  
C33  22232017.794   115767893.0491      -1428.822          26.000  
G10  20179530.102   106044197.148        -913.716          28.000  
G12  22289615.121   117132549.6351      -2540.524          21.000  
G23  20979331.411   110247142.4811      -3353.320          14.000  
G32  21940336.521   115297234.648        -145.343          32.000    21940335.922    86098591.1861       -109.603          26.000  
> 2021  9 12 10 23 55.9999526  0  6
C16  37331475.957   194394748.115       -1471.870          24.000  
C23  50069542.377                       -1470.760          18.000  
C33  22232113.728   115768385.694       -1428.353          28.000  
G10  20179522.307   106044165.158        -912.728          28.000  
G12  22289919.410   117134144.459       -2539.206          21.000  
G32  21940180.329   115296436.057        -147.086          27.000    21940185.725    86097994.518        -109.416          27.000  
> 2021  9 12 10 23 56.9999516  0  6
C06  36683019.474   191018095.7031      -1489.451          21.000  
C16  37331460.368   194394659.467       -1473.716          25.000  
C33  22232090.044   115768252.729       -1428.748          27.000  
G10  20179396.694   106043502.623        -913.668          31.000  
G23  20980125.262   110251340.1931      -3360.778          12.000  
G32  21939908.417   115295007.197        -146.055          27.000    21939914.413    86096927.896        -109.891          28.000  
> 2021  9 12 10 23 57.9999508  0  6
C06  36683065.342   191018335.225       -1488.705          23.000  
C16  37331503.538   194394883.984       -1472.657          25.000  
C25  21799310.551   113514724.6661      -1302.678          22.000  
C33  22232125.120   115768431.991       -1428.397          27.000  
G10  20179330.140   106043156.384        -914.633          29.000  
G32  21939696.164   115293892.622        -145.927          29.000    21939701.561    86096095.052        -107.684          26.000  
> 2021  9 12 10 23 58.9999498  0  7
C06  36683052.451   191018262.353       -1488.790          24.000  
C16  37331487.049   194394794.901       -1471.282          24.000  
C25  21799259.287   113514465.435       -1301.731          21.000  
C33  22232101.736   115768300.036       -1429.995          26.000  
G10  20179204.527   106042495.856        -914.998          28.000  
G23  20980862.451   110255232.5611      -3368.110          11.000  
G32  21939424.852   115292463.674        -147.378          28.000    21939429.049    86095026.269        -108.582          25.000  
> 2021  9 12 10 23 59.9999491  0  6
C06  36683129.798   191018659.647       -1491.741          24.000  
C16  37331558.700   194395173.741       -1472.271          23.000  
C25  21799298.859   113514673.130       -1300.721          21.000  
C33  22232168.590   115768637.820       -1430.895          29.000  
G10  20179171.550   106042308.697        -916.478          30.000  
G32  21939243.478   115291507.794        -146.665          30.000    21939247.375    86094312.591        -109.850          23.000  
> 2021  9 12 10 24  0.9999483  0  6
C06  36683177.165   191018901.078       -1490.399          24.000  
C16  37331601.570   194395397.033       -1472.338          23.000  
C25  21799308.753   113514723.102       -1298.980          22.000  
C33  22232203.066   115768818.958       -1429.197          27.000  
G10  20179108.594   106041965.038        -917.663          29.000  
G32  21939032.724   115290393.815        -146.463          30.000    21939035.122    86093481.135        -110.328          26.000  
> 2021  9 12 10 24  1.9999473  0  7
C06  36683165.173   191018830.423       -1490.299          24.000  
C16  37331585.681   194395307.684       -1471.494          23.000  
C25  21799259.886   113514463.669       -1303.620          20.000  
C33  22232178.783   115768687.365       -1429.860          27.000  
G10  20178985.379   106041307.080        -917.934          29.000  
G12  22291239.096   117141034.7301      -2542.020          18.000  
G32  21938762.011   115288964.394        -146.030          30.000    21938762.910    86092416.215        -113.071          26.000  
> 2021  9 12 10 24  2.9999462  0  5
C06  36683123.502   191018603.160       -1490.096          24.000  
C16  37331538.913   194395061.362       -1471.159          24.000  
C33  22232123.621   115768399.934       -1430.199          26.000  
G10  20178829.787   106040492.296        -918.472          29.000  
G32  21938460.420   115287377.562        -146.049          30.000    21938461.619    86091234.690        -111.764          26.000  
> 2021  9 12 10 24  3.9999457  0  6
C06  36683259.008   191019311.035       -1488.272          23.000  
C16  37331673.520   194395749.680       -1467.601          24.000  
C33  22232249.534   115769050.069       -1430.411          26.000  
G10  20178854.670   106040623.199        -918.908          30.000  
G23  20982833.587   110265622.8721      -3367.076          16.000  
G32  21938338.704   115286735.734        -145.912          29.000    21938338.704    86090757.036        -110.198          27.000  
> 2021  9 12 10 24  4.9999447  0  5
C06  36683244.318   191019236.870       -1487.511          24.000  
C33  22232226.750   115768920.303       -1432.134          25.000  
G10  20178729.956   106039966.833        -919.357          32.000  
G23  20983176.249   110267414.528       -3367.517          16.000  
G32  21938069.191   115285306.040        -145.949          29.000    21938066.193    86089690.419        -111.042          25.000  
> 2021  9 12 10 24  5.9999439  0  7
C06  36683291.985   191019475.629       -1488.328          25.000  
C16  37331694.506   194395873.2631      -1468.521          16.000  
C25  21799250.593   113514392.7421      -1309.469          18.000  
C33  22232263.324   115769103.089       -1431.377          21.000  
G10  20178668.199   106039626.018        -919.687          32.000  
G12  22292204.128   117146324.0521      -2544.290          20.000  
G32  21937859.336   115284191.470        -145.657          29.000    21937853.640    86088859.480        -110.028          26.000  
> 2021  9 12 10 24  6.9999429  0  5
C06  36683278.495   191019402.254       -1487.907          25.000  
C16  37331677.118   194395780.422       -1468.133          20.000  
C33  22232236.643   115768972.500       -1431.083          23.000  
G10  20178541.986   106038970.897        -920.314          31.000  
G32  21937586.825   115282761.799        -145.810          28.000    21937581.728    86087792.388        -109.449          26.000  
> 2021  9 12 10 24  7.9999421  0  5
C06  36683322.864   191019641.584       -1488.206          25.000  
C16  37331720.588   194395999.040       -1467.780          21.000  
C33  22232273.517   115769156.293       -1433.333          24.000  
G10  20178476.032   106038630.831        -920.348          31.000  
G32  21937374.572   115281647.246        -145.909          28.000    21937369.475    86086959.616        -107.210          25.000  
> 2021  9 12 10 24  8.9999414  0  5
C06  36683399.611   191020036.588       -1486.403          24.000  
C16  37331793.137   194396374.588       -1468.900          24.000  
C33  22232338.272   115769495.947       -1430.521          22.000  
G10  20178444.254   106038448.480        -921.256          31.000  
G32  21937193.797   115280690.103        -145.606          29.000    21937186.602    86086243.936        -108.245          25.000  
> 2021  9 12 10 24  9.9999404  0  6
C06  36683387.919   191019961.427       -1486.198          24.000  
C16  37331776.949   194396282.084       -1469.312          22.000  
C33  22232313.989   115769364.853       -1430.319          23.000  
G10  20178323.737                        -920.112          31.000  
G23  20985104.814   110277479.5191      -3368.471          18.000  
G32  21936921.885   115279259.945        -145.094          27.000    21936913.191    86085173.113        -105.607          25.000  
> 2021  9 12 10 24 10.9999396  0  6
C06  36683434.087   191020198.661       -1485.994          26.000  
C16  37331819.819   194396502.814       -1470.250          22.000  
C33  22232349.365   115769546.785       -1431.060          24.000  
G10  20178252.087   106037469.1071       -922.855          31.000  
G23  20985506.836   110279588.224       -3369.261          19.000  
G32  21936708.133   115278144.459        -144.901          28.000    21936701.238    86084337.382        -105.916          24.000  
> 2021  9 12 10 24 11.9999388  0  7
C06  36683479.356   191020435.609       -1485.290          25.000  
C16  37331863.888   194396724.095       -1469.457          23.000  
C33  22232384.740   115769729.480       -1433.426          23.000  
G10  20178190.330   106037130.987        -922.995          30.000  
G12  22293633.838   117153836.6951      -2546.187          17.000  
G23  20985907.658   110281697.303       -3369.654          20.000  
G32  21936493.182   115277029.035        -145.078          28.000    21936489.284    86083502.906        -107.963          25.000  
> 2021  9 12 10 24 12.9999378  0  6
C06  36683464.066   191020360.823       -1487.233          24.000  
C16  37331846.500   194396631.592       -1468.643          24.000  
C33  22232358.658   115769602.522       -1434.125          24.000  
G10  20178066.215   106036478.387        -925.441          31.000  
G23  20986255.418   110283491.706       -3370.070          20.000  
G32  21936221.270   115275598.686        -144.982          28.000    21936217.673    86082433.819        -107.298          25.000  
> 2021  9 12 10 24 13.9999370  0  6
C06  36683509.935   191020599.298       -1487.883          25.000  
C16  37331887.872   194396850.479       -1467.860          23.000  
C33  22232394.034   115769788.193       -1434.386          24.000  
G10  20178002.959   106036141.428        -920.388          30.000  
G23  20986661.037   110285601.928       -3371.249          21.000  
G32  21936007.218   115274483.212        -144.794          29.000    21936006.319    86081600.732        -107.440          25.000  
> 2021  9 12 10 24 14.9999360  0  7
C06  36683494.945   191020524.688       -1486.724          24.000  
C16  37331869.584   194396756.641       -1467.574          22.000  
C25  21799140.869   113513800.9071      -1306.230          17.000  
C33  22232369.451   115769661.204       -1432.979          25.000  
G10  20177871.051   106035489.556        -924.944          29.000  
G23  20987006.098   110287398.131       -3372.028          21.000  
G32  21935734.707   115273052.561        -144.734          27.000    21935733.508    86080530.624        -105.855          26.000  
> 2021  9 12 10 24 15.9999355  0  7
C06  36683630.451   191021231.416       -1487.062          24.000  
C16  37331999.694   194397442.639       -1465.659          24.000  
C33  22232493.265   115770313.357       -1432.353          26.000  
G10  20177900.430   106035625.981        -924.245          28.000  
G12  22294585.979   117158840.6201      -2550.717          19.000  
G23  20987501.055   110289982.543       -3372.487          22.000  
G32  21935612.092   115272409.489        -144.599          32.000    21935611.492    86080047.734        -105.028          25.000  
> 2021  9 12 10 24 16.9999345  0  5
C06  36683614.562   191021156.757       -1487.139          26.000  
C16  37331981.707   194397345.214       -1462.945          22.000  
C33  22232465.984   115770185.454       -1433.966          26.000  
G10  20177775.117   106034975.869        -925.268          26.000  
G32  21935337.782   115270978.266        -143.884          34.000    21935340.180    86078977.192        -107.742          24.000  
> 2021  9 12 10 24 17.9999334  0  6
C16  37331931.941   194397090.971       -1463.623          25.000  
C33  22232411.122   115769902.955       -1435.509          28.000  
G10  20177618.925   106034167.658        -924.620          30.000  
G12  22294919.349   117160632.4691      -2550.039          19.000  
G23  20988147.108   110293418.4611      -3372.404          21.000  
G32                                                                  21935039.488    86077790.418        -107.803          23.000  
> 2021  9 12 10 24 18.9999327  0  5
C06  36683642.443   191021320.9811      -1485.256          21.000  
C16  37332002.093   194397462.927       -1465.138          26.000  
C33  22232473.779   115770244.883       -1434.500          25.000  
G10  20177583.250   106033989.015        -924.522          30.000  
G32  21934847.021   115268428.7181       -143.102          31.000    21934856.915    86077072.995        -104.197          22.000  
> 2021  9 12 10 24 19.9999319  0  4
C06  36683688.011   191021557.312       -1484.406          24.000  
C16  37332043.164   194397679.118       -1466.025          25.000  
G12  22295433.493   117163365.7271      -2546.328          19.000  
G32  21934638.366   115267311.417        -141.607          33.000    21934644.362    86076237.367        -106.810          21.000  
> 2021  9 12 10 24 20.9999309  0  5
C06  36683672.722   191021479.276       -1484.105          24.000  
C16  37332023.678   194397583.568       -1465.659          24.000  
G10  20177395.280   106033003.6081       -925.490          30.000  
G32                                                                  21934373.050    86075168.410        -108.545          23.000  
R12  19060993.049   101820403.8861      -1431.976          24.000  
> 2021  9 12 10 24 21.9999301  0  7
C06  36683717.091   191021713.790       -1483.302          22.000  
C16  37332064.150   194397801.182       -1466.222          23.000  
C25  21799130.076   113513759.8111      -1310.593          25.000  
C33  22232516.349   115770491.2101      -1435.439          23.000  
G23  20989724.016   110301738.8291      -3377.925          16.000  
G32  21934156.000   115264768.5741       -144.251          36.000    21934160.497    86074334.952        -107.141          23.000  
R12  19061018.831   101820541.965       -1431.890          27.000  
> 2021  9 12 10 24 22.9999291  0  7
C06  36683702.401   191021636.196       -1483.623          30.000  
C16  37332044.363   194397705.693       -1465.442          29.000  
C25  21799080.910   113513509.355       -1310.837          31.000  
C33  22232489.967   115770365.338       -1435.056          28.000  
G23  20990064.880   110303539.428       -3374.368          25.000  
G32  21933885.287   115263336.466        -143.703          39.000    21933887.686    86073265.921        -107.981          29.000  
R12  19060984.655   101820358.883       -1433.129          28.000  
> 2021  9 12 10 24 23.9999286  0  9
C06  36683836.109   191022338.555       -1482.611          30.000  
C16  37332172.675   194398390.440       -1465.815          28.000  
C25  21799181.041   113514040.338       -1311.474          27.000  
C33  22232614.981   115771019.932       -1434.589          31.000  
G10  20177235.790   106032159.1001       -927.079          31.000  
G12  22296382.036   117168365.5901      -2548.940          20.000  
G23  20990555.941   110306125.635       -3372.876          26.000  
G32  21933765.670   115262691.239        -143.069          39.000    21933764.771    86072785.146        -106.325          33.000  
R12  19061101.874   101820985.143       -1432.694          31.000  
> 2021  9 12 10 24 24.9999276  0  9
C06  36683822.318   191022261.231       -1484.375          25.000  
C16  37332152.888   194398294.339       -1464.284          21.000  
C25  21799130.976   113513790.047       -1310.765          30.000  
C33  22232590.398   115770893.495       -1434.759          34.000  
G10  20177111.676   106031510.803        -927.307          33.000  
G12  22296572.104   117169339.572       -2547.764          20.000  
G23  20990895.905   110307922.833       -3372.905          21.000  
G32  21933491.660   115261258.511        -143.855          38.000  
R12  19061069.196   101820810.389       -1434.196          30.000  
> 2021  9 12 10 24 25.9999265  0  8
C06  36683779.148   191022028.291       -1484.342          23.000  
C16  37332103.423   194398040.745       -1463.372          28.000  
C25  21799052.130   113513383.687       -1310.444          29.000  
C33  22232534.337   115770612.012       -1436.230          30.000  
G12  22296738.189   117170155.344       -2551.094          20.000  
G23  20991207.689   110309562.241       -3371.300          24.000  
G32  21933187.670   115259668.483        -144.616          35.000  
R12  19061006.540   101820475.938       -1435.605          29.000  
> 2021  9 12 10 24 26.9999258  0  7
C06  36683851.998   191022419.537       -1483.661          28.000  
C25  21799093.202   113513602.354       -1312.336          27.000  
C33  22232601.190   115770955.424       -1435.954          30.000  
G10  20176933.899   106030530.1561       -927.225          29.000  
G23  20991639.690   110311831.312       -3372.147          23.000  
G32  21933005.696   115258707.226        -141.893          39.000  
R12  19061063.800   101820781.986       -1434.458          28.000  
> 2021  9 12 10 24 27.9999250  0 10
C06  36683898.466   191022653.376       -1482.482          27.000  
C16  37332214.646   194398624.6511      -1460.688          23.000  
C25  21799105.194   113513665.777       -1312.305          30.000  
C33  22232638.365   115771141.655       -1434.376          31.000  
E21  24143731.642                       -1614.855          30.000  
G10  20176873.641                        -929.400          35.000  
G23  20992039.314   110313944.429       -3372.810          21.000  
G32  21932789.846   115257588.344        -141.418          38.000  
J01  38153230.168   200496578.1101       -224.635          28.000  
R12  19061092.580   101820935.936       -1435.729          29.000  
> 2021  9 12 10 24 28.9999242  0 10
C06  36683943.434   191022886.426       -1481.329          28.000  
C16  37332255.717   194398836.461       -1460.346          24.000  
C25  21799116.885   113513729.683       -1313.000          33.000  
C33  22232675.839   115771327.030       -1434.832          30.000  
E21  24143796.997                       -1616.004          28.000  
G10  20176808.286   106029856.1221       -928.263          35.000  
G23  20992439.537   110316058.942       -3377.203          22.000  
G32  21932577.892   115256470.086        -141.702          40.000  
J01  38153032.905   200495542.945        -225.613          29.000  
R12  19061121.360   101821089.421       -1436.578          30.000  
> 2021  9 12 10 24 29.9999232  0  9
C06  36683930.843   191022807.042       -1482.363          26.000  
C16  37332234.732   194398734.983       -1460.240          21.000  
C25  21799068.919   113513481.596       -1314.593          31.000  
C33  22232653.055   115771201.036       -1436.236          28.000  
E21  24143803.593   126876549.8941      -1615.521          29.000  
G10  20176685.671   106029211.244        -930.205          30.000  
G32  21932303.582   115255036.898        -142.537          38.000  
J01  38152775.683   200494192.762        -225.388          26.000  
R12  19061088.683   101820915.131       -1437.627          31.000  
> 2021  9 12 10 24 30.9999222  0  8
C16  37332218.543   194398635.835       -1463.568          24.000  
C25  21799021.252   113513235.512       -1315.064          30.000  
C33  22232629.371   115771076.776       -1437.773          27.000  
E21  24143810.488   126876590.894       -1617.039          26.000  
G10  20176563.356   106028566.640        -929.854          32.000  
G32  21932026.574   115253603.354        -140.871          35.000  
J01  38152517.861   200492843.693        -225.707          25.000  
R12  19061057.205   101820746.827       -1439.312          31.000  
> 2021  9 12 10 24 31.9999217  0  9
C06  36684050.161   191023429.9601      -1482.026          23.000  
C16  37332351.051   194399319.668       -1464.595          24.000  
C25  21799124.080   113513768.811       -1313.609          30.000  
C33  22232755.284   115771734.084       -1438.470          27.000  
E21  24143966.979   126877419.759       -1616.230          27.000  
G10  20176591.836   106028710.107        -930.662          29.000  
G23  20993608.128   110322265.7011      -3385.026          15.000  
G32  21931908.456   115252957.266        -142.013          36.000  
R12  19061177.122   101821387.741       -1440.760          31.000  
> 2021  9 12 10 24 32.9999206  0  9
C06  36684006.091   191023194.617       -1482.039          28.000  
C16  37332305.183   194399066.989       -1465.112          25.000  
C25  21799045.235   113513364.390       -1311.016          28.000  
C33  22232701.621   115771456.150       -1439.923          26.000  
E21  24143944.495   126877301.948       -1616.340          24.000  
G10  20176437.443   106027908.335        -931.557          24.000  
G32  21931605.665   115251365.882        -141.536          40.000  
J01  38152125.133   200490774.2101       -226.015          24.000  
R12  19061118.962   101821076.678       -1440.851          31.000  
> 2021  9 12 10 24 33.9999199  0  9
C06  36684082.238   191023583.723       -1482.243          30.000  
C16  37332377.133   194399438.259       -1463.422          25.000  
C25  21799085.707   113513583.395       -1312.647          25.000  
C33  22232769.374   115771801.801       -1437.667          29.000  
G10  20176405.665   106027736.625        -931.430          25.000  
G23  20994355.810   110326188.2081      -3376.999          15.000  
G32  21931423.392   115250404.479        -141.244          41.000  
J01  38151959.948   200489896.793        -225.095          28.000  
R12  19061178.021   101821392.110       -1440.751          32.000  
> 2021  9 12 10 24 34.9999188  0  7
C06  36684038.768   191023348.014       -1481.453          29.000  
C16  37332328.867   194399184.582       -1464.380          25.000  
C25  21799007.461   113513179.341       -1314.016          25.000  
G10  20176249.773   106026935.334        -932.235          31.000  
G23  20994666.994   110327831.812       -3376.619          15.000  
G32  21931122.400   115248813.071        -144.009          39.000  
R12  19061119.861   101821081.869       -1442.755          32.000  
> 2021  9 12 10 24 35.9999181  0  9
C06  36684114.616   191023736.666       -1481.185          28.000  
C16  37332399.917   194399554.794       -1462.385          23.000  
C25  21799053.030   113513400.832       -1315.038          28.000  
C33  22232781.666   115771869.1711      -1439.672          24.000  
G10  20176217.695   106026765.596        -933.687          29.000  
G23  20995100.195   110330106.454       -3377.865          17.000  
G32  21930938.927   115247852.932        -144.703          32.000  
J01  38151508.760   200487511.9701       -226.488          25.000  
R12  19061177.721   101821390.175       -1443.452          30.000  
> 2021  9 12 10 24 36.9999173  0  9
C06  36684161.683   191023969.241       -1481.796          30.000  
C16  37332441.289   194399768.441       -1462.934          28.000  
C25  21799067.120   113513468.035       -1317.175          31.000  
C33  22232818.240   115772059.761       -1439.547          29.000  
G10  20176152.940   106026439.596        -934.884          29.000  
G23  20995503.116   110332224.545       -3379.046          24.000  
G32  21930724.575   115246735.595        -142.600          31.000    21930725.774    86060878.8991       -106.077          31.000  
J01  38151312.996   200486477.792        -225.971          28.000  
R12  19061210.698   101821566.974       -1443.843          28.000  
> 2021  9 12 10 24 37.9999163  0  8
C06  36684148.193   191023890.000       -1481.791          28.000  
C16  37332421.203   194399669.974       -1463.485          29.000  
C25  21799019.453   113513223.903       -1317.839          31.000  
C33  22232795.456   115771938.095       -1439.021          30.000  
G10  20176030.025   106025799.316        -935.451          32.000  
G32                                                                  21930454.163    86059809.097        -105.710          31.000  
J01  38151057.872   200485127.615        -224.042          30.000  
R12  19061182.518   101821416.269       -1444.721          29.000  
> 2021  9 12 10 24 38.9999155  0  8
C06  36684191.663   191024122.190       -1480.083          24.000  
C16  37332462.574   194399883.182       -1461.143          26.000  
C25  21799032.944   113513290.511       -1313.927          26.000  
C33  22232833.530   115772127.995       -1438.767          31.000  
G12  22299665.063   117185531.2351      -2565.187          22.000  
G23  20996261.591   110336146.3941      -3379.239          20.000  
G32  21930235.614   115244183.4261       -141.188          37.000    21930241.010    86058973.762        -105.903          30.000  
R12  19061214.296   101821586.299       -1443.893          26.000  
> 2021  9 12 10 24 39.9999148  0  6
C06  36684265.112   191024509.755       -1481.057          27.000  
C16  37332531.226   194400251.098       -1460.625          25.000  
C25  21799075.514   113513512.203       -1315.146          20.000  
C33  22232901.882   115772474.634       -1440.070          31.000  
G23  20996698.988   110338423.235       -3379.970          21.000  
G32  21930054.239   115243221.581        -141.174          38.000    21930057.837    86058256.797        -106.993          28.000  
> 2021  9 12 10 24 40.9999137  0  8
C06  36684219.243   191024273.535       -1480.602          28.000  
C16  37332481.161   194399994.320       -1460.802          28.000  
C25  21798997.268   113513110.981       -1316.692          27.000  
C33  22232846.720   115772197.591       -1439.794          27.000  
G10  20175789.891   106024510.0281       -935.750          31.000  
G23  20997011.072   110340070.025       -3379.874          21.000  
G32  21929751.749                        -140.165          39.000    21929754.747    86057067.436        -103.098          25.000  
R12  19061234.382   101821693.5301      -1444.690          21.000  
> 2021  9 12 10 24 41.9999130  0  7
C06  36684293.292   191024660.883       -1480.214          34.000  
C16  37332550.713   194400362.092       -1460.671          31.000  
C25  21799038.640   113513335.021       -1316.987          29.000  
C33  22232912.375   115772544.322       -1439.336          29.000  
G10  20175763.809   106024343.866        -936.858          32.000  
G23  20997445.471   110342347.216       -3380.323          20.000  
G32  21929570.374   115240661.6161       -140.942          39.000    21929571.574    86056346.274        -103.436          27.000  
> 2021  9 12 10 24 42.9999119  0  8
C06  36684245.925   191024423.677       -1480.879          33.000  
C16  37332503.646   194400105.255       -1460.469          31.000  
C25  21798961.893   113512935.158       -1318.241          32.000  
C33  22232857.213   115772266.704       -1439.506          30.000  
G10  20175613.314                        -937.114          36.000  
G23  20997756.656   110343995.154       -3381.507          22.000  
G32  21929264.586   115239069.493        -141.723          39.000    21929268.184    86055154.750        -102.653          29.000  
R12  19061222.690   101821630.3541      -1445.968          22.000  
> 2021  9 12 10 24 43.9999112  0  8
C06  36684318.775   191024810.848       -1481.061          31.000  
C16  37332577.394                       -1459.618          30.000  
C25  21799005.962   113513160.857       -1319.485          33.000  
C33  22232923.467   115772613.761       -1440.115          29.000  
G10  20175585.133   106023399.1821       -939.082          37.000  
G23  20998190.755   110346274.439       -3382.785          25.000  
G32  21929082.612   115238107.500        -141.657          39.000    21929085.610    86054435.532        -104.536          29.000  
J01  38149791.549   200478432.4501       -223.028          21.000  
> 2021  9 12 10 24 44.9999104  0  8
C06  36684364.943                       -1481.820          32.000  
C16  37332618.166   194400739.2991      -1459.942          30.000  
C25  21799021.252                       -1317.375          33.000  
C33  22232958.843   115772805.052       -1439.743          29.000  
G10  20175524.575   106023077.008        -939.308          37.000  
G23  20998595.775   110348396.948       -3383.118          26.000  
G32  21928870.959   115236987.933        -141.046          39.000    21928873.057    86053599.500        -105.679          28.000  
J01  38149594.885   200477397.294        -226.197          21.000  
> 2021  9 12 10 24 45.9999094  0  9
C06  36684348.754   191025033.8021      -1479.845          30.000  
C16  37332601.078   194400638.819       -1460.823          31.000  
C25  21798977.782   113512983.0001      -1319.696          34.000  
C33  22232934.859   115772684.092       -1440.479          28.000  
E21  24144603.739   126880707.2841      -1621.701          24.000  
G10  20175399.562   106022440.391        -939.627          37.000  
G23  20998942.635   110350204.773       -3383.428          26.000  
G32  21928598.747   115235553.198        -140.655          40.000    21928600.546    86052528.726        -105.691          28.000  
J01  38149337.663   200476048.469        -226.803          22.000  
> 2021  9 12 10 24 46.9999086  0  9
C06  36684395.222   191025264.469       -1479.565          30.000  
C16  37332643.049   194400850.397       -1461.288          31.000  
C25  21798992.172   113513053.488       -1320.614          33.000  
C33  22232972.334   115772876.430       -1442.410          29.000  
E21  24144671.192   126881068.685       -1621.199          25.000  
G10  20175339.303   106022119.354        -939.191          37.000  
G23  20999346.455   110352327.943       -3383.702          27.000  
G32  21928384.395   115234433.386        -139.916          40.000    21928388.293    86051693.347        -105.453          29.000  
J01  38149138.601   200475013.572        -222.260          21.000  
> 2021  9 12 10 24 47.9999078  0  8
C06  36684438.692   191025495.104       -1480.108          31.000  
C16  37332680.523   194401061.677       -1459.923          31.000  
C25  21799003.864   113513124.506       -1319.996          33.000  
C33  22233009.508   115773070.400       -1443.425          29.000  
G10  20175277.246   106021798.807        -940.308          37.000  
G23  20999751.175   110354451.291       -3384.069          26.000  
G32  21928170.643   115233313.473        -141.430          39.000    21928174.840    86050858.068        -106.649          29.000  
J01  38148941.337   200473976.431        -223.427          22.000  
> 2021  9 12 10 24 48.9999068  0  9
C06  36684424.302   191025413.333       -1481.727          31.000  
C16  37332658.338   194400960.716       -1462.477          30.000  
C25  21798957.995   113512883.606       -1319.222          32.000  
C33  22232984.025   115772952.563       -1442.692          27.000  
G10  20175154.931   106021163.760        -940.771          37.000    20175154.931    79171641.6681       -702.219          27.000  
G23  21000096.236   110356259.925       -3384.055          23.000  
G32  21927896.333   115231878.554        -140.615          37.000    21927901.730    86049786.873        -104.348          29.000  
J01  38148683.216   200472625.443        -225.041          21.000  
R12  19061330.316   101822205.6991      -1450.890          18.000  
> 2021  9 12 10 24 49.9999060  0  8
C06  36684468.971   191025643.437       -1478.599          31.000  
C16  37332701.808   194401171.761       -1458.724          30.000  
C25  21798971.786   113512955.271       -1319.703          33.000  
C33  22233021.200   115773146.023       -1442.569          27.000  
G10  20175095.272   106020844.304        -941.303          37.000    20175093.473    79171403.034        -701.516          26.000  
G23  21000500.056   110358383.705       -3384.209          24.000  
G32  21927681.682   115230758.580        -140.147          37.000    21927687.977    86048949.573        -103.944          28.000  
R12  19061357.897   101822353.105       -1451.303          19.000  
> 2021  9 12 10 24 50.9999050  0  8
C06  36684450.983   191025561.280       -1478.675          31.000  
C16  37332682.022   194401070.334       -1459.955          30.000  
C25  21798924.419   113512715.065       -1320.857          33.000  
C33  22232999.914   115773027.458       -1442.741          29.000  
G10  20174974.756   106020210.175        -941.479          36.000    20174972.957    79170929.050        -703.455          26.000  
G23  21000844.218   110360193.475       -3385.899          25.000  
G32  21927410.070   115229323.347        -141.468          40.000    21927414.567    86047876.816        -104.355          29.000  
R12  19061329.416   101822201.366       -1452.840          20.000  
> 2021  9 12 10 24 51.9999045  0  7
C06  36684580.194   191026259.369       -1480.342          32.000  
C25  21799029.646   113513254.012       -1320.199          31.000  
C33  22233128.226   115773689.072       -1441.360          31.000  
G10  20175002.636   106020365.373        -941.805          32.000    20175002.037    79171043.531        -702.088          24.000  
G23  21001338.576   110362790.687       -3383.797          27.000  
G32  21927288.654   115228675.995        -141.271          34.000    21927291.052    86047392.949        -105.229          27.000  
R12  19061444.237   101822813.944       -1454.320          21.000  
> 2021  9 12 10 24 52.9999035  0  7
C16  37332791.446   194401646.4231      -1459.395          20.000  
C25  21798981.679   113513013.476       -1321.340          29.000  
C33  22233106.940   115773569.703       -1443.115          31.000  
G10  20174881.820   106019731.719        -942.156          36.000    20174881.520    79170571.453        -704.566          21.000  
G23  21001678.540   110364599.531       -3385.847          22.000  
G32  21927010.447   115227240.692        -139.915          29.000    21927017.642    86046320.703        -104.933          31.000  
R12  19061414.557   101822655.245       -1455.603          33.000  
> 2021  9 12 10 24 53.9999025  0  6
C06  36684549.615   191026099.6841      -1482.273          16.000  
C25  21798934.911   113512774.231       -1322.262          30.000  
C33  22233087.754   115773451.029       -1441.927          31.000  
G10  20174763.702                        -943.606          36.000    20174761.004    79170097.719        -701.557          24.000  
G32  21926733.139   115225804.940        -139.669          25.000    21926743.931    86045249.199        -105.507          33.000  
R12  19061385.178   101822498.929       -1456.832          33.000  
> 2021  9 12 10 24 54.9999017  0  6
C16  37332809.134   194401755.4701      -1458.727          17.000  
C25  21798948.102   113512847.682       -1322.555          31.000  
C33  22233127.626                       -1443.151          32.000  
G10  20174700.446                        -943.656          33.000  
G12  22303401.077   117205164.0041      -2569.352          12.000  
G32  21926516.988   115224683.965        -139.371          30.000    21926530.179    86044412.466        -103.867          32.000  
> 2021  9 12 10 24 55.9999009  0  5
C25  21798963.691   113512921.639       -1322.567          32.000  
C33  22233160.303   115773925.0851      -1445.141          31.000  
G10  20174636.890   106018466.0511       -944.114          34.000  
G32                                                                  21926317.027    86043575.222        -103.362          32.000  
R12  19061450.233   101822846.1861      -1458.163          31.000  
> 2021  9 12 10 24 56.9999002  0  7
C25  21799013.757                       -1321.989          32.000  
C33  22233229.855   115774276.207       -1443.429          30.000  
G10  20174605.711   106018307.648        -945.377          33.000  
G23  21003258.747   110372954.3391      -3387.999          18.000  
G32                                                                  21926134.153    86042856.225        -104.185          32.000  
J01  38147041.553   200464017.0381       -224.121          23.000  
R12  19061511.990   101823176.295       -1458.365          31.000  
> 2021  9 12 10 24 57.9998991  0  7
C24  49723758.758                       -1443.151          22.000  
C25  21798941.207   113512791.8491      -1324.074          32.000  
C33  22233177.392   115774003.327       -1443.459          31.000  
G10  20174459.412   106017519.681        -945.204          32.000  
G32  21925822.069   115221005.7651       -139.092          32.000    21925831.063                        -103.338          32.000  
J01  38146754.651   200462507.262        -223.158          24.000  
R12  19061454.130   101822867.092       -1458.754          31.000  
> 2021  9 12 10 24 58.9998981  0  7
C24  49723458.966                       -1443.151          22.000  
C25  21798891.142   113512554.971       -1325.214          32.000  
C33  22233157.905   115773886.994       -1445.816          30.000  
G10  20174338.296   106016889.966        -947.516          32.000  
G32  21925547.160   115219568.902        -138.359          29.000    21925557.652    86040599.1741       -104.104          31.000  
J01  38146497.429   200461154.596        -222.321          25.000  
R12  19061429.247   101822733.907       -1460.856          30.000  
> 2021  9 12 10 24 59.9998976  0 11
C06  36684796.644   191027321.8131      -1472.122          17.000  
C16  37332965.626   194402620.2001      -1453.871          17.000  
C24  49723309.069                       -1443.151          21.000  
C25  21798995.769   113513099.484       -1326.134          32.000  
C33  22233284.717   115774551.985       -1443.512          31.000  
G10  20174369.774   106017049.120        -946.457          33.000  
G12  22304601.446   117211554.3151      -2571.432          19.000  
G23  21004410.849   110379031.5281      -3392.592          18.000  
G32  21925422.446   115218919.603        -138.975          30.000    21925434.438    86040115.584        -104.416          32.000  
J01  38146391.603   200460589.479        -223.158          25.000  
R12  19061553.661   101823399.156       -1461.192          31.000  
> 2021  9 12 10 25  0.9998966  0  7
C24  49723009.277                       -1443.151          22.000  
C25  21798952.599   113512863.213       -1325.357          31.000  
C33  22233262.533   115774436.240       -1448.163          31.000  
G10  20174252.855   106016420.510        -946.328          33.000  
G32  21925148.136   115217483.149        -138.940          28.000    21925160.727    86039043.309        -104.453          31.000  
J01  38146137.079   200459237.296        -223.457          25.000  
R12  19061529.078   101823267.025       -1461.447          30.000  
> 2021  9 12 10 25  1.9998958  0  7
C24  49722769.443                       -1443.151          20.000  
C25  21798969.687   113512939.911       -1326.482          32.000  
C33  22233300.606   115774633.251       -1445.901          31.000  
G10  20174191.098   106016107.728        -947.119          33.000  
G32  21924933.484   115216361.862        -139.181          28.000    21924948.174    86038206.484        -102.566          31.000  
J01  38145939.216   200458199.727        -222.102          25.000  
R12  19061561.755   101823441.750       -1463.067          30.000  
> 2021  9 12 10 25  2.9998948  0  7
C24  49722469.651                       -1443.151          20.000  
C25  21798925.318   113512704.693       -1325.986          32.000  
C33  22233278.721   115774518.106       -1446.191          30.000  
G10  20174069.083   106015480.462        -948.130          31.000  
G32  21924660.973   115214925.668        -139.489          28.000    21924674.763    86037134.260        -105.612          32.000  
J01  38145682.593   200456846.936        -222.507          24.000  
R12  19061537.472   101823312.658       -1465.381          30.000  
> 2021  9 12 10 25  3.9998940  0  6
C25  21798938.209   113512782.066       -1327.697          32.000  
C33  22233315.296   115774715.510       -1446.679          30.000  
G10  20174011.522   106015168.682        -949.095          32.000  
G32  21924447.821   115213804.820        -139.569          28.000    21924461.911    86036297.247        -104.208          32.000  
J01  38145485.030   200455809.027        -222.654          26.000  
R12  19061573.447   101823504.093       -1464.293          30.000  
> 2021  9 12 10 25  4.9998932  0  7
C06  36684889.879   191027839.9281      -1479.702          18.000  
C25  21798954.698   113512859.881       -1326.517          31.000  
C33  22233352.171   115774913.366       -1446.385          30.000  
G10  20173953.662   106014857.548        -948.890          33.000  
G32  21924236.767   115212684.083        -139.856          26.000    21924248.459    86035460.243        -105.026          31.000  
J01  38145286.568   200454771.390        -222.643          25.000  
R12  19061610.322   101823701.037       -1464.622          30.000  
> 2021  9 12 10 25  5.9998922  0  8
C06  36684872.191   191027757.192       -1477.464          19.000  
C16  37333024.085   194402928.3361      -1456.125          18.000  
C25  21798907.630   113512625.783       -1327.354          31.000  
C33  22233328.487   115774798.381       -1446.546          30.000  
G10  20173836.144   106014231.727        -950.657          33.000  
G32  21923965.455   115211248.375        -139.435          27.000    21923975.947    86034387.952        -105.258          32.000  
J01  38145030.545   200453417.943        -221.984          24.000  
R12  19061583.940   101823560.258       -1466.110          30.000  
> 2021  9 12 10 25  6.9998915  0  8
C06  36684944.741   191028140.308       -1474.626          20.000  
C24  49721480.335                       -1327.354          18.000  
C25  21798952.599   113512860.177       -1326.374          32.000  
C33  22233394.741   115775152.500       -1447.724          29.000  
G10  20173804.965   106014078.905        -950.811          33.000  
G32  21923782.581   115210284.802        -139.087          31.000    21923792.175    86033668.049        -103.819          32.000  
J01  38144864.760   200452537.689        -223.237          25.000  
R12  19061646.297   101823893.932       -1466.669          31.000  
> 2021  9 12 10 25  7.9998907  0  6
C25  21798969.388   113512938.925       -1327.178          32.000  
C33  22233432.515   115775350.984       -1446.978          29.000  
G10  20173745.607   106013769.102        -949.302          33.000  
G32  21923570.028   115209163.435        -139.041          31.000    21923578.722    86032830.729        -102.243          32.000  
J01  38144666.297   200451500.625        -223.016          25.000  
R12  19061681.073   101824079.558       -1467.344          31.000  
> 2021  9 12 10 25  8.9998897  0  9
C06  36684970.523   191028277.3691      -1473.378          20.000  
C24  49720940.709                       -1446.978          19.000  
C25  21798924.718   113512705.561       -1326.096          32.000  
C33  22233410.031   115775236.816       -1447.590          30.000  
G10  20173625.390   106013144.430        -947.519          32.000  
G23  21007900.733   110397118.3451      -3390.731          13.000  
G32  21923296.018   115207726.853        -138.741          27.000    21923305.312    86031757.758        -101.209          32.000  
J01  38144407.576   200450147.947        -223.043          25.000  
R12  19061654.691   101823938.810       -1468.849          31.000  
> 2021  9 12 10 25  9.9998889  0  6
C25  21798935.811   113512784.751       -1326.435          32.000  
C33  22233447.804   115775436.103       -1448.253          30.000  
G10  20173566.930   106012835.457        -951.580          32.000  
G32  21923081.067   115206604.980        -138.407          27.000    21923091.859    86030920.013        -103.612          32.000  
J01  38144208.514   200449110.500        -223.215          24.000  
R12  19061689.467   101824124.287       -1468.713          30.000  
> 2021  9 12 10 25 10.9998879  0  6
C25  21798892.641   113512552.174       -1328.765          31.000  
C33  22233425.920   115775323.414       -1448.706          30.000  
G10  20173447.613   106012211.877        -953.475          33.000  
G32  21922807.656   115205167.818        -138.198          28.000    21922818.449    86029847.011        -103.174          32.000  
J01  38143948.594   200447757.477        -221.720          25.000  
R12  19061662.186   101823978.958       -1468.760          30.000  
> 2021  9 12 10 25 11.9998871  0  7
C24  49720161.249                       -1447.590          19.000  
C25  21798907.031   113512632.328       -1329.104          32.000  
C33  22233464.293   115775522.982       -1448.437          29.000  
G10  20173387.954   106011904.074        -951.229          32.000  
G32  21922594.204   115204045.788        -138.437          27.000    21922604.397    86029009.247        -104.408          32.000  
J01  38143750.731   200446719.203        -223.436          25.000  
R12  19061698.161   101824170.396       -1470.615          30.000  
> 2021  9 12 10 25 12.9998863  0  6
C25  21798922.920   113512712.846       -1332.147          31.000  
C33  22233502.666   115775722.878       -1448.878          29.000  
G10  20173331.293   106011596.751        -952.786          32.000  
G32  21922383.150   115202923.895        -138.233          27.000    21922391.544    86028171.479        -103.165          32.000  
J01  38143552.868   200445682.049        -223.427          25.000  
R12  19061737.434   101824380.807       -1470.195          31.000  
> 2021  9 12 10 25 13.9998853  0  6
C25  21798882.148   113512481.450       -1331.265          31.000  
C33  22233481.081   115775610.311       -1448.640          29.000  
G10  20173210.777   106010975.005        -956.749          32.000  
G32  21922108.540   115201486.651        -138.373          28.000    21922117.834    86027098.298        -103.311          32.000  
J01  38143295.646   200444329.369        -222.229          26.000  
R12  19061716.748   101824269.491       -1471.636          30.000  
> 2021  9 12 10 25 14.9998845  0  6
C25  21798899.236   113512562.861       -1329.865          32.000  
C33  22233519.755   115775810.286       -1448.612          29.000  
G10  20173152.017   106010668.767        -953.398          31.000  
G32  21921897.486   115200364.852        -138.524          27.000    21921904.381    86026260.437        -103.769          32.000  
J01  38143096.584   200443290.536        -221.622          27.000  
R12  19061753.623   101824467.365       -1473.481          30.000  
> 2021  9 12 10 25 15.9998838  0  7
C25  21798943.905   113512800.701       -1331.731          31.000  
C33  22233589.007   115776166.647       -1449.968          29.000  
G10  20173122.938   106010520.723        -955.786          32.000  
G23  21010612.056   110411568.8741      -3396.824          15.000  
G32  21921712.814   115199400.381        -138.404          27.000    21921720.609    86025540.126        -103.898          31.000  
J01  38142930.798   200442408.400        -220.600          25.000  
R12  19061824.673   101824846.610       -1474.343          30.000  
> 2021  9 12 10 25 16.9998830  0  6
C25  21798959.494   113512882.780       -1331.102          31.000  
C33  22233628.579   115776368.035       -1450.587          29.000  
G10  20173067.776   106010215.706        -955.467          32.000  
G32  21921500.561   115198278.159        -137.930          28.000    21921507.456    86024702.217        -103.298          33.000  
J01  38142732.636   200441369.166        -220.666          27.000  
R12  19061863.646   101825054.399       -1473.958          30.000  
> 2021  9 12 10 25 17.9998820  0  6
C25  21798918.423   113512652.990       -1331.659          31.000  
C33  22233609.093   115776257.433       -1450.610          29.000  
G10  20172950.257   106009595.934        -955.389          33.000  
G32  21921228.349   115196840.891        -138.255          26.000    21921233.746    86023628.842        -103.161          32.000  
J01  38142475.114   200440013.895        -221.123          26.000  
R12  19061838.464   101824920.374       -1475.204          31.000  
> 2021  9 12 10 25 18.9998810  0  6
C25  21798874.953   113512423.576       -1333.126          32.000  
C33  22233588.407   115776146.853       -1450.878          30.000  
G10  20172835.437   106008976.762        -955.076          32.000  
G32  21920957.637   115195402.673        -136.352          27.000    21920960.035    86022555.371        -101.996          32.000  
J01  38142218.791   200438659.303        -220.785          25.000  
R12  19061815.080   101824794.848       -1475.914          31.000  
> 2021  9 12 10 25 19.9998802  0  6
C25  21798888.444   113512506.723       -1331.335          31.000  
C33  22233628.879   115776348.782       -1450.665          31.000  
G10  20172777.876   106008673.195        -956.190          32.000  
G32  21920744.484   115194279.033        -136.839          28.000    21920746.283    86021717.070        -104.167          32.000  
J01  38142021.228   200437620.312        -222.695          28.000  
R12  19061850.156   101824982.968       -1477.106          31.000  
> 2021  9 12 10 25 20.9998794  0  6
C25  21798899.236   113512590.333       -1332.352          30.000  
C33  22233668.152   115776550.706       -1451.296          29.000  
G10  20172722.415   106008370.106        -957.349          33.000  
G32  21920532.531   115193156.055        -137.948          29.000    21920532.831    86020878.784        -106.426          32.000  
J01  38141822.466   200436581.950        -221.368          25.000  
R12  19061886.431   101825176.372       -1478.279          31.000  
> 2021  9 12 10 25 21.9998787  0  6
C25  21798945.104   113512830.234       -1334.607          31.000  
C33  22233737.404   115776909.441       -1451.090          30.000  
G10  20172693.935   106008225.154        -958.101          33.000  
G32  21920348.758   115192191.542        -138.287          32.000    21920349.957    86020158.002        -103.655          32.000  
J01  38141653.683   200435701.141        -222.293          25.000  
R12  19061955.982   101825548.258       -1478.437          31.000  
> 2021  9 12 10 25 22.9998776  0  7
C25  21798872.555   113512446.375       -1333.079          30.000  
C33  22233686.439   115776643.464       -1451.774          29.000  
G10  20172546.137   106007450.670        -959.136          32.000  
G23  21013279.909   110425581.9201      -3399.363          19.000  
G32  21920045.968   115190596.769        -138.627          33.000    21920046.268    86018966.733        -101.970          33.000  
J01  38141368.880   200434190.425        -222.118          25.000  
R12  19061904.118   101825270.352       -1479.515          31.000  
> 2021  9 12 10 25 23.9998769  0  7
C25  21798921.421   113512687.557       -1335.854          31.000  
C33  22233755.691   115777002.658       -1452.344          28.000  
G10  20172518.856   106007307.011        -959.765          33.000  
G23  21013715.507   110427878.898       -3400.051          20.000  
G32  21919865.793   115189632.172        -137.225          33.000    21919861.895    86018246.078        -101.668          33.000  
J01  38141202.495   200433309.420        -220.969          26.000  
R12  19061973.071   101825638.703       -1479.772          32.000  
> 2021  9 12 10 25 24.9998761  0  6
C25  21798938.209   113512772.798       -1336.176          31.000  
C33  22233795.863   115777206.586       -1453.045          30.000  
G10  20172461.595   106007006.338        -959.004          34.000  
G32  21919650.542   115188509.987        -137.806          31.000    21919648.443    86017407.719        -102.791          33.000  
J01  38141007.330   200432270.081        -220.985          26.000  
R12  19062011.744   101825845.716       -1480.495          32.000  
> 2021  9 12 10 25 25.9998751  0  7
C25  21798891.741   113512546.422       -1334.994          31.000  
C33  22233775.777   115777098.194       -1452.685          31.000  
G10  20172347.375   106006391.098        -962.253          33.000  
G23  21014470.385   110431843.8871      -3401.303          21.000  
G32  21919375.332   115187072.371        -138.468          31.000    21919375.032    86016334.016        -104.537          32.000  
J01  38140749.209   200430915.407        -220.478          27.000  
R12  19061989.859   101825729.079       -1479.932          31.000  
> 2021  9 12 10 25 26.9998743  0  6
C25  21798908.230   113512632.568       -1335.638          31.000  
C33  22233816.249   115777301.873       -1453.337          30.000  
G10  20172292.213   106006091.548        -962.183          34.000  
G32  21919164.878                        -137.096          31.000    21919161.280    86015495.570        -100.719          33.000  
J01  38140550.147   200429875.127        -219.683          25.000  
R12  19062026.434   101825924.615       -1481.648          30.000  
> 2021  9 12 10 25 27.9998733  0  7
C25  21798865.959   113512406.913       -1334.701          31.000  
C33  22233796.163   115777194.183       -1453.917          30.000  
G10  20172172.596   106005477.426        -960.699          34.000  
G23  21015228.860   110435810.4211      -3401.205          20.000  
G32  21918889.668   115184551.4041       -138.134          30.000    21918888.169    86014421.806        -101.556          33.000  
J01  38140291.725   200428519.120        -218.723          25.000  
R12  19062003.350   101825800.934       -1484.071          30.000  
> 2021  9 12 10 25 28.9998728  0  6
C25  21798973.285   113512962.255       -1335.807          31.000  
C33  22233925.674   115777867.658       -1454.260          31.000  
G10  20172204.374   106005651.703        -962.728          33.000  
G32  21918769.152   115183901.101        -136.704          31.000    21918764.355    86013936.239        -102.648          33.000  
J01  38140183.500   200427950.370        -219.765          24.000  
R12  19062129.862   101826476.483       -1484.966          30.000  
> 2021  9 12 10 25 29.9998717  0  7
C25  21798900.135   113512581.259       -1338.117          32.000  
C33  22233875.009   115777605.080       -1454.825          30.000  
G10  20172060.473   106004881.167        -961.540          34.000  
G12  22311619.587   117248172.5151      -2589.665          23.000  
G32  21918464.863   115182305.662        -140.969          30.000    21918460.366    86012744.694        -104.494          33.000  
J01  38139897.199   200426437.460        -220.421          25.000  
R12  19062076.199   101826190.274       -1485.820          31.000  
> 2021  9 12 10 25 30.9998707  0  7
C25  21798859.364   113512356.880       -1338.771          30.000  
C33  22233854.323   115777499.147       -1455.544          31.000  
G10  20171942.954   106004268.682        -961.931          34.000  
G12  22311811.155   117249187.377       -2590.079          25.000  
G32  21918189.053   115180869.165        -137.340          24.000    21918186.655    86011670.807        -101.934          32.000  
J01  38139638.777   200425082.018        -219.210          25.000  
R12  19062052.815   101826065.602       -1486.511          30.000  
> 2021  9 12 10 25 31.9998700  0  7
C25  21798905.532   113512598.822       -1336.444          26.000  
C33  22233920.877   115777860.972       -1454.690          29.000  
G10  20171913.275   106004128.424        -962.508          30.000  
G12  22312094.159   117250674.560       -2590.079          27.000  
G32  21918003.482   115179903.184        -136.262          37.000    21918002.283    86010949.935        -105.089          31.000  
J01  38139471.493   200424199.386        -220.796          27.000  
R12  19062118.770   101826417.521       -1486.652          30.000  
> 2021  9 12 10 25 32.9998692  0  7
C25  21798921.721   113512687.116       -1338.181          32.000  
G10  20171854.516   106003830.950        -963.388          31.000  
G12  22312346.284   117252004.480       -2590.519          26.000  
G23  21017241.067   110446378.6791      -3406.228          17.000  
G32  21917787.332   115178778.965        -136.260          40.000    21917788.531    86010111.648        -105.298          27.000  
J01  38139274.230   200423159.768        -219.934          20.000  
R12  19062157.143   101826622.614       -1487.735          26.000  
> 2021  9 12 10 25 33.9998684  0  8
C06  36685651.952   191031857.6301      -1470.924          28.000  
C16  37333737.291   194406514.5731      -1452.063          27.000  
C25  21798937.610   113512776.058       -1337.621          32.000  
G10  20171797.555   106003534.414        -964.155          34.000  
G23  21017649.684   110448523.701       -3404.757          23.000  
G32  21917568.783   115177655.053        -136.028          38.000    21917574.779    86009274.243        -103.312          22.000  
J01  38139078.465   200422118.517        -219.801          23.000  
R12  19062193.718   101826817.785       -1486.915          27.000  
> 2021  9 12 10 25 34.9998674  0 10
C06  36685636.063   191031767.122       -1470.295          28.000  
C16  37333715.706   194406403.992       -1449.906          26.000  
C25  21798894.439   113512553.676       -1339.376          31.000  
C33  22233970.942   115778165.3841      -1454.933          26.000  
G10  20171681.535   106002923.166        -963.936          26.000  
G12  22312791.476   117254351.2021      -2591.893          26.000  
G23  21017996.244   110450352.385       -3403.899          23.000  
G32  21917298.070                        -137.480          41.000    21917299.869    86008201.883        -104.542          24.000  
J01  38138820.944   200420761.744        -218.768          22.000  
R12  19062170.034   101826691.032       -1488.999          28.000  
> 2021  9 12 10 25 35.9998664  0  7
C06  36685615.677   191031676.376       -1470.935          26.000  
C33  22233952.055   115778059.563       -1455.222          31.000  
G10  20171564.916   106002311.958        -964.701          26.000  
G23  21018341.905   110452180.667       -3404.300          19.000  
G32  21917024.360   115174741.0441       -136.714          41.000    21917025.559    86007129.512        -103.963          26.000  
J01  38138561.623   200419405.056        -218.380          30.000  
R12  19062147.550   101826570.976       -1490.021          33.000  
> 2021  9 12 10 25 36.9998659  0  6
C06  36685747.286   191032366.634       -1470.498          27.000  
C33  22234087.262   115778734.510       -1456.342          31.000  
G10  20171596.394   106002489.552        -966.099          23.000  
G32  21916900.545   115174090.186        -136.782          41.000    21916901.145    86006643.076        -101.744          26.000  
J01  38138451.000   200418835.670        -217.955          29.000  
R12  19062275.861   101827256.545       -1490.442          33.000  
> 2021  9 12 10 25 37.9998648  0  7
C06  36685699.319   191032120.055       -1471.127          27.000  
C25  21798877.951   113512511.7141      -1338.729          20.000  
C33  22234040.794   115778473.088       -1455.515          31.000  
G10  20171449.196   106001723.209        -967.531          24.000  
G32  21916597.455   115172493.911        -135.891          41.000    21916595.956    86005449.592         -99.666          25.000  
J01  38138162.300   200417320.422        -217.743          27.000  
R12  19062222.498   101826971.400       -1490.671          32.000  
> 2021  9 12 10 25 38.9998641  0  7
C06  36685771.569   191032498.272       -1471.802          27.000  
C25  21798923.819   113512757.692       -1339.868          21.000  
C33  22234109.746   115778836.661       -1456.686          30.000  
G10  20171421.016   106001588.102        -967.856          23.000  
G32  21916414.582   115171527.845        -136.948          41.000    21916412.783    86004726.011        -100.523          25.000  
J01  38137993.217   200416435.595        -218.660          28.000  
R12  19062290.551   101827335.203       -1491.188          32.000  
> 2021  9 12 10 25 39.9998630  0  9
C06  36685725.401   191032254.307       -1473.754          24.000  
C25  21798849.770   113512380.313       -1341.034          26.000  
C33  22234058.781   115778575.966       -1456.165          29.000  
G10  20171275.616   106000823.269        -968.674          26.000  
G12  22313941.180   117260387.1041      -2595.241          25.000  
G23  21019911.618   110460441.2961      -3404.864          18.000  
G32  21916109.693   115169931.630        -136.578          42.000    21916108.794    86003532.713        -101.703          28.000  
J01  38137703.018   200414922.050        -219.481          27.000  
R12  19062240.186   101827066.401       -1492.447          30.000  
> 2021  9 12 10 25 40.9998625  0  7
C06  36685858.209   191032946.905       -1471.842          26.000  
C25  21798953.199   113512941.245       -1341.566          21.000  
C33  22234187.692   115779251.628       -1456.293          30.000  
G12  22314284.143   117262194.816       -2595.470          27.000  
G32  21915989.776   115169280.793        -136.784          41.000    21915984.080    86003046.020        -103.408          23.000  
J01  38137593.294   200414354.128        -221.243          26.000  
R12  19062368.197   101827749.750       -1492.605          30.000  
> 2021  9 12 10 25 41.9998615  0  4
C06  36685842.020   191032857.290       -1471.621          30.000  
C33  22234162.210   115779147.782       -1458.241          30.000  
G32  21915714.267   115167842.113        -137.486          38.000    21915707.671    86001973.093        -103.594          18.000  
R12  19062347.212   101827637.671       -1494.120          29.000  
> 2021  9 12 10 25 42.9998605  0  9
C06  36685825.531   191032767.655       -1471.960          30.000  
C16  37333866.502   194407244.0671      -1450.815          25.000  
C25  21798873.154   113512502.7111      -1341.760          30.000  
C33  22234142.124   115779045.645       -1459.476          26.000  
G10  20171085.848   105999791.9351       -969.636          30.000  
G23  21021112.886   110466724.6331      -3409.218          19.000  
G32  21915434.860   115166403.265        -133.129          38.000    21915434.261    86000903.348        -105.205          18.000  
J01  38137077.950   200411649.4191       -224.429          18.000  
R12  19062330.723   101827549.508       -1497.090          24.000  
> 2021  9 12 10 25 43.9998597  0 10
C06  36685869.301   191032989.461       -1470.113          31.000  
C16  37333904.875   194407446.099       -1450.773          29.000  
C25  21798892.041   113512595.227       -1341.353          32.000  
C33  22234180.797   115779256.033       -1459.079          27.000  
G10  20171029.787   105999501.068        -969.928          28.000  
G12  22314921.501   117265571.6711      -2596.956          26.000  
G23  21021522.103   110468873.514       -3409.614          20.000  
G32  21915221.708   115165279.181        -136.818          42.000    21915222.607    86000066.234        -103.346          24.000  
J01  38136878.888   200410611.612        -220.905          26.000  
R12  19062372.994   101827775.962       -1496.439          26.000  
> 2021  9 12 10 25 44.9998589  0 10
C06  36685911.872   191033210.869       -1470.251          26.000  
C16  37333940.251   194407648.257       -1451.129          25.000  
C25  21798910.928   113512688.094       -1341.305          31.000  
C33  22234220.070   115779466.145       -1458.987          34.000  
G10  20170974.325   105999211.144        -970.771          32.000  
G12  22315176.025   117266908.407       -2597.566          24.000  
G23  21021930.121   110471022.958       -3410.086          21.000  
G32  21915008.855   115164155.412        -136.336          43.000    21915009.754    85999227.147        -101.331          29.000  
J01  38136676.828   200409570.882        -219.540          28.000  
R12  19062418.262   101828017.395       -1496.333          29.000  
> 2021  9 12 10 25 45.9998579  0 12
C06  36685893.884   191033121.876       -1471.935          23.000  
C16  37333915.368   194407536.838       -1449.729          26.000  
C23  24119655.910                        1109.586          26.000  
C25  21798874.054                       -1341.800          32.000  
C33  22234200.883   115779364.477       -1461.776          34.000  
E21  24147801.925   126897586.6941      -1647.799          28.000  
G10  20170858.305   105998606.826        -971.597          34.000  
G12  22315369.391   117267930.805       -2598.002          22.000  
G23  21022278.779   110472857.433       -3410.009          21.000  
G32  21914735.744   115162716.563        -137.930          43.000    21914736.044    85998151.638        -102.255          30.000  
J01  38136416.308   200408215.028        -219.831          27.000  
R12  19062402.373   101827932.437       -1497.197          25.000  
