     3.04           OBSERVATION DATA    M: Mixed            RINEX VERSION / TYPE
Higeo_Hi1105        Huawei CBG          20220123 112130 UTC PGM / RUN BY / DATE 
************************************************************COMMENT             
* If you have any problem,                                 *COMMENT             
*     please contact with LBS Technology Group, thanks.    *COMMENT             
*                                                          *COMMENT             
* Version Higeo2RinexV1.1 2020.07.21                       *COMMENT             
* Fuction:  Convert Higeo Log to Rinex file                *COMMENT             
*                                                          *COMMENT             
* Note that the verision support B1C B2A signal            *COMMENT             
*     BDS: C1D L1D D1D S1D indicate BDS B1C                *COMMENT             
*     BDS: C5D L5D D5D S5D indicate BDS B2A                *COMMENT             
*     Reference: RINEX V3.04                               *COMMENT             
*                                                          *COMMENT             
* Copyright(C) Huawei Technologies Co., Ltd. 2019 - 2020   *COMMENT             
*     All rights reserved.                                 *COMMENT             
************************************************************COMMENT             
                                                            MARKER NAME         
                                                            MARKER NUMBER       
                                                            MARKER TYPE         
                                                            OBSERVER / AGENCY   
                                                            REC # / TYPE / VERS 
                                                            ANT # / TYPE        
        0.0000        0.0000        0.0000                  APPROX POSITION XYZ 
        0.0000        0.0000        0.0000                  ANTENNA: DELTA H/E/N
G    8 C1C L1C D1C S1C C5I L5I D5I S5I                      SYS / # / OBS TYPES 
R    4 C1C L1C D1C S1C                                      SYS / # / OBS TYPES 
E    8 C1C L1C D1C S1C C5I L5I D5I S5I                      SYS / # / OBS TYPES 
J    8 C1C L1C D1C S1C C5I L5I D5I S5I                      SYS / # / OBS TYPES 
C   12 C2I L2I D2I S2I C1D L1D D1D S1D C5D L5D D5D S5D      SYS / # / OBS TYPES 
  2021    12     7     4    24    6.0000000     GPS         TIME OF FIRST OBS   
  2021    12     7     4    45   37.0000000     GPS         TIME OF LAST OBS    
G                                                           SYS / PHASE SHIFT   
R                                                           SYS / PHASE SHIFT   
E                                                           SYS / PHASE SHIFT   
J                                                           SYS / PHASE SHIFT   
C                                                           SYS / PHASE SHIFT   
  0                                                         GLONASS SLOT / FRQ #
 C1C    0.000 C1P    0.000 C2C    0.000 C2P    0.000        GLONASS COD/PHS/BIS 
                                                            END OF HEADER       
> 2021 12  7  4 24  6.0000000  0  3                     
G10                      4906.191         481.951          20.000                                                                  
G32                     -8724.778       -1018.587          29.000                                                                  
C21                       668.601         119.411          26.000                                                                                                                                  
> 2021 12  7  4 24  7.0000000  0  3                     
G10                      7438.063         481.172          24.000                                                                  
G32                    -14075.254       -1019.302          29.000                                                                  
C21                      1255.837         114.516          29.000                                                                                                                                  
> 2021 12  7  4 24  8.0000000  0  6                     
G10                      9953.428         476.052          28.000                                                                  
G25                     -8028.685       -1883.497          24.000                                                                  
G31                    -11739.633       -2781.867          21.000                                                                  
G32                    -19443.737       -1021.190          28.000                                                                  
R 8                                                        22.000  
C21                      1798.054         115.193          27.000                                                                                                                                  
> 2021 12  7  4 24  9.0000000  0  6                     
G10                     12450.101         475.222          29.000                                                                  
G25                    -17930.598       -1881.870          20.000                                                                  
G31                    -26380.660       -2787.390          24.000                                                                  
G32                    -24807.149       -1021.316          28.000                                                                  
R 8                                                        23.000  
C21                      2353.516         102.051          28.000                                                                                                                                  
> 2021 12  7  4 24 10.0000000  0  7                     
G10                     14953.014         476.937          29.000                                                                  
G21                     -5775.852        -718.472          18.000                                                                  
G25                    -27826.459       -1882.642          17.000                                                                  
G31                    -41035.991       -2789.430          29.000                                                                  
G32                    -30189.151       -1025.160          30.000                                                                  
R 8                                                        22.000  
C21                      2877.213          98.569          27.000                                                                                                                                  
> 2021 12  7  4 24 11.0000000  0  8                     
G10                     17447.083         474.042          30.000                                                                  
G21                     -9560.764        -720.943          18.000                                                                  
G25                    -37725.238       -1884.310          16.000                                                                  
G31                    -55702.332       -2791.542          30.000                                                                  
G32                    -35580.229       -1023.936          30.000                                                                  
R 8                                                        25.000  
R 9                                                        19.000  
C21                      3387.942          96.240          29.000                                                                                                                                  
> 2021 12  7  4 24 12.0000000  0  8                     
G10                     19935.283         472.181          32.000                                                                  
G21                    -13345.548        -720.906          18.000                                                                  
G25                    -47648.122       -1888.511          20.000                                                                  
G31                    -70373.389       -2792.852          28.000                                                                  
G32                    -40972.027       -1027.534          35.000                                                                  
R 8                                                        29.000  
R 9                                                        20.000  
C21                      3880.229          94.063          30.000                                                                                                                                  
> 2021 12  7  4 24 13.0000000  0  8                     
G10                     22418.677         470.683          29.000                                                                  
G21                    -17146.910        -727.090          22.000                                                                  
G25                    -57578.089       -1891.726          20.000                                                                  
G31                    -85048.827       -2795.199          25.000                                                                  
G32                    -46374.189       -1028.059          35.000                                                                  
R 8                                                        29.000  
R 9                                                        20.000  
C21                      4373.101          94.016          27.000                                                                                                                                  
> 2021 12  7  4 24 14.0000000  0  7                     
G10                     24885.246         469.967          28.000                                                                  
G21                    -20960.201        -725.503          21.000                                                                  
G25                    -67516.070       -1892.326          20.000                                                                  
G31                    -99735.695       -2792.386          19.000                                                                  
G32                    -51786.527       -1031.609          33.000                                                                  
R 8                                                        29.000  
C21                      4849.198          89.454          26.000                                                                                                                                  
> 2021 12  7  4 24 15.0000000  0  7                     
G10                     27358.693         468.472          27.000                                                                  
G21                    -24774.981        -726.706          22.000                                                                  
G25                    -77460.619       -1892.719          22.000                      -18279.587       -1400.810          19.000  
G31                   -114422.652       -2794.711          22.000                                                                  
G32                    -57202.760       -1032.059          34.000                                                                  
R 8                                                        30.000  
C21                      5317.902          91.293          27.000                                                                                                                                  
> 2021 12  7  4 24 16.0000000  0  8                     
G10                     31824.698         466.734          27.000                                                                  
G21                    -31714.577        -725.402          20.000                                                                  
G25                    -95558.416       -1895.373          24.000                      -28348.957       -1416.193          23.000  
G31                   -141133.543       -2796.521          18.000                                                                  
G32                    -67076.145       -1034.259          33.000                                                                  
R 8                                                        25.000  
C13                      9243.585        1699.118          27.000                                                                                                                                  
C21                      6180.943          90.911          28.000                                                                                                                                  
> 2021 12  7  4 24 17.0000000  0  9                     
G10                     34280.003         467.419          26.000                                                                  
G21                    -35536.631        -727.768          20.000                                                                  
G25                   -105517.969       -1893.946          19.000                      -33906.319       -1416.411          23.000  
G31                   -155838.040       -2797.720          28.000                                                                  
G32                    -72517.379       -1036.280          35.000                                                                  
R 8                                                        27.000  
C 6                      1420.811         186.209          24.000                                                                                                                                  
C13                     18092.358        1700.594          30.000                                                                                                                                  
C21                      6646.804          87.669          27.000                                                                                                                                  
> 2021 12  7  4 24 18.0000000  0 12                     
G10                     36733.323         465.783          29.000                                                                  
G21                    -39359.308        -726.733          19.000                                                                  
G25                   -115475.238       -1894.858          19.000                      -39464.161       -1416.188          19.000  
G31                   -170547.458       -2800.897          28.000                                                                  
G32                    -77960.175       -1037.043          32.000                                                                  
R 8                                                        20.000  
R 9                                                        20.000  
C 6                      2383.547         182.992          26.000                                                                                                                                  
C 8                     14995.550        1863.058          20.000                                                                                                                                  
C 9                      1192.322         145.378          23.000                                                                                                                                  
C13                     26936.364        1696.675          25.000                                                                                                                                  
C21                      7104.987          87.870          30.000                                                                                                                                  
> 2021 12  7  4 24 19.0000000  0 13                     
G10                     39180.844         467.232          29.000                                                                  
G21                    -43180.498        -729.035          15.000                                                                  
G25                   -125446.911       -1897.847          27.000                      -45016.041       -1412.979          17.000  
G31                   -185272.159       -2801.920          30.000                                                                  
G32                    -83420.046       -1038.095          30.000                                                                  
R 8                                                        19.000  
R 9                                                        23.000  
E 9                    -21161.000        -878.531          26.000                                                                  
C 6                      3332.446         182.250          23.000                                                                                                                                  
C 8                     24690.795        1863.425          17.000                                                                                                                                  
C 9                      1958.377         147.614          18.000                                                                                                                                  
C13                     35772.472        1696.973          19.000                                                                                                                                  
C21                      7557.162          84.558          29.000                                                                                                                                  
> 2021 12  7  4 24 20.0000000  0 14                     
G10                     41628.665         464.053          32.000                                                                  
G21                    -47018.365        -733.825          17.000                                                                  
G25                   -135423.800       -1899.014          30.000                      -50565.207       -1419.474          20.000  
G31                   -199999.142       -2803.604          30.000                                                                  
G32                    -88869.465       -1036.319          21.000                                                                  
R 8                                                        17.000  
R 9                                                        18.000  
E 9                    -25768.788        -877.622          22.000                                                                  
E36                      3982.620        1636.499          20.000                                                                  
C 6                      4277.579         181.616          22.000                                                                                                                                  
C 8                     34376.962        1859.221          20.000                                                                                                                                  
C 9                      2732.493         149.160          17.000                                                                                                                                  
C13                     44599.704        1693.766          21.000                                                                                                                                  
C21                      8001.851          84.913          26.000                                                                                                                                  
> 2021 12  7  4 24 21.0000000  0 13                     
G10                     44067.794         463.632          32.000                        1763.944         348.364          21.000  
G21                    -50866.217           0.014          14.000                                                                  
G25                   -145408.475       -1899.030          34.000                      -56133.419       -1419.050          28.000  
G31                   -214738.178       -2805.412          24.000                                                                  
G32                    -94322.811       -1039.128          30.000                                                                  
R 8                                                        18.000  
R 9                                                        20.000  
E 9                    -30388.703        -879.953          25.000                                                                  
C 6                      5216.021         178.006          23.000                                                                                                                                  
C 8                     44045.270        1855.847          20.000                                                                                                                                  
C 9                      3496.253         145.121          22.000                                                                                                                                  
C13                     53420.637        1694.023          23.000                                                                                                                                  
C21                      8446.555          84.699          28.000                                                                                                                                  
> 2021 12  7  4 24 22.0000000  0 16                     
G10                     46496.507         461.168          34.000                        3121.091         345.692          21.000  
G21                    -54711.868           0.014          17.000                                                                  
G25                   -155398.208       -1900.790          33.000                      -61705.166       -1419.870          27.000  
G31                   -229486.882       -2806.804          25.000                                                                  
G32                    -99797.602       -1043.931          24.000                                                                  
R 8                                                        17.000  
R 9                                                        25.000  
E 9                    -35016.603        -881.276          26.000                                                                  
E36                                                                                      7406.220        1218.311          22.000  
C 3                       658.871         120.375          32.000                                                                                                                                  
C 6                      6141.344         177.818          23.000                                                                                                                                  
C 8                     53707.238        1854.548          19.000                                                                                                                                  
C 9                      4244.098         140.945          22.000                                                                                                                                  
C13                     62240.490        1694.428          20.000                                                                                                                                  
C21                      8880.371          84.508          25.000                                                                                         749.561          64.766          18.000  
C26                     -9404.422       -2000.255          29.000                                                                                                                                  
> 2021 12  7  4 24 23.0000000  0 17                     
G10                     48923.918         460.611          32.000                        4475.737         345.680          22.000  
G21                    -58566.890        -732.714          17.000                                                                  
G25                   -165389.513       -1901.018          34.000                      -67278.321       -1420.736          30.000  
G31                   -244229.619       -2804.650          23.000                                                                  
G32                   -105281.942       -1043.761          27.000                                                                  
R 8                                                        18.000  
R 9                                                        22.000  
E 9                    -39652.430        -882.887          24.000                                                                  
E24                    -13193.532       -3036.717          22.000                                                                  
E36                      9330.711        1633.827          20.000                       12187.323        1218.526          25.000  
C 3                      1288.591         123.015          30.000                                                                                                                                  
C 6                      7060.181         176.129          22.000                                                                                                                                  
C 8                     63365.684        1854.391          20.000                                                                                                                                  
C 9                      4968.441         137.999          22.000                                                                                                                                  
C13                     71055.327        1691.724          25.000                                                                                                                                  
C21                      9315.434          82.184          27.000                                                                                         994.479          62.088          19.000  
C26                    -19827.070       -2001.943          30.000                                                                                                                                  
> 2021 12  7  4 24 24.0000000  0 18                     
G10                     51343.075         461.412          33.000                        5827.692         344.878          22.000  
G12                       140.957         -15.429          18.000                                                                  
G21                    -62422.449        -733.870          20.000                                                                  
G25                   -175394.809       -1905.061          32.000                      -72854.786       -1420.431          29.000  
G31                   -258974.256       -2806.585          27.000                                                                  
G32                   -110770.276       -1043.628          23.000                                                                  
R 8                                                        18.000  
R 9                                                        21.000  
E 4                      7292.232         982.685          16.000                                                                  
E 9                    -44294.737        -884.057          25.000                                                                  
E24                    -29156.260       -3037.530          22.000                                                                  
E36                     17913.852        1632.093          17.000                       16966.107        1218.084          25.000  
C 3                      1910.971         121.521          31.000                                                                                                                                  
C 8                     73026.510        1856.090          20.000                                                                                                                                  
C 9                      5686.540         137.899          20.000                                                                                                                                  
C13                     79867.496        1692.155          22.000                                                                                                                                  
C21                      9739.153          80.981          22.000                                                                                        1234.497          61.294          20.000  
C26                    -30250.128       -2004.266          27.000                                                                                                                                  
> 2021 12  7  4 24 25.0000000  0 19                     
G10                     53764.952         460.496          34.000                        7177.660         343.264          22.000  
G12                        54.657         -13.525          17.000                                                                  
G21                    -66276.879        -734.249          18.000                                                                  
G25                   -185400.314       -1902.617          33.000                      -78433.512       -1421.127          29.000  
G31                   -273724.215       -2807.197          29.000                                                                  
G32                   -116258.455       -1044.049          27.000                                                                  
R 8                                                        20.000  
R 9                                                        21.000  
E 9                    -48944.339        -885.322          23.000                                                                  
E24                    -45128.592       -3041.909          18.000                                                                  
E36                                                                                     21741.898        1217.400          24.000  
C 3                      2570.029         135.342          30.000                                                                                                                                  
C 6                      1211.851         173.373          22.000                                                                                                                                  
C 8                     82686.056        1854.204          21.000                                                                                                                                  
C 9                      6399.795         134.553          24.000                                                                                                                                  
C13                     88666.912        1687.721          20.000                                                                                                                                  
C21                     10160.155          79.775          25.000                                                                                        1472.943          60.940          17.000  
C22                     18184.845        2333.116          17.000                                                                                                                                  
C26                    -40683.803       -2003.515          27.000                                                                                                                                  
> 2021 12  7  4 24 26.0000000  0 20                     
G10                     56188.195         462.668          27.000                        8527.906         344.813          19.000  
G12                       -42.694         -17.749          17.000                                                                  
G21                    -70138.122        -735.702          17.000                                                                  
G25                   -195404.955       -1905.504          30.000                      -84013.297       -1422.344          29.000  
G31                   -288476.759       -2808.704          26.000                                                                  
G32                   -121751.921       -1044.786          25.000                       -3786.925        -783.267          23.000  
R 8                                                        22.000  
R 9                                                        20.000  
E 9                    -53601.427        -884.345          19.000                                                                  
E24                    -61105.703       -3039.620          20.000                                                                  
E36                     11268.345        1628.793          20.000                       26511.965        1214.631          25.000  
J 2                     30794.414         299.966          29.000                                                                  
C 3                      3304.825         139.775          23.000                                                                                                                                  
C 6                      2105.749         171.862          19.000                                                                                                                                  
C 8                     92332.743        1851.169          24.000                                                                                                                                  
C 9                      7090.386         132.022          26.000                                                                                                                                  
C13                     97447.698        1685.391          21.000                                                                                                                                  
C21                     10582.572          81.481          23.000                                                                                        1712.420          61.699          19.000  
C22                     30323.746        2329.520          13.000                                                                                                                                  
C26                    -51117.321       -2004.142          32.000                                                                                                                                  
> 2021 12  7  4 24 27.0000000  0 21                     
G10                     58603.513         458.414          27.000                        9874.665         342.156          22.000  
G12                      -136.100         -21.654          14.000                                                                  
G21                    -74005.945        -736.292          17.000                                                                  
G25                   -205416.113       -1905.565          33.000                      -89599.066       -1423.122          27.000  
G31                   -303241.510       -2809.833          26.000                                                                  
G32                   -127245.435       -1048.678          26.000                       -6858.984        -783.240          20.000  
R 8                                                        19.000  
R 9                                                        22.000  
E 4                     22795.408         977.464          15.000                                                                  
E 9                    -58247.802        -886.160          19.000                                                                  
E24                    -77084.463       -3041.514          22.000                                                                  
E36                     19821.927        1625.936          17.000                       31284.036        1215.763          27.000  
J 2                     32355.086         294.887          30.000                                                                  
C 3                      3992.730         140.875          26.000                                                                                                                                  
C 6                      2988.877         165.752          18.000                                                                                                                                  
C 8                    101971.037        1850.767          21.000                                                                                                                                  
C 9                      7777.359         132.103          21.000                                                                                                                                  
C13                    106227.335        1688.888          17.000                                                                                                                                  
C21                     10997.591          78.571          23.000                                                                                        1943.003          59.115          18.000  
C22                     42439.271        2327.114          16.000                                                                                                                                  
C26                    -61564.838       -2007.123          29.000                                                                                                                                  
> 2021 12  7  4 24 28.0000000  0 20                     
G10                     61009.247         457.560          28.000                       11213.850         342.328          19.000  
G12                      -247.649          -0.013          13.000                                                                  
G21                    -77873.209        -735.311          16.000                                                                  
G25                   -215431.504       -1906.226          33.000                      -95185.595       -1422.956          29.000  
G31                   -318013.719       -2813.150          30.000                                                                  
G32                   -132757.261       -1047.859          19.000                       -9933.213        -783.843          19.000  
R 8                                                        19.000  
R 9                                                        20.000  
E 4                     27936.329         976.963          17.000                                                                  
E24                    -93075.823       -3043.721          24.000                                                                  
E36                     28358.413        1623.770          19.000                       36050.556        1214.395          26.000  
J 2                     33913.278         296.653          30.000                                                                  
C 3                      4652.200         115.973          27.000                                                                                                                                  
C 6                      3852.926         167.064          21.000                                                                                                                                  
C 8                    111601.863        1848.795          23.000                                                                                                                                  
C 9                      8467.460          -0.046          18.000                                                                                                                                  
C13                    115014.523        1687.092          18.000                                                                                                                                  
C21                     11404.743          76.590          22.000                                                                                        2173.395          57.656          17.000  
C22                     54552.964        2328.249          17.000                                                                                                                                  
C26                    -72014.131       -2005.446          32.000                                                                                                                                  
> 2021 12  7  4 24 29.0000000  0 21                     
G10                     63422.513         458.064          29.000                       12553.523         339.052          21.000  
G12                      -352.283          -0.013          17.000                                                                  
G21                    -81742.711        -737.323          14.000                                                                  
G25                   -225454.415       -1907.452          33.000                     -100773.513       -1424.367          28.000  
G31                   -332799.291       -2812.879          27.000                                                                  
G32                   -138252.926       -1047.959          16.000                      -13005.188        -784.134          16.000  
R 8                                                        17.000  
R 9                                                        17.000  
E 4                     33063.380         975.461          13.000                                                                  
E 9                    -67573.135        -889.405          22.000                                                                  
E24                   -109074.107       -3044.949          24.000                                                                  
E36                     36897.142        1627.723          17.000                       40813.283        1214.376          25.000  
J 2                     35465.491         292.314          33.000                                                                  
C 3                      5203.811         114.223          25.000                                                                                                                                  
C 6                      4725.065         166.934          17.000                                                                                                                                  
C 8                    121226.373        1847.493          24.000                                                                                                                                  
C 9                      9151.339         132.836          18.000                                                                                                                                  
C13                    123789.508        1683.922          22.000                                                                                                                                  
C21                     11802.189          75.184          24.000                                                                                        2401.691          59.229          17.000  
C22                     66658.537        2320.868          18.000                                                                                                                                  
C26                    -82464.118       -2006.942          33.000                                                                                                                                  
> 2021 12  7  4 24 30.0000000  0 20                     
G10                     65822.667         455.622          28.000                       13886.111         339.931          18.000  
G12                      -476.282         -23.151          17.000                                                                  
G21                    -85614.747           0.014          17.000                                                                  
G25                   -235474.774       -1905.527          33.000                     -106365.284       -1423.569          28.000  
G31                   -347576.478       -2811.949          29.000                                                                  
G32                   -143761.010       -1049.435          17.000                      -16083.034        -782.097          14.000  
R 8                                                        18.000  
R 9                                                        18.000  
E 4                     38185.237         973.805          13.000                                                                  
E 9                    -72265.894        -895.660          18.000                                                                  
E24                   -125080.475       -3046.416          23.000                                                                  
E36                     45438.308        1627.870          16.000                       45574.455        1212.851          25.000  
J 2                     37014.251         294.989          31.000                                                                  
C 3                      5813.018         103.670          27.000                                                                                                                                  
C 6                      5594.336         165.662          20.000                                                                                                                                  
C 8                    130844.973        1847.400          22.000                                                                                                                                  
C 9                      9842.616         133.078          19.000                                                                                                                                  
C13                    132557.284        1685.011          17.000                                                                                                                                  
C21                     12191.278          74.184          22.000                                                                                        2635.522          60.035          17.000  
C26                    -92917.030       -2010.313          32.000                                                                                                                                  
> 2021 12  7  4 24 31.0000000  0 20                     
G10                     68214.123         454.713          28.000                       15218.976         338.994          20.000  
G12                      -601.847         -23.472          18.000                                                                  
G21                    -89503.156        -740.320          15.000                                                                  
G25                   -245497.201       -1910.334          33.000                     -111956.407       -1424.876          29.000  
G31                   -362369.399       -2815.258          28.000                                                                  
G32                   -149280.213       -1051.592          25.000                      -19155.842        -783.751          18.000  
R 8                                                        17.000  
R 9                                                        17.000  
E 4                     43299.236         972.284          14.000                                                                  
E 9                    -76969.383        -893.769          18.000                                                                  
E24                   -141090.950       -3047.761          18.000                                                                  
E36                     53994.246        1627.764          13.000                       50330.629        1211.809          27.000  
J 2                     38558.204         291.615          35.000                                                                  
C 3                      6315.616          90.844          23.000                                                                                                                                  
C 6                      6452.284         164.312          17.000                                                                                                                                  
C 8                    140455.959        1843.562          19.000                                                                                                                                  
C 9                     10524.716         128.977          19.000                                                                                                                                  
C13                    141323.101        1682.319          19.000                                                                                                                                  
C21                     12577.568          72.755          28.000                                                                                        2867.150          60.423          19.000  
C26                   -103378.923       -2009.537          35.000                                                                                                                                  
> 2021 12  7  4 24 32.0000000  0 22                     
G10                     70608.034         455.273          22.000                       16555.110         340.911          23.000  
G12                      -726.752         -23.371          18.000                                                                  
G21                    -93389.758        -739.981          16.000                                                                  
G25                   -255528.062       -1908.597          33.000                     -117550.914       -1424.940          27.000  
G31                   -377165.701       -2816.345          24.000                                                                  
G32                   -154825.576       -1055.980          29.000                      -22239.984        -784.502          20.000  
R 8                                                        18.000  
R 9                                                        16.000  
E 4                     48401.695         970.580          11.000                                                                  
E 9                    -81661.733        -894.352          15.000                                                                  
E24                   -157097.366       -3048.047          15.000                                                                  
E36                     62545.312        1625.640          13.000                       55086.163        1212.407          26.000  
J 1                    -31545.367        -763.295          27.000                                                                  
J 2                     40089.847         291.248          33.000                                                                  
C 3                      6766.929          88.354          25.000                                                                                                                                  
C 6                      7307.186         164.296          17.000                                                                                                                                  
C 8                    150056.590        1843.687          19.000                                                                                                                                  
C 9                     11195.146         127.638          20.000                                                                                                                                  
C13                    150071.005        1677.818          17.000                                                                                                                                  
C21                     12963.026          74.170          32.000                                                                                        3085.863          56.647          18.000  
C22                     25920.152        2320.286          22.000                                                                                                                                  
C26                   -113843.005       -2011.425          34.000                                                                                                                                  
> 2021 12  7  4 24 33.0000000  0 22                     
G10                     73002.335         454.880          24.000                       17887.647         340.149          25.000  
G12                      -849.137         -24.418          18.000                                                                  
G21                    -97275.036        -740.602          16.000                                                                  
G25                   -265570.258       -1910.337          34.000                     -123148.972       -1426.638          29.000  
G31                   -391959.323       -2815.071          25.000                                                                  
G32                   -160379.642       -1055.744          27.000                      -25313.876        -785.726          18.000  
R 8                                                        19.000  
R 9                                                        19.000  
E 4                     53497.994         969.022          12.000                                                                  
E 9                    -86360.713        -893.991          16.000                                                                  
E24                   -173123.169       -3050.905          17.000                                                                  
E36                     71085.774        1624.636          15.000                       59838.712        1211.625          26.000  
J 1                    -35558.343        -763.539          29.000                                                                  
J 2                     41614.553         289.389          34.000                                                                  
C 3                      7251.837         110.781          26.000                                                                                                                                  
C 6                      8156.652         163.719          15.000                                                                                                                                  
C 8                    159654.456        1841.963          18.000                                                                                                                                  
C 9                     11853.603         126.742          20.000                                                                                                                                  
C13                    158809.554        1678.469          17.000                                                                                                                                  
C21                     13338.041          71.405          28.000                                                                                        3306.316          55.251          18.000  
C22                     37995.092        2318.939          20.000                                                                                                                                  
C26                   -124319.383       -2012.505          34.000                                                                                                                                  
> 2021 12  7  4 24 34.0000000  0 23                     
G10                     75396.591         456.109          29.000                       19214.867         333.880          19.000  
G12                      -975.785         -24.154          16.000                                                                  
G21                   -101172.905        -743.074          15.000                                                                  
G25                   -275599.861       -1910.262          27.000                     -128746.436       -1430.033          21.000  
G31                   -406756.308       -2816.937          32.000                                                                  
G32                   -165915.094       -1053.442          25.000                      -28399.103        -785.927          17.000  
R 8                                                        19.000  
R 9                                                        21.000  
E 4                     58589.277         968.508          12.000                                                                  
E 9                    -91071.116        -898.051          16.000                                                                  
E24                   -189149.625       -3048.834          20.000                                                                  
E36                     79620.727        1622.942          20.000                       64584.169        1209.984          17.000  
J 1                    -39582.582        -766.953          18.000                                                                  
J 2                     43141.945         289.375          24.000                                                                  
C 3                      7806.657          97.279          24.000                                                                                                                                  
C 6                      9006.681         162.523          16.000                                                                                                                                  
C 8                    169243.442        1841.576          20.000                                                                                                                                  
C 9                     12500.989         123.090          23.000                                                                                                                                  
C10                    -17338.801       -1185.106          17.000                                                                                                                                  
C13                    167542.356        1677.207          25.000                                                                                                                                  
C21                     13710.455          71.647          21.000                                                                                        3521.202          54.995          16.000  
C22                     50070.025        2318.839          17.000                                                                                                                                  
C26                   -134787.063       -2010.536          30.000                                                                                                                                  
> 2021 12  7  4 24 35.0000000  0 23                     
G10                     77783.563         450.873          31.000                       20532.131         339.725          20.000  
G12                     -1105.914         -24.733          12.000                                                                  
G21                   -105078.648        -743.563          16.000                                                                  
G25                   -285652.251       -1912.955          23.000                     -134353.184       -1425.748          22.000  
G31                   -421558.190       -2818.732          28.000                                                                  
G32                   -171456.228       -1055.669          25.000                      -31480.597        -784.194          16.000  
R 8                                                        18.000  
R 9                                                        20.000  
E 4                     63675.784         967.061          13.000                                                                  
E 9                    -95778.704        -894.252          19.000                                                                  
E24                   -205175.263       -3048.616          19.000                                                                  
E36                     88141.702        1620.931          21.000                                                                  
J 1                    -43619.791        -767.525          25.000                                                                  
J 2                     44659.051         286.416          31.000                                                                  
C 3                      8332.968         106.275          27.000                                                                                                                                  
C 6                      9845.186         160.387          19.000                                                                                                                                  
C 8                    178829.519        1841.561          26.000                                                                                                                                  
C 9                     13137.515         121.108          19.000                                                                                                                                  
C10                    -23509.191       -1183.239          14.000                                                                                                                                  
C13                    176289.042        1678.734          24.000                                                                                                                                  
C21                     14088.906          70.853          23.000                                                                                        3729.464          52.724          16.000  
C22                     62150.675        2321.547          16.000                                                                                                                                  
C26                   -145263.959       -2012.043          31.000                                                                                                                                  
> 2021 12  7  4 24 36.0000000  0 22                     
G10                     80163.648         456.074          30.000                       21861.106         337.863          23.000  
G12                     -1239.122         -25.377          17.000                                                                  
G21                   -108981.790        -742.175          14.000                                                                  
G25                   -295698.585       -1912.120          31.000                     -139952.725       -1426.937          21.000  
G31                   -436359.252       -2817.516          26.000                                                                  
G32                   -177012.982       -1059.040          23.000                      -34557.988        -785.780          16.000  
R 8                                                        26.000  
R 9                                                        20.000  
E 4                     68754.973         966.304          14.000                       15753.477         723.458          12.000  
E 9                   -100476.157        -895.899          14.000                                                                  
E24                   -221198.178       -3051.685          16.000                                                                  
E36                     96657.337        1621.536          18.000                       74068.714        1208.102          29.000  
J 1                    -47655.397        -769.067          27.000                                                                  
J 2                     46163.634         286.938          31.000                                                                  
C 3                      8845.613          81.106          27.000                                                                                                                                  
C 6                     10681.373         160.249          21.000                                                                                                                                  
C 8                    188428.536        1842.829          21.000                                                                                                                                  
C 9                     13770.407         120.607          18.000                                                                                                                                  
C13                    185026.360        1677.679          21.000                                                                                                                                  
C21                     14458.703          71.213          26.000                                                                                        3930.537          49.919          15.000  
C22                     74236.931        2318.761          18.000                                                                                                                                  
C26                   -155723.315       -2008.370          25.000                                                                                                                                  
> 2021 12  7  4 24 37.0000000  0 22                     
G10                     82553.270         453.732          29.000                       23189.195         337.931          24.000  
G12                     -1377.925         -25.274          18.000                                                                  
G21                   -112890.012        -744.276          14.000                                                                  
G25                   -305750.678       -1911.444          31.000                     -145554.592       -1427.267          20.000  
G31                   -451159.460       -2816.689          30.000                                                                  
G32                   -182576.797       -1058.337          27.000                      -37649.235        -790.545          18.000  
R 8                                                        23.000  
R 9                                                        18.000  
E 4                     73830.395         965.358          15.000                       18599.458         726.007          11.000  
E 9                   -105195.742        -899.329          19.000                                                                  
E24                   -237234.500       -3054.557          16.000                                                                  
E36                    105167.931        1620.431          17.000                       78812.435        1210.060          23.000  
J 1                    -51694.401        -770.366          27.000                                                                  
J 2                     47667.536         286.792          30.000                                                                  
C 3                      9254.424          84.303          24.000                                                                                                                                  
C 6                     11508.486         158.455          22.000                                                                                                                                  
C 8                    198012.888        1840.016          20.000                                                                                                                                  
C 9                     14402.982         122.349          18.000                                                                                                                                  
C13                    193767.325        1678.294          20.000                                                                                                                                  
C21                     14829.060          71.993          28.000                                                                                        4122.957          46.501          16.000  
C22                     86308.190        2318.393          18.000                                                                                                                                  
C26                   -166193.085       -2011.649          31.000                                                                                                                                  
> 2021 12  7  4 24 38.0000000  0 22                     
G10                     84933.355         451.337          30.000                       24513.866         336.880          24.000  
G12                     -1512.336         -24.314          17.000                                                                  
G21                   -116808.291           0.014          14.000                                                                  
G25                   -315802.781       -1915.765          32.000                     -151161.408       -1428.561          23.000  
G31                   -465984.962       -2818.476          30.000                                                                  
G32                   -188152.691       -1060.214          26.000                      -40749.684        -789.851          17.000  
R 8                                                        21.000  
R 9                                                        18.000  
E 4                     78900.660         964.165          16.000                       21447.225         724.374          12.000  
E 9                   -109930.108        -901.664          20.000                                                                  
E24                   -253284.501       -3054.549          18.000                                                                  
E36                    113690.009        1620.686          18.000                       83553.582        1207.694          21.000  
J 1                    -55743.653        -770.893          27.000                                                                  
J 2                     49165.423         282.565          32.000                                                                  
C 3                      9678.639          99.634          24.000                                                                                                                                  
C 6                     12336.195         158.731          18.000                                                                                                                                  
C 8                    207590.656        1838.374          24.000                                                                                                                                  
C 9                     15029.523         118.441          20.000                                                                                                                                  
C13                    202496.518        1674.667          19.000                                                                                                                                  
C21                     15188.924          66.509          27.000                                                                                        4313.955          49.410          16.000  
C22                     98378.826        2318.455          18.000                                                                                                                                  
C26                   -176675.299       -2013.094          31.000                                                                                                                                  
> 2021 12  7  4 24 39.0000000  0 22                     
G10                     87294.236         450.832          29.000                       25837.568         337.232          23.000  
G12                     -1644.952         -25.724          17.000                                                                  
G21                   -120733.951           0.014          14.000                                                                  
G25                   -325863.252       -1914.270          33.000                     -156770.361       -1429.713          25.000  
G31                   -480792.289       -2819.179          28.000                                                                  
G32                   -193732.725       -1062.965          27.000                      -43851.863        -791.432          19.000  
R 8                                                        19.000  
R 9                                                        20.000  
E 4                     83965.532         963.422          17.000                                                                  
E 9                   -114661.384        -900.367          19.000                                                                  
E24                   -269345.452       -3058.852          17.000                                                                  
E36                    122197.180        1617.293          20.000                       88291.532        1206.573          26.000  
J 1                    -59797.211        -770.768          27.000                                                                  
J 2                     50657.276         284.312          33.000                                                                  
C 3                     10122.645          80.852          27.000                                                                                                                                  
C 6                     13151.950         154.724          19.000                                                                                                                                  
C 8                    217156.742        1835.719          25.000                                                                                                                                  
C 9                     15651.735         120.419          17.000                                                                                                                                  
C13                    211210.298        1673.076          21.000                                                                                                                                  
C21                     15540.010          67.591          28.000                                                                                        4509.663          50.141          16.000  
C22                    110450.435        2317.990          17.000                                                                                                                                  
C26                   -187167.371       -2013.747          28.000                                                                                                                                  
> 2021 12  7  4 24 40.0000000  0 22                     
G10                     89670.339         451.604          32.000                       27160.048         336.715          27.000  
G12                     -1772.790         -22.453          16.000                                                                  
G21                   -124655.617           0.014          19.000                                                                  
G25                   -335921.738       -1915.148          35.000                     -162378.048       -1429.393          27.000  
G31                   -495611.207       -2821.329          30.000                                                                  
G32                   -199304.532       -1059.879          24.000                      -46959.108        -793.597          20.000  
R 8                                                        22.000  
R 9                                                        20.000  
E 4                     89026.749         962.509          19.000                                                                  
E 9                   -119393.998        -900.379          20.000                                                                  
E24                   -285409.404       -3056.563          19.000                                                                  
E36                    130706.729        1617.518          24.000                       93025.948        1206.470          30.000  
J 1                    -63853.064        -772.563          27.000                                                                  
J 2                     52146.463         282.161          34.000                                                                  
C 3                     10550.526          92.217          28.000                                                                                                                                  
C 6                     13954.928         153.948          22.000                                                                                                                                  
C 8                    226715.033        1834.860          18.000                                                                                                                                  
C 9                     16272.633         117.240          21.000                                                                                                                                  
C13                    219924.536        1672.997          25.000                                                                                                                                  
C21                     15895.039          68.970          26.000                                                                                        4700.086          48.227          18.000  
C22                    122522.439        2317.431          16.000                                                                                                                                  
C26                   -197657.105       -2015.531          35.000                                                                                                                                  
> 2021 12  7  4 24 41.0000000  0 22                     
G10                     92038.828         449.943          27.000                       28480.952         336.152          25.000  
G12                     -1902.826         -25.866          16.000                                                                  
G21                   -128559.405        -742.661          15.000                                                                  
G25                   -345983.494       -1915.268          35.000                     -167988.579       -1430.459          28.000  
G31                   -510432.574       -2821.158          23.000                                                                  
G32                   -204875.865       -1060.108          17.000                      -50072.984        -793.546          20.000  
R 8                                                        20.000  
R 9                                                        18.000  
E 4                     94081.130         961.543          19.000                       29954.982         721.172          12.000  
E 9                   -124127.367        -901.295          19.000                                                                  
E24                   -301474.614       -3057.538          20.000                                                                  
E36                    139198.901        1614.814          22.000                       97760.433        1205.600          25.000  
J 1                    -67925.631        -775.073          28.000                                                                  
J 2                     53627.708         281.917          35.000                                                                  
C 3                     11039.202          96.381          27.000                                                                                                                                  
C 6                     14757.187         156.574          18.000                                                                                                                                  
C 8                    236274.258        1835.008          16.000                                                                                                                                  
C 9                     16878.441         117.071          20.000                                                                                                                                  
C13                    228635.275        1671.539          20.000                                                                                                                                  
C21                     16243.953          67.196          24.000                                                                                        4893.008          47.867          18.000  
C22                    134595.846        2320.265          14.000                                                                                                                                  
C26                   -208154.842       -2017.220          33.000                                                                                                                                  
> 2021 12  7  4 24 42.0000000  0 22                     
G10                     94406.809         449.925          30.000                       29801.812         336.438          23.000  
G12                     -2047.788         -27.960          16.000                                                                  
G21                   -132469.064        -744.972          19.000                                                                  
G25                   -356044.352       -1914.257          34.000                     -173598.361       -1429.851          28.000  
G31                   -525264.542       -2823.650          20.000                                                                  
G32                   -210450.081       -1061.119          23.000                      -53188.829        -794.417          23.000  
R 8                                                        19.000  
R 9                                                        21.000  
E 4                     99134.752         960.611          21.000                       32786.295         720.243          13.000  
E 9                   -128880.363        -905.192          18.000                                                                  
E24                   -317540.031       -3057.884          15.000                                                                  
E36                    147682.646        1614.594          24.000                      102490.108        1204.723          24.000  
J 1                    -71994.653        -773.131          20.000                                                                  
J 2                     55105.446         279.899          30.000                                                                  
C 3                     11514.967          95.329          29.000                                                                                                                                  
C 6                     15561.580         152.656          19.000                                                                                                                                  
C 8                    245820.360        1832.565          22.000                                                                                                                                  
C 9                     17486.727         114.605          20.000                                                                                                                                  
C13                    237340.578        1671.068          23.000                                                                                                                                  
C21                     16591.609          67.739          24.000                                                                                        5080.621          47.317          18.000  
C22                    146673.641           0.006          16.000                                                                                                                                  
C26                   -218652.239       -2017.518          34.000                                                                                                                                  
> 2021 12  7  4 24 43.0000000  0 23                     
G10                     96768.287         449.726          24.000                       31118.782         333.814          19.000  
G12                     -2202.580         -29.663          15.000                                                                  
G21                   -136385.734        -746.760          22.000                                                                  
G25                   -366109.823       -1914.189          28.000                     -179213.738       -1431.981          19.000  
G31                   -540097.602       -2822.308          36.000                                                                  
G32                   -216034.614       -1062.869          32.000                      -56305.359        -795.151          30.000  
R 8                                                        26.000  
R 9                                                        20.000  
E 4                    104177.713         958.860          20.000                       35611.635         719.767          12.000  
E 9                   -133629.699        -903.419          19.000                                                                  
E11                    109447.486        2837.900          20.000                                                                  
E24                   -333614.073       -3060.561          18.000                                                                  
E36                    156165.364        1614.041          27.000                      107218.957        1202.986          19.000  
J 1                    -76066.408        -775.135          18.000                                                                  
J 2                     56580.664         280.932          22.000                                                                  
C 3                     12014.326          82.493          28.000                                                                                                                                  
C 6                     16350.064         151.264          25.000                                                                                                                                  
C 8                    255364.300        1834.458          28.000                                                                                                                                  
C 9                     18084.839         115.972          26.000                                                                                                                                  
C13                    246039.175        1668.664          28.000                                                                                                                                  
C21                     16935.680          66.349          25.000                                                                                        5264.999          46.971          18.000  
C22                    158734.381           0.006          18.000                                                                                                                                  
C26                   -229154.389       -2017.683          32.000                                                                                                                                  
> 2021 12  7  4 24 44.0000000  0 23                     
G10                     99125.211         449.805          31.000                       32435.583         337.408          19.000  
G12                     -2354.893         -28.138          16.000                                                                  
G21                   -140312.118        -748.229          18.000                                                                  
G25                   -376173.922       -1918.095          19.000                     -184834.655       -1433.389          17.000  
G31                   -554929.247       -2821.707          27.000                                                                  
G32                   -221632.599       -1066.564          28.000                      -59425.916        -795.943          23.000  
R 8                                                        24.000  
R 9                                                        19.000  
E 4                    109214.333         957.765          15.000                       38433.679         718.779          10.000  
E 9                   -138387.159        -905.138          25.000                                                                  
E11                    124364.192        2838.238          18.000                                                                  
E24                   -349696.936       -3061.350          18.000                                                                  
E36                    164651.610        1616.273          26.000                      111944.054        1205.425          17.000  
J 1                    -80147.962        -779.046          17.000                                                                  
J 2                     58053.365         277.173          25.000                                                                  
C 3                     12509.141          84.407          25.000                                                                                                                                  
C 6                     17140.061         152.497          26.000                                                                                                                                  
C 8                    264914.097        1834.076          27.000                                                                                                                                  
C 9                     18681.053         114.901          30.000                                                                                                                                  
C13                    254729.808        1672.640          29.000                                                                                                                                  
C21                     17275.122          61.038          28.000                                                                                        5452.555          47.951          20.000  
C22                    170786.857        2313.985          16.000                                                                                                                                  
C26                   -239657.834       -2016.150          33.000                                                                                                                                  
> 2021 12  7  4 24 45.0000000  0 23                     
G10                    101489.968         450.192          30.000                       33751.687         335.413          25.000  
G12                     -2501.543         -28.571          14.000                                                                  
G21                   -144249.777        -750.747          17.000                                                                  
G25                   -386244.447       -1915.926          28.000                     -190458.746       -1433.325          19.000  
G31                   -569759.833       -2824.875          30.000                                                                  
G32                   -227232.220       -1066.466          32.000                      -62551.491        -796.181          18.000  
R 8                                                        27.000  
R 9                                                        19.000  
E 4                    114239.712         955.015          14.000                       41257.040         718.827          13.000  
E 9                   -143152.317        -907.532          29.000                                                                  
E11                    139286.073        2837.708          18.000                                                                  
E24                   -365792.673       -3063.105          17.000                                                                  
E36                    173141.504        1612.885          29.000                      116670.587        1202.639          26.000  
J 1                    -84237.754        -777.326          22.000                                                                  
J 2                     59502.283         273.803          19.000                                                                  
C 3                     12947.226          74.007          24.000                                                                                                                                  
C 6                     17929.219         149.993          23.000                                                                                                                                  
C 8                    274453.107        1831.618          18.000                                                                                                                                  
C 9                     19274.503         111.403          26.000                                                                                                                                  
C13                    263430.886        1669.786          19.000                                                                                                                                  
C21                     17588.896          61.768          28.000                                                                                        5643.022          47.706          17.000  
C22                    182830.967        2312.567          15.000                                                                                                                                  
C26                   -250160.380       -2018.437          26.000                                                                                                                                  
> 2021 12  7  4 24 46.0000000  0 23                     
G10                    103846.554         446.583          30.000                       35075.466         337.391          18.000  
G12                     -2652.311         -28.379          13.000                                                                  
G21                   -148194.213        -750.289          18.000                                                                  
G25                   -396314.341       -1916.180          22.000                     -196083.440       -1433.086          17.000  
G31                   -584605.993       -2826.538          25.000                                                                  
G32                   -232843.034       -1069.108          27.000                      -65670.723        -794.769          18.000  
R 8                                                        26.000  
R 9                                                        16.000  
E 4                    119254.078         953.692          10.000                       44075.605         716.920          12.000  
E 9                   -147925.226        -908.722          25.000                                                                  
E11                    154188.022        2832.593          18.000                                                                  
E24                   -381898.206       -3067.320          18.000                                                                  
E36                    181604.120        1609.940          28.000                      121383.488        1199.558          19.000  
J 2                     60958.424         277.803          22.000                                                                  
C 3                     13279.266          62.241          26.000                                                                                                                                  
C 6                     18702.095         149.425          25.000                                                                                                                                  
C 8                    283983.662           0.050          21.000                                                                                                                                  
C 9                     19844.994         108.720          27.000                                                                                                                                  
C13                    272123.442        1667.562          24.000                                                                                                                                  
C16                     26548.324         215.458          28.000                                                                                                                                  
C21                     17918.118          61.621          25.000                                                                                        5836.227          47.549          15.000  
C22                    194880.534        2314.404          12.000                                                                                                                                  
C26                   -260674.655       -2020.311          34.000                                                                                                                                  
> 2021 12  7  4 24 47.0000000  0 23                     
G10                    106202.157         447.364          31.000                       36395.510         334.052          20.000  
G12                     -2802.017         -28.793          13.000                                                                  
G21                   -152140.749        -752.883          17.000                                                                  
G25                   -406390.842       -1917.769          20.000                     -201706.630       -1432.322          15.000  
G31                   -599448.229       -2823.731          20.000                                                                  
G32                   -238445.408       -1064.364          26.000                      -68792.781        -798.069          20.000  
R 8                                                        22.000  
R 9                                                        18.000  
E 4                    124260.730         952.179          10.000                       46893.342         719.664          11.000  
E 9                   -152702.970        -909.700          21.000                                                                  
E11                    169078.406        2834.888          18.000                                                                  
E24                   -398020.116       -3070.621          13.000                                                                  
E36                    190071.989        1611.186          25.000                      126084.591        1195.331          15.000  
J 2                     62417.537         275.236          23.000                                                                  
C 3                     13636.260          79.608          26.000                                                                                                                                  
C 6                     19471.973         147.983          27.000                                                                                                                                  
C 8                    293505.309        1827.992          26.000                                                                                                                                  
C 9                     20419.423         109.840          25.000                                                                                                                                  
C13                    280801.925        1666.607          25.000                                                                                                                                  
C16                     27661.942         215.681          24.000                                                                                                                                  
C21                     18241.082          62.500          20.000                                                                                        6026.163          47.876          18.000  
C22                    206925.348           0.006          12.000                                                                                                                                  
C26                   -271191.931       -2019.554          34.000                                                                                       -6091.274       -1521.257          21.000  
> 2021 12  7  4 24 48.0000000  0 23                     
G10                    108558.630         447.199          32.000                       37710.142         333.810          18.000  
G12                     -2955.211         -30.500          14.000                                                                  
G21                   -156099.446        -754.031          19.000                                                                  
G25                   -416462.462       -1916.758          23.000                     -207321.896       -1433.001          16.000  
G31                   -614296.670       -2827.734          26.000                                                                  
G32                   -244054.295       -1068.007          22.000                      -71920.998        -798.219          18.000  
R 8                                                        26.000  
R 9                                                        17.000  
E 4                    129260.933         951.628          10.000                       49717.419         718.249          11.000  
E 9                   -157485.212        -911.196          25.000                                                                  
E11                    183959.157        2832.846          18.000                                                                  
E24                   -414156.002       -3070.433          10.000                                                                  
E36                    198539.275        1610.600          22.000                      130786.255        1198.351          17.000  
J 2                     63870.095         277.094          17.000                                                                  
C 3                     14036.970          71.574          26.000                                                                                                                                  
C 6                     20230.752         142.397          28.000                                                                                                                                  
C 8                    303026.673        1826.573          26.000                                                                                                                                  
C 9                     20994.328         109.373          25.000                                                                                                                                  
C13                    289478.312        1665.622          25.000                                                                                                                                  
C16                     28774.565         210.486          26.000                                                                                                                                  
C21                     18559.484          60.980          24.000                                                                                        6215.861          47.434          17.000  
C22                    218967.105           0.006          13.000                                                                                                                                  
C26                   -281711.349       -2022.364          34.000                                                                                      -12064.652       -1523.080          22.000  
> 2021 12  7  4 24 49.0000000  0 23                     
G10                    110901.008         446.041          29.000                       39023.653         333.998          22.000  
G12                     -3105.304          -0.013          14.000                                                                  
G21                   -160060.671        -754.198          17.000                                                                  
G25                   -426537.572       -1917.854          17.000                     -212944.996       -1433.082          17.000  
G31                   -629161.559       -2827.463          29.000                                                                  
G32                   -249673.842       -1069.798          28.000                      -75046.190        -796.410          18.000  
R 8                                                        23.000  
R 9                                                        16.000  
E 4                    134262.424         950.973           6.000                       52540.027         719.355          11.000  
E 9                   -162270.657        -910.723          23.000                      -11166.544        -676.246          18.000  
E11                    198841.356        2830.212          18.000                                                                  
E24                   -430285.277       -3068.882          14.000                                                                  
E36                    207000.161        1610.510          20.000                      135499.537        1202.031          17.000  
J 2                     65311.774         273.081          21.000                                                                  
C 3                     14495.318          84.638          26.000                                                                                                                                  
C 6                     20976.668         146.338          28.000                                                                                                                                  
C 8                    312540.360        1825.774          25.000                                                                                                                                  
C 9                     21566.812         109.488          25.000                                                                                                                                  
C13                    298146.428        1663.851          24.000                                                                                                                                  
C16                     29871.248         211.707          26.000                                                                                                                                  
C21                     18878.471          60.672          24.000                                                                                        6402.434          46.341          19.000  
C22                    231005.385           0.006          13.000                                                                                                                                  
C26                   -292238.986       -2023.437          32.000                                                                                      -18040.742       -1522.945          25.000  
> 2021 12  7  4 24 50.0000000  0 24                     
G10                    113255.583         448.429          30.000                       40341.003         338.959          21.000  
G12                     -3247.526          -0.013          15.000                                                                  
G21                   -164023.739        -754.012          16.000                                                                  
G25                   -436621.430       -1919.330          20.000                     -218572.291       -1435.001          17.000  
G31                   -644012.762       -2827.544          31.000                                                                  
G32                   -255297.647       -1071.334          30.000                      -78171.902        -799.248          22.000  
R 8                                                        18.000  
R 9                                                        15.000  
E 4                                                                                     55364.981         719.537          10.000  
E 9                   -167063.834        -911.471          18.000                      -13832.938        -677.954          21.000  
E11                    213711.949        2827.640          18.000                                                                  
E24                   -446404.872       -3067.082          15.000                                                                  
E36                    215469.318        1609.577          18.000                      140213.464        1201.238          16.000  
J 2                     66750.026         272.461          22.000                                                                  
C 3                     14980.376          94.518          29.000                                                                                                                                  
C 6                     21730.555         143.411          26.000                                                                                                                                  
C 8                    322046.663        1826.634          25.000                                                                                                                                  
C 9                     22127.085         106.850          19.000                                                                                                                                  
C10                    -13179.384       -1203.336          17.000                                                                                                                                  
C13                    306812.036        1663.556          23.000                                                                                                                                  
C16                     30974.485         212.808          28.000                                                                                                                                  
C21                     19187.913          59.404          23.000                                                                                        6580.816          44.356          18.000  
C22                    243059.222           0.006          12.000                                                                                                                                  
C26                   -302764.536       -2020.902          32.000                                                                                      -24017.357       -1522.418          23.000  
> 2021 12  7  4 24 51.0000000  0 24                     
G10                    115599.177         446.187          27.000                       41652.852         333.683          23.000  
G12                     -3394.786          -0.013          16.000                                                                  
G21                   -167996.898        -757.682          17.000                                                                  
G25                   -446705.738       -1918.366          20.000                     -224201.064       -1434.928          17.000  
G31                   -658873.555       -2827.448          24.000                                                                  
G32                   -260920.586       -1067.633          23.000                      -81310.011        -798.869          22.000  
R 8                                                        23.000  
R 9                                                        17.000  
E 4                                                                                     58191.572         720.971           7.000  
E 9                   -171860.502        -912.770          19.000                      -16504.978        -681.687          22.000  
E11                    228569.831        2825.978          19.000                       22597.358        2115.306          17.000  
E24                   -462520.340       -3066.672          16.000                                                                  
E36                    223911.597        1606.962          19.000                      144928.847        1201.145          18.000  
J 2                     68180.758         272.139          22.000                                                                  
C 3                     15453.796          78.252          27.000                                                                                                                                  
C 6                     22478.543         141.987          25.000                                                                                                                                  
C 8                    331556.290        1824.393          28.000                                                                                                                                  
C 9                     22681.303         106.718          18.000                                                                                                                                  
C10                    -19440.788       -1203.350          16.000                                                                                                                                  
C13                    315469.152        1662.144          25.000                                                                                                                                  
C16                     32071.529         210.911          22.000                                                                                                                                  
C21                     19504.804          61.153          21.000                                                                                        6753.704          42.829          18.000  
C22                    255111.335           0.006          10.000                                                                                                                                  
C26                   -313284.970       -2020.060          33.000                                                                                      -29995.476       -1523.332          26.000  
> 2021 12  7  4 24 52.0000000  0 26                     
G10                    117957.206         448.495          26.000                       42962.187         333.986          22.000  
G12                     -3551.035          -0.013          16.000                                                                  
G21                   -171978.729        -757.343          15.000                                                                  
G25                   -456788.333       -1917.937          17.000                     -229828.123       -1434.803          13.000  
G31                   -673739.140       -2828.770          32.000                                                                  
G32                   -266541.359       -1070.418          30.000                      -84447.845        -800.505          19.000  
R 8                                                        27.000  
R 9                                                        19.000  
E 4                                                                                     61023.632         722.119           7.000  
E 9                   -176671.465        -916.130          19.000                      -19177.626        -682.337          21.000  
E11                    243433.420        2828.847          15.000                       30904.639        2117.353          16.000  
E24                   -478638.066       -3068.378          21.000                                                                  
E36                    232358.013        1607.400          19.000                      149642.374        1200.648          23.000  
J 2                     69612.506         272.570          22.000                                                                  
C 2                      1014.733          79.487          27.000                                                                                                                                  
C 3                     15862.283          86.773          26.000                                                                                                                                  
C 6                     23226.352         143.843          24.000                                                                                                                                  
C 8                    341062.534        1823.883          26.000                                                                                                                                  
C 9                     23243.804         108.482          20.000                                                                                                                                  
C10                    -25714.798       -1205.417          17.000                                                                                                                                  
C13                    324123.135        1662.059          21.000                                                                                                                                  
C16                     33168.486         209.592          22.000                                                                                                                                  
C21                     19825.291          61.300          20.000                                                                                        6922.242          42.262          17.000  
C22                    267180.167           0.006          12.000                                                                                                                                  
C24                    -26256.979       -3264.680          17.000                                                                                                                                  
C26                   -323810.727       -2020.078          30.000                                                                                      -35974.423       -1524.059          23.000  
> 2021 12  7  4 24 53.0000000  0 27                     
G10                    120299.172         445.833          31.000                       44265.554         330.342          20.000  
G12                     -3714.806          -0.013          16.000                                                                  
G21                   -175962.916        -758.299          17.000                                                                  
G25                   -466875.835       -1920.221          13.000                     -235461.743       -1436.802          14.000  
G31                   -688604.985       -2829.789          36.000                                                                  
G32                   -272175.677       -1072.619          33.000                      -87591.850        -800.377          19.000  
R 1                                                        16.000  
R 8                                                        27.000  
R 9                                                        19.000  
E 4                                                                                     63860.065         723.668           7.000  
E 9                   -181480.265        -914.680          20.000                      -21852.657        -683.022          20.000  
E11                    258297.796        2827.911          18.000                       39212.977        2116.071          17.000  
E24                   -494767.283       -3069.515          22.000                                                                  
E36                    240809.419        1609.314          21.000                      154351.987        1201.226          23.000  
J 2                     71044.647         273.379          22.000                                                                  
C 2                      1359.394          67.936          27.000                                                                                                                                  
C 3                     16331.825          85.569          25.000                                                                                                                                  
C 6                     23968.444         143.220          25.000                                                                                                                                  
C 8                    350554.434        1822.581          24.000                                                                                                                                  
C 9                     23803.160         106.822          25.000                                                                                                                                  
C10                    -31992.158       -1204.246          17.000                                                                                                                                  
C13                    332787.093        1663.047          21.000                                                                                                                                  
C16                     34256.139         208.365          22.000                                                                                                                                  
C21                     20135.634          57.089          20.000                                                                                        7096.777          44.159          18.000  
C22                    279244.077           0.006          13.000                                                                                                                                  
C24                    -43260.336       -3268.280          19.000                                                                                                                                  
C26                   -334337.099       -2022.284          32.000                                                                                      -41954.107       -1523.116          23.000  
> 2021 12  7  4 24 54.0000000  0 26                     
G10                    122645.725         446.948          30.000                       45574.403         333.073          24.000  
G12                     -3876.651         -30.164          15.000                                                                  
G21                   -179945.406        -756.689          19.000                                                                  
G25                   -476969.458           0.005          13.000                     -241102.898       -1438.665          12.000  
G31                   -703474.454       -2828.897          35.000                                                                  
G32                   -277810.086       -1071.295          32.000                      -90734.548        -801.535          22.000  
R 1                                                        16.000  
R 8                                                        24.000  
R 9                                                        19.000  
E 9                   -186282.710        -913.054          18.000                      -24532.995        -684.014          22.000  
E11                    273157.449        2828.008          18.000                       47508.573        2113.143          15.000  
E24                   -510905.758       -3071.497          20.000                                                                  
E36                    249259.923        1607.875          24.000                      159063.736        1200.141          23.000  
J 2                     72471.574         269.702          23.000                                                                  
C 2                      1677.379          54.574          27.000                                                                                                                                  
C 3                     16753.324          67.368          25.000                                                                                                                                  
C 6                     24705.482         141.256          27.000                                                                                                                                  
C 8                    360041.646        1822.282          23.000                                                                                                                                  
C 9                     24351.888         104.316          28.000                                                                                                                                  
C10                    -38268.215       -1206.073          19.000                                                                                                                                  
C13                    341443.136        1661.308          22.000                                                                                                                                  
C16                     35341.882         208.963          27.000                                                                                                                                  
C21                     20442.453          61.625          20.000                                                                                        7274.421          45.641          19.000  
C22                    291300.385           0.006          13.000                                                                                                                                  
C24                    -60289.060       -3269.296          20.000                                                                                                                                  
C26                   -344869.412       -2023.366          34.000                                                                                      -47935.260       -1525.210          22.000  
> 2021 12  7  4 24 55.0000000  0 26                     
G10                    124993.280         448.633          32.000                       46882.855         335.567          22.000  
G12                     -4031.726         -28.355          14.000                                                                  
G21                   -183916.940        -754.087          20.000                                                                  
G25                   -487059.281       -1920.381          22.000                     -246747.848       -1438.922          18.000  
G31                   -718332.333       -2829.261          29.000                                                                  
G32                   -283446.403       -1072.867          31.000                      -93883.719        -801.453          20.000  
R 1                                                        16.000  
R 8                                                        26.000  
R 9                                                        18.000  
E 9                   -191085.753        -914.828          24.000                      -27215.355        -685.153          21.000  
E11                    288009.507        2824.222          18.000                       55807.455        2113.328          13.000  
E24                   -527057.414       -3072.123          18.000                                                                  
E36                    257707.646        1607.361          23.000                      163774.798        1200.392          24.000  
J 2                     73884.436         268.336          23.000                                                                  
C 2                      1940.621          61.376          27.000                                                                                                                                  
C 3                     17152.254          75.499          27.000                                                                                                                                  
C 6                     25440.837         140.083          28.000                                                                                                                                  
C 8                    369529.810        1822.735          24.000                                                                                                                                  
C 9                     24897.154         102.968          26.000                                                                                                                                  
C10                    -44560.921       -1208.885          16.000                                                                                                                                  
C13                    350087.652        1660.092          18.000                                                                                                                                  
C16                     36421.066         208.967          25.000                                                                                                                                  
C21                     20764.057          60.511          22.000                                                                                        7439.658          42.270          19.000  
C22                    303336.580           0.006          14.000                                                                                                                                  
C24                    -77334.300       -3275.384          17.000                                                                                                                                  
C26                   -355399.808       -2021.604          31.000                                                                                      -53910.762       -1520.914          20.000  
> 2021 12  7  4 24 56.0000000  0 26                     
G10                    127340.749         445.696          33.000                       48196.207         332.430          23.000  
G12                     -4178.442          -0.013          14.000                                                                  
G21                   -187876.946        -754.163          17.000                                                                  
G25                   -497144.066       -1917.749          30.000                     -252386.021       -1436.694          20.000  
G31                   -733209.143       -2829.464          24.000                                                                  
G32                   -289091.710       -1072.546          24.000                      -97030.099        -802.445          22.000  
R 1                                                        16.000  
R 8                                                        30.000  
R 9                                                        18.000  
E 9                   -195901.560        -916.876          26.000                      -29901.302        -685.278          19.000  
E11                    302853.764        2826.437          18.000                       64093.788        2110.901          12.000  
E24                   -543205.313       -3075.954          17.000                                                                  
E36                    266151.991        1606.857          18.000                      168484.692        1200.317          24.000  
J 2                     75294.434         267.758          18.000                                                                  
C 2                      2285.776          61.807          27.000                                                                                                                                  
C 3                     17585.286          84.894          26.000                                                                                                                                  
C 6                     26169.225         138.364          29.000                                                                                                                                  
C 8                    379015.596        1819.671          24.000                                                                                                                                  
C 9                     25428.345         102.928          25.000                                                                                                                                  
C10                    -50855.343       -1208.567          14.000                                                                                                                                  
C13                    358732.633        1659.731          21.000                                                                                                                                  
C16                     37497.064         207.667          26.000                                                                                                                                  
C21                     21072.516          57.996          29.000                                                                                        7614.726          44.964          18.000  
C22                    315361.672           0.006          13.000                                                                                                                                  
C24                    -94406.441       -3279.011          14.000                                                                                                                                  
C26                   -365934.173       -2025.572          30.000                                                                                      -59893.090       -1525.217          20.000  
> 2021 12  7  4 24 57.0000000  0 26                     
G10                    129684.200         446.777          33.000                       49503.140         333.125          23.000  
G12                     -4331.073          -0.013          16.000                                                                  
G21                   -191838.142        -752.243          17.000                                                                  
G25                   -507228.758       -1921.707          32.000                     -258017.076       -1434.406          20.000  
G31                   -748080.577       -2829.708          24.000                                                                  
G32                   -294731.968       -1074.089          25.000                     -100179.798        -802.642          23.000  
R 1                                                        15.000  
R 8                                                        27.000  
R 9                                                        16.000  
E 9                   -200719.837        -917.549          24.000                      -32591.860        -687.037          19.000  
E11                    317707.549        2827.844          17.000                       72376.253        2110.555          10.000  
E24                   -559352.754       -3069.099          14.000                                                                  
E36                    274586.797        1604.662          18.000                      173192.420        1200.414          22.000  
J 2                     76696.824         265.480          18.000                                                                  
C 2                      2554.686          54.341          24.000                                                                                                                                  
C 3                     18035.036          90.684          27.000                                                                                                                                  
C 6                     26890.009         136.246          26.000                                                                                                                                  
C 8                    388499.420        1820.697          23.000                                                                                                                                  
C 9                     25954.132         101.014          28.000                                                                                                                                  
C10                    -57142.357       -1208.589          14.000                                                                                                                                  
C13                    367371.196        1657.942          22.000                                                                                                                                  
C16                     38576.969         204.615          24.000                                                                                                                                  
C21                     21366.725          56.156          26.000                                                                                        7787.838          42.469          18.000  
C22                    327394.946           0.006          12.000                                                                                                                                  
C24                   -111473.672       -3277.231          15.000                                                                                                                                  
C26                   -376476.844       -2022.510          32.000                                                                                      -65884.614       -1523.720          20.000  
> 2021 12  7  4 24 58.0000000  0 26                     
G10                    132025.703         444.888          32.000                       50813.569         333.216          21.000  
G12                     -4489.987          -0.013          15.000                                                                  
G21                   -195794.840        -754.630          21.000                                                                  
G25                   -517328.656       -1920.416          29.000                     -263645.806       -1434.523          23.000  
G31                   -762953.642       -2831.253          28.000                                                                  
G32                   -300379.560       -1073.848          24.000                     -103332.425        -803.429          19.000  
R 1                                                        13.000  
R 8                                                        24.000  
R 9                                                        20.000  
E 9                   -205540.526        -917.904          27.000                      -35275.560        -685.356          19.000  
E11                    332546.236        2821.092          20.000                       80659.837        2111.107          10.000  
E24                   -575482.516       -3072.128          20.000                                                                  
E36                    283023.991        1606.030          22.000                      177889.912        1195.176          15.000  
J 2                     78093.733         266.964          19.000                                                                  
C 2                      2761.264          44.526          25.000                                                                                                                                  
C 3                     18533.537          77.532          26.000                                                                                                                                  
C 6                     27609.752         139.224          25.000                                                                                                                                  
C 8                    397979.421        1819.850          24.000                                                                                                                                  
C 9                     26477.960          97.396          28.000                                                                                                                                  
C10                    -63441.613       -1209.648          15.000                                                                                                                                  
C13                    376008.116        1658.896          21.000                                                                                                                                  
C16                     39639.684         204.605          24.000                                                                                                                                  
C21                     21667.338          58.193          21.000                                                                                        7959.616          44.133          18.000  
C22                    339427.790           0.006          11.000                                                                                                                                  
C24                   -128533.808       -3275.977          14.000                                                                                                                                  
C26                   -387011.765       -2021.993          33.000                                                                                      -71871.079       -1526.526          23.000  
> 2021 12  7  4 24 59.0000000  0 25                     
G10                    134369.387         446.583          28.000                       52118.698         331.751          22.000  
G12                     -4648.902          -0.013          17.000                                                                  
G21                   -199763.927        -755.291          18.000                                                                  
G25                   -527424.250       -1918.348          24.000                     -269271.372       -1432.000          18.000  
G31                   -777829.075       -2831.118          33.000                                                                  
G32                   -306025.453       -1075.903          33.000                     -106483.861        -801.314          21.000  
R 1                                                        11.000  
R 8                                                        21.000  
R 9                                                        17.000  
E 9                   -210361.171        -915.268          20.000                      -37965.987        -686.619          24.000  
E11                    347376.657        2820.196          18.000                       88949.676        2112.141          11.000  
E24                   -591624.860       -3071.306          18.000                                                                  
E36                    291463.518        1606.581          20.000                      182585.160        1196.276          15.000  
J 2                     79497.293         266.915          19.000                                                                  
C 2                      2935.899          36.751          27.000                                                                                                                                  
C 3                     18905.368          68.063          27.000                                                                                                                                  
C 6                     28329.076         137.979          24.000                                                                                                                                  
C 8                    407451.758        1819.723          23.000                                                                                                                                  
C 9                     26993.516          98.177          22.000                                                                                                                                  
C13                    384640.194        1657.591          25.000                                                                                                                                  
C16                     40703.446         205.125          26.000                                                                                                                                  
C21                     21961.121          54.054          21.000                                                                                        8133.244          43.137          18.000  
C22                    351450.038           0.006          12.000                                                                                                                                  
C24                   -145590.613       -3276.031          16.000                                                                                                                                  
C26                   -397550.594       -2024.989          32.000                                                                                      -77858.495       -1526.177          24.000  
> 2021 12  7  4 25  0.0000000  0 25                     
G10                    136709.221         445.323          29.000                       53423.785         332.443          26.000  
G12                     -4812.910          -0.013          17.000                                                                  
G21                   -203733.473        -755.782          18.000                                                                  
G25                   -537508.541       -1919.143          19.000                     -274893.381       -1433.194          17.000  
G31                   -792708.739       -2830.334          28.000                                                                  
G32                   -311688.609       -1076.354          32.000                     -109623.635        -804.070          25.000  
R 1                                                        13.000  
R 8                                                        21.000  
R 9                                                        17.000  
E 9                   -215183.575        -920.154          18.000                      -40663.165        -686.780          24.000  
E11                    362202.784        2822.423          16.000                       97237.355        2110.249          14.000  
E24                   -607767.568       -3072.094          18.000                                                                  
E36                    299898.730        1605.654          23.000                      187273.692        1194.833          17.000  
J 2                     80904.149         267.277          24.000                                                                  
C 2                      3182.468          47.736          27.000                                                                                                                                  
C 3                     19302.659          80.014          28.000                                                                                                                                  
C 6                     29035.805         134.730          25.000                                                                                                                                  
C 8                    416926.856        1818.396          28.000                                                                                                                                  
C 9                     27505.931          98.565          25.000                                                                                                                                  
C13                    393263.819        1657.261          28.000                                                                                                                                  
C16                     41766.507         203.726          25.000                                                                                                                                  
C21                     22251.782          54.713          20.000                                                                                        8301.262          42.885          18.000  
C22                    363469.663           0.006          13.000                                                                                                                                  
C24                   -162654.686           0.005          16.000                                                                                                                                  
C26                   -408093.475       -2024.790          33.000                                                                                      -83845.901       -1526.117          25.000  
> 2021 12  7  4 25  1.0000000  0 25                     
G10                    139050.799         444.843          31.000                       54737.361         333.265          20.000  
G12                     -4980.289         -31.937          17.000                                                                  
G21                   -207717.091        -759.591          16.000                                                                  
G25                   -547601.073       -1921.106          17.000                     -280513.140       -1433.052          15.000  
G31                   -807580.803       -2832.897          30.000                                                                  
G32                   -317342.982       -1075.755          29.000                     -112778.957        -803.906          28.000  
R 1                                                        13.000  
R 8                                                        20.000  
R 9                                                        20.000  
E 9                   -220016.152        -919.909          24.000                      -43357.328        -687.091          23.000  
E11                    377029.648        2821.255          14.000                      105513.673        2107.436          12.000  
E24                   -623913.182       -3072.687          20.000                                                                  
E36                    308331.101        1604.694          21.000                      191960.044        1194.758          14.000  
J 2                     82314.021         267.404          20.000                                                                  
C 2                      3510.563          69.074          25.000                                                                                                                                  
C 3                     19697.403          81.483          27.000                                                                                                                                  
C 6                     29730.586         133.884          24.000                                                                                                                                  
C 8                    426396.195        1818.325          29.000                                                                                                                                  
C 9                     28018.243          98.094          25.000                                                                                                                                  
C13                    401885.084        1656.020          30.000                                                                                                                                  
C16                     42821.065         201.539          23.000                                                                                                                                  
C21                     22538.211          54.690          17.000                                                                                        8470.054          40.776          18.000  
C22                    375473.755           0.006          13.000                                                                                                                                  
C24                   -179717.399           0.005          17.000                                                                                                                                  
C26                   -418636.838       -2025.864          30.000                                                                                      -89835.607       -1527.706          22.000  
> 2021 12  7  4 25  2.0000000  0 25                     
G10                    141390.031         445.894          26.000                       56035.624         329.602          18.000  
G12                     -5146.591         -30.710          17.000                                                                  
G21                   -211703.805        -760.244          19.000                                                                  
G25                   -557700.279       -1921.854          20.000                     -286133.394       -1431.765          17.000  
G31                   -822466.035       -2833.184          30.000                                                                  
G32                   -323003.654       -1077.979          30.000                     -115935.989        -804.622          27.000  
R 1                                                        14.000  
R 8                                                        22.000  
R 9                                                        19.000  
E 9                   -224846.573        -917.765          15.000                      -46053.865        -687.608          23.000  
E11                                                                                    113785.765        2106.841          13.000  
E24                   -640073.486       -3076.917          20.000                                                                  
E36                    316765.758        1605.197          25.000                      196652.628        1195.671          13.000  
J 2                     83716.508         265.287          23.000                                                                  
C 2                      3859.205          59.497          26.000                                                                                                                                  
C 3                     20135.945          83.230          29.000                                                                                                                                  
C 6                     30421.665         133.731          23.000                                                                                                                                  
C 8                    435858.956        1817.926          30.000                                                                                                                                  
C 9                     28525.565          96.830          26.000                                                                                                                                  
C13                    410516.595        1655.864          28.000                                                                                                                                  
C16                     43865.231         200.308          21.000                                                                                                                                  
C21                     22825.070          53.660          19.000                                                                                        8631.635          41.315          20.000  
C22                    387475.186           0.006          14.000                                                                                                                                  
C24                   -196770.795       -3274.599          17.000                                                                                                                                  
C26                   -429186.710       -2026.523          28.000                                                                                      -95823.073       -1525.453          26.000  
> 2021 12  7  4 25  3.0000000  0 25                     
G10                    143729.412         444.911          25.000                       57339.293         335.101          20.000  
G12                     -5303.080         -28.841          17.000                                                                  
G21                   -215698.471        -759.343          17.000                                                                  
G25                   -567799.037       -1922.308          19.000                     -291754.940       -1433.389          18.000  
G31                   -837349.377       -2831.905          31.000                                                                  
G32                   -328677.966       -1080.057          28.000                     -119094.397        -805.137          25.000  
R 1                                                        16.000  
R 8                                                        23.000  
R 9                                                        12.000  
E 9                                                                                    -48751.579        -687.384          23.000  
E11                                                                                    122051.870        2105.483          15.000  
E24                   -656230.142       -3072.789          18.000                                                                  
E36                    325197.531        1604.402          24.000                      201343.448        1194.257          14.000  
J 2                     85109.087         263.941          27.000                                                                  
C 2                      4181.001          50.824          27.000                                                                                                                                  
C 3                     20537.299          74.119          28.000                                                                                                                                  
C 6                     31116.548         133.471          24.000                                                                                                                                  
C 8                    445326.463        1818.969          28.000                                                                                                                                  
C 9                     29038.330          98.761          24.000                                                                                                                                  
C13                    419135.965        1654.702          29.000                                                                                                                                  
C16                     44911.999         201.062          24.000                                                                                                                                  
C21                     23109.554          55.344          20.000                                                                                        8802.637          43.138          18.000  
C22                    399486.218           0.006          15.000                                                                                                                                  
C24                   -213822.720       -3275.705          17.000                                                                                                                                  
C26                   -439735.315       -2026.116          28.000                                                                                     -101811.869       -1526.135          25.000  
> 2021 12  7  4 25  4.0000000  0 25                     
G10                    146061.148         444.653          29.000                       58644.233         332.578          19.000  
G12                     -5453.014         -28.548          16.000                                                                  
G21                   -219679.025        -756.639          20.000                                                                  
G25                   -577902.129       -1924.606          20.000                     -297379.114       -1433.159          19.000  
G31                   -852231.549       -2834.132          29.000                                                                  
G32                   -334357.453       -1080.657          27.000                     -122249.081        -800.708          22.000  
R 1                                                        14.000  
R 8                                                        22.000  
R 9                                                        15.000  
E 9                                                                                    -51450.844        -688.144          21.000  
E11                                                                                    130314.823        2104.413          15.000  
E24                   -672391.362       -3077.205          21.000                      -16650.816       -2292.948          17.000  
E36                    333633.311        1606.022          19.000                      206029.828        1193.199          17.000  
J 2                     86493.595         263.450          28.000                                                                  
C 2                      4464.927          73.886          27.000                                                                                                                                  
C 3                     20964.696          82.674          28.000                                                                                                                                  
C 6                     31809.069         134.452          28.000                                                                                                                                  
C 8                    454792.250        1817.550          29.000                                                                                                                                  
C 9                     29546.980          95.943          24.000                                                                                                                                  
C13                    427758.690        1656.826          24.000                                                                                                                                  
C16                     45962.341         201.344          26.000                                                                                                                                  
C21                     23388.714          51.939          21.000                                                                                        8986.049          47.334          19.000  
C22                    411489.743           0.006          15.000                                                                                                                                  
C24                   -230882.207       -3277.266          17.000                                                                                                                                  
C26                   -450283.654       -2023.128          27.000                                                                                     -107801.737       -1524.427          21.000  
> 2021 12  7  4 25  5.0000000  0 25                     
G10                    148399.944         444.739          28.000                       59954.404         334.831          19.000  
G12                     -5614.306         -32.076          16.000                                                                  
G21                   -223654.534        -757.676          17.000                                                                  
G25                   -588012.882       -1921.255          28.000                     -303006.654       -1435.893          28.000  
G31                   -867118.730       -2831.434          35.000                                                                  
G32                   -340030.989       -1079.464          25.000                     -125409.504        -807.970          22.000  
R 1                                                        13.000  
R 8                                                        20.000  
R 9                                                        15.000  
E 9                                                                                    -54154.135        -689.364          20.000  
E11                                                                                    138575.270        2105.410          15.000  
E24                   -688565.960       -3077.385          16.000                                                                  
E36                    342067.771        1602.452          18.000                      210714.943        1194.593          18.000  
J 2                     87877.985         263.199          32.000                                                                  
C 2                      4806.652          56.605          24.000                                                                                                                                  
C 3                     21401.522          77.868          27.000                                                                                                                                  
C 6                     32509.567         134.507          19.000                                                                                                                                  
C 8                    464260.086        1819.067          22.000                                                                                                                                  
C 9                     30048.788          96.170          20.000                                                                                                                                  
C13                    436387.049        1656.713          25.000                                                                                                                                  
C16                     47001.514         199.845          25.000                                                                                                                                  
C21                     23663.717          53.220          26.000                                                                                        9164.206          42.126          19.000  
C22                    423494.164           0.006          16.000                                                                                                                                  
C24                   -247951.695       -3278.473          16.000                                                                                                                                  
C26                   -460829.962       -2027.037          29.000                                                                                     -113794.151       -1526.333          21.000  
> 2021 12  7  4 25  6.0000000  0 24                     
G10                    150734.610         443.134          28.000                       61257.995         330.642          22.000  
G12                     -5781.098          -0.013          13.000                                                                  
G21                   -227630.103        -754.530          19.000                                                                  
G25                   -598106.823       -1921.117          30.000                     -308640.217       -1434.895          28.000  
G31                   -881999.667       -2831.416          28.000                                                                  
G32                   -345702.749       -1080.702          28.000                     -128583.556        -808.823          18.000  
R 8                                                        21.000  
R 9                                                        14.000  
E 9                                                                                    -56855.281        -689.909          17.000  
E11                                                                                    146836.851        2104.053          14.000  
E24                   -704742.498       -3079.530          17.000                                                                  
E36                    350492.189        1603.499          24.000                      215400.188        1194.716          17.000  
J 2                     89249.167         262.473          34.000                                                                  
C 2                      5078.340          38.151          26.000                                                                                                                                  
C 3                     21762.621          68.132          26.000                                                                                                                                  
C 6                     33200.498         131.494          17.000                                                                                                                                  
C 8                    473725.242        1816.728          20.000                                                                                                                                  
C 9                     30546.834          97.481          17.000                                                                                                                                  
C13                    445009.216        1653.770          24.000                                                                                                                                  
C16                     48048.707         201.900          21.000                                                                                                                                  
C21                     23943.749          53.836          22.000                                                                                        9324.217          39.300          17.000  
C22                    435500.121           0.006          15.000                                                                                                                                  
C24                   -265021.328       -3278.752          14.000                                                                                                                                  
C26                   -471385.314       -2026.962          29.000                                                                                     -119787.418       -1526.270          17.000  
> 2021 12  7  4 25  7.0000000  0 24                     
G10                    153056.542         441.745          26.000                       62559.526         328.891          18.000  
G12                     -5936.513          -0.013          15.000                                                                  
G21                   -231604.499        -756.550          17.000                                                                  
G23                     41307.626        2683.785          18.000                                                                  
G25                   -608194.462       -1916.330          25.000                     -314265.048       -1432.101          19.000  
G31                   -896887.097       -2832.880          32.000                                                                  
G32                   -351380.436       -1080.198          31.000                     -131753.680        -807.468          20.000  
R 8                                                        20.000  
R 9                                                        15.000  
E 9                                                                                    -59562.219        -689.075          17.000  
E11                                                                                    155093.568        2104.295          13.000  
E24                   -720928.273       -3080.105          26.000                                                                  
E36                    358902.727        1600.391          26.000                      220086.295        1197.987          20.000  
J 2                     90638.981         263.849          20.000                                                                  
C 2                      5254.289          52.794          28.000                                                                                                                                  
C 3                     22149.503          72.080          26.000                                                                                                                                  
C 6                     33884.248         134.050          18.000                                                                                                                                  
C 8                    483171.129        1814.465          22.000                                                                                                                                  
C 9                     31046.881          93.465          22.000                                                                                                                                  
C13                    453614.672        1651.718          29.000                                                                                                                                  
C21                     24222.722          52.949          20.000                                                                                        9479.266          40.714          17.000  
C22                    447510.088           0.006          13.000                                                                                                                                  
C24                   -282089.657           0.005          12.000                                                                                                                                  
C26                   -481942.636       -2026.198          27.000                                                                                     -125779.646       -1526.670          18.000  
> 2021 12  7  4 25  8.0000000  0 26                     
G10                    155391.707         444.438          29.000                       63852.377         330.574          18.000  
G12                     -6085.949          -0.013          12.000                                                                  
G21                   -235577.946        -756.400          20.000                                                                  
G23                     55418.125        2685.310          16.000                                                                  
G25                   -618270.442       -1918.123          17.000                     -319887.196       -1434.697          17.000  
G31                   -911770.637       -2831.146          32.000                                                                  
G32                   -357062.408       -1081.458          34.000                     -134923.133        -808.163          22.000  
R 1                                                        15.000  
R 8                                                        24.000  
R 9                                                        16.000  
E 9                                                                                    -62264.871        -688.903          19.000  
E11                    480727.030        2818.125          19.000                      163350.126        2103.830          14.000  
E24                   -737114.938       -3080.251          24.000                      -52727.812       -2299.780          18.000  
E36                    367323.371        1603.479          23.000                      224783.008        1196.959          20.000  
J 2                     92023.220         263.686          17.000                                                                  
C 2                      5581.264          73.129          27.000                                                                                                                                  
C 3                     22592.511          80.835          25.000                                                                                                                                  
C 6                     34571.030         130.388          22.000                                                                                                                                  
C 8                    492623.497        1816.622          21.000                                                                                                                                  
C 9                     31534.144          94.435          24.000                                                                                                                                  
C13                    462221.531        1652.034          27.000                                                                                                                                  
C16                     50113.350         197.453          23.000                                                                                                                                  
C21                     24492.007          52.943          17.000                                                                                        9639.235          41.220          16.000  
C22                    459512.495           0.006          13.000                                                                                                                                  
C24                   -299162.692           0.005          14.000                                                                                                                                  
C26                   -492496.586       -2026.924          34.000                                                                                     -131779.461       -1528.756          17.000  
> 2021 12  7  4 25  9.0000000  0 25                     
G10                    157722.964         442.815          32.000                       65153.676         332.626          22.000  
G12                     -6238.363          -0.013          12.000                                                                  
G21                   -239550.850        -757.021          22.000                                                                  
G25                   -628366.862       -1923.181          15.000                     -325513.442       -1431.687          18.000  
G31                   -926648.432       -2833.041          35.000                                                                  
G32                   -362742.697       -1082.422          26.000                     -138091.792        -807.832          20.000  
R 1                                                        13.000  
R 8                                                        26.000  
R 9                                                        15.000  
E 9                   -258784.076        -925.107          20.000                      -64980.962        -693.150          18.000  
E11                    495522.419        2815.771          20.000                      171603.521        2103.004          13.000  
E24                   -753299.656       -3080.688          18.000                      -61750.709       -2298.763          17.000  
E36                    375751.333        1603.809          25.000                      229478.380        1197.945          15.000  
J 2                     93397.314         261.692          16.000                                                                  
C 2                      5880.158          49.212          28.000                                                                                                                                  
C 3                     22975.767          70.013          25.000                                                                                                                                  
C 6                     35248.118         129.761          27.000                                                                                                                                  
C 8                    502078.565        1816.404          24.000                                                                                                                                  
C 9                     32012.964          89.160          19.000                                                                                                                                  
C13                    470827.837        1651.948          27.000                                                                                                                                  
C16                     51135.309         197.034          23.000                                                                                                                                  
C21                     24757.823          51.343          23.000                                                                                        9804.546          40.950          17.000  
C22                    471519.034           0.006          12.000                                                                                                                                  
C24                   -316247.416           0.005          16.000                                                                                                                                  
C26                   -503052.263       -2028.246          33.000                                                                                     -137776.585       -1528.203          28.000  
> 2021 12  7  4 25 10.0000000  0 24                     
G10                    160064.134         449.886          28.000                       66456.923         333.336          20.000  
G12                     -6394.949          -0.013          13.000                                                                  
G21                   -243529.397        -756.148          17.000                                                                  
G25                   -638481.628           0.005          16.000                     -331135.011       -1433.075          17.000  
G31                   -941548.092       -2834.347          33.000                                                                  
G32                   -368430.295       -1082.573          30.000                     -141261.647        -807.457          19.000  
R 1                                                        11.000  
R 8                                                        23.000  
R 9                                                        16.000  
E 9                   -263649.869        -925.162          23.000                      -67697.155        -692.710          18.000  
E11                    510324.682        2818.584          18.000                      179849.941        2101.352          13.000  
E24                   -769496.433       -3083.431          18.000                      -70775.518       -2300.016          14.000  
E36                    384165.588        1601.635          28.000                      234184.335        1201.370          13.000  
J 2                     94762.138         257.341          18.000                                                                  
C 2                      6114.070          52.664          27.000                                                                                                                                  
C 3                     23348.868          70.328          23.000                                                                                                                                  
C 6                     35927.938         129.205          26.000                                                                                                                                  
C 8                    511534.567        1815.016          25.000                                                                                                                                  
C 9                     32476.628          89.824          24.000                                                                                                                                  
C13                    479421.612        1650.360          28.000                                                                                                                                  
C16                     52158.538         194.894          21.000                                                                                                                                  
C21                     25034.006          54.101          24.000                                                                                        9965.985          40.441          20.000  
C24                   -333331.183       -3280.732          17.000                                                                                                                                  
C26                   -513615.360       -2027.128          31.000                                                                                     -143772.891       -1527.952          27.000  
> 2021 12  7  4 25 11.0000000  0 14                     
G10                    162413.767         444.046          31.000                       67756.445         330.726          18.000  
G12                     -6547.393          -0.013          12.000                                                                  
G21                   -247503.616        -756.496          18.000                                                                  
G25                   -648595.547           0.005          16.000                     -336763.398       -1435.762          17.000  
G31                   -956424.965       -2834.240          26.000                                                                  
G32                   -374117.430       -1082.374          26.000                     -144428.672        -808.005          24.000  
R 8                                                        29.000  
R 9                                                        14.000  
E 9                   -268541.083        -931.314          19.000                      -70416.464        -691.737          19.000  
E11                                                                                    188101.308        2103.449          14.000  
E36                    392589.130        1602.324          21.000                      238891.034        1198.182          14.000  
J 2                     96117.179         256.798          18.000                                                                  
C21                     25313.064          53.117          22.000                                                                                       10123.118          39.583          17.000  
C26                   -524167.150       -2026.719          30.000                                                                                     -149766.286       -1527.347          24.000  
> 2021 12  7  4 25 12.0000000  0 17                     
G10                    164757.123         444.950          30.000                       69060.832         335.599          20.000  
G12                     -6701.220          -0.013          11.000                                                                  
G21                   -251480.872        -756.285          18.000                                                                  
G25                   -658704.730           0.005          17.000                     -342402.570       -1436.635          16.000  
G31                   -971321.813       -2835.064          25.000                                                                  
G32                   -379797.066       -1079.950          30.000                     -147599.880        -808.903          22.000  
R 8                                                        27.000  
R 9                                                        15.000  
E 9                   -273423.701        -927.026          23.000                      -73126.802        -690.016          18.000  
E11                     28240.386        2813.190          18.000                      196351.813        2101.509          15.000  
E24                                                                                    -88821.650       -2300.244          14.000  
E36                    401006.720        1601.719          25.000                      243589.276        1197.536          14.000  
J 2                     97477.217         259.517          18.000                                                                  
C 2                       185.742          37.993          26.000                                                                                                                                  
C13                      4795.857        1651.710          29.000                                                                                                                                  
C21                     25583.002          51.167          23.000                                                                                       10279.341          40.304          16.000  
C26                   -534723.042       -2026.955          29.000                                                                                     -155761.934       -1528.151          22.000  
> 2021 12  7  4 25 13.0000000  0 20                     
G10                    167094.416         442.205          30.000                       70363.687         332.286          24.000  
G12                     -6853.035          -0.013          11.000                                                                  
G21                   -255469.391        -759.295          15.000                                                                  
G25                   -668804.753       -1921.945          25.000                     -348033.961       -1433.029          13.000  
G31                   -986221.238       -2834.877          20.000                                                                  
G32                   -385485.085       -1084.054          32.000                     -150771.583        -807.585          19.000  
R 8                                                        25.000  
R 9                                                        16.000  
E 9                   -278292.213        -926.343          25.000                      -75836.999        -691.362          19.000  
E11                     43021.619        2810.797          18.000                      204599.572        2101.911          14.000  
E24                                                                                    -97848.251       -2300.990          16.000  
E36                    409422.429        1601.363          24.000                      248287.818        1196.863          14.000  
J 2                     98844.688         259.877          19.000                                                                  
C 2                       347.461          23.998          24.000                                                                                                                                  
C 3                       733.010          80.750          27.000                                                                                                                                  
C 6                       844.318         126.877          26.000                                                                                                                                  
C 8                     11663.940        1811.902          25.000                                                                                                                                  
C13                     13389.416        1649.781          30.000                                                                                                                                  
C21                     25851.224          51.180          22.000                                                                                       10438.350          41.297          13.000  
C26                   -545274.074       -2026.983          27.000                                                                                     -161758.261       -1528.890          22.000  
> 2021 12  7  4 25 14.0000000  0 15                     
G10                    169421.052         444.523          28.000                       71667.119         333.259          19.000  
G12                     -7003.152          -0.013          15.000                                                                  
G21                   -259460.142        -758.333          16.000                                                                  
G25                   -678908.003       -1921.789          20.000                     -353658.389       -1434.081          17.000  
G31                  -1001122.510       -2833.827          31.000                                                                  
G32                   -391170.950       -1081.657          29.000                     -153941.705        -808.687          23.000  
R 8                                                        26.000  
R 9                                                        16.000  
E 9                   -283160.256        -926.296          24.000                      -78547.324        -691.841          19.000  
E11                     57800.024        2810.476          16.000                      212846.069        2100.168          14.000  
E24                                                                                   -106880.244       -2302.749          18.000  
E36                    417834.814        1600.904          21.000                      252984.632        1198.679          18.000  
J 2                    100208.479         259.590          17.000                                                                  
C21                     26113.892          50.395          25.000                                                                                       10595.166          40.398          17.000  
C26                   -555839.951       -2030.333          30.000                                                                                     -167757.003       -1529.475          25.000  
> 2021 12  7  4 25 15.0000000  0 20                     
G10                    171766.200         445.613          28.000                       72975.637         332.303          17.000  
G12                     -7157.783          -0.013          16.000                                                                  
G21                   -263447.299        -756.903          19.000                                                                  
G23                     86824.483        2676.313          17.000                                                                  
G25                   -689014.999       -1923.487          34.000                     -359291.593       -1437.733          22.000  
G31                  -1016011.545       -2833.602          30.000                                                                  
G32                   -396859.637       -1083.265          24.000                     -157115.716        -808.569          20.000  
R 8                                                        20.000  
R 9                                                        21.000  
E 9                   -288033.409        -930.024          20.000                      -81264.525        -692.124          17.000  
E11                     72570.829        2812.915          18.000                      221083.376        2097.330          14.000  
E24                                                                                   -115920.392       -2303.895          17.000  
E36                    426251.609        1602.368          21.000                      257682.783        1196.081          22.000  
J 2                    101557.185         255.527          31.000                                                                  
C 3                       317.208          74.869          28.000                                                                                                                                  
C 8                      5247.053        1815.649          28.000                                                                                                                                  
C 9                       363.092          89.675          22.000                                                                                                                                  
C13                      5991.933        1650.340          29.000                                                                                                                                  
C21                     26374.236          51.187          27.000                                                                                       10748.455          38.979          16.000  
C26                   -566400.729       -2027.369          30.000                                                                                     -173755.534       -1528.223          26.000  
> 2021 12  7  4 25 16.0000000  0 16                     
G10                    174108.657         447.453          29.000                       74271.813         328.654          18.000  
G12                     -7329.836          -0.013          15.000                                                                  
G21                   -267424.223        -756.888          18.000                                                                  
G23                    100890.972        2678.072          14.000                                                                  
G25                   -699116.710       -1919.600          30.000                     -364926.716       -1435.556          21.000  
G31                  -1030906.651       -2834.412          29.000                                                                  
G32                   -402557.202       -1082.887          28.000                     -160288.145        -808.146          22.000  
R 8                                                        20.000  
R 9                                                        21.000  
E 9                   -292917.745        -929.450          20.000                      -83977.791        -690.151          17.000  
E11                     87361.155        2816.223          15.000                      229316.978        2098.653          13.000  
E24                                                                                   -124960.732       -2302.841          17.000  
E36                    434657.959        1598.511          20.000                      262376.645        1194.980          22.000  
J 2                    102916.540         261.413          27.000                                                                  
C21                     26649.509          50.722          26.000                                                                                       10900.785          39.151          17.000  
C26                   -576962.862       -2027.383          34.000                                                                                     -179750.523       -1524.365          24.000  
> 2021 12  7  4 25 17.0000000  0 18                     
G10                    176457.723         445.725          33.000                       75572.695         333.163          19.000  
G12                     -7510.350         -35.625          14.000                                                                  
G21                   -271406.510        -758.340          17.000                                                                  
G23                    114982.788        2685.155          17.000                                                                  
G25                   -709220.324       -1919.951          19.000                     -370539.780       -1428.519          17.000  
G31                  -1045806.227       -2834.882          31.000                                                                  
G32                   -408249.752       -1084.666          27.000                     -163467.405        -810.214          23.000  
R 8                                                        23.000  
R 9                                                        17.000  
E 9                   -297800.150        -928.627          23.000                      -86694.463        -694.279          23.000  
E11                    102147.064        2811.402          13.000                      237554.760        2099.740          14.000  
E24                                                                                   -133999.025       -2302.908          17.000  
E36                    443064.999        1600.717          26.000                      267069.053        1196.475          19.000  
J 2                    104286.599         259.308          17.000                                                                  
C 8                      6946.378        1814.650          28.000                                                                                                                                  
C13                      4968.633        1651.366          28.000                                                                                                                                  
C21                     26911.911          50.044          23.000                                                                                       11054.432          40.741          17.000  
C26                   -587521.534       -2029.600          30.000                                                                                     -185742.116       -1528.810          25.000  
> 2021 12  7  4 25 18.0000000  0 21                     
G10                    178795.230         446.334          34.000                       76878.849         332.800          19.000  
G12                     -7690.991         -32.502          13.000                                                                  
G21                   -275388.467        -758.253          17.000                                                                  
G23                    129088.604        2682.885          19.000                                                                  
G25                   -719323.196       -1924.026          17.000                     -376161.355       -1434.550          17.000  
G31                  -1060708.789       -2834.873          32.000                                                                  
G32                   -413945.733       -1083.389          25.000                     -166645.682        -810.070          23.000  
R 8                                                        25.000  
R 9                                                        16.000  
E 9                   -302681.835        -929.067          24.000                      -89425.599        -698.586          21.000  
E11                    116905.778        2807.694          17.000                      245796.106        2100.222          14.000  
E24                    -27283.373       -3085.007          20.000                     -143041.329       -2305.426          20.000  
E36                    451475.590        1600.612          18.000                      271770.501        1200.435          15.000  
J 2                    105634.047         254.968          19.000                                                                  
C 2                       504.529          50.264          27.000                                                                                                                                  
C 3                       676.461          74.102          30.000                                                                                                                                  
C 8                     16386.825        1812.182          27.000                                                                                                                                  
C 9                       598.534          85.925          26.000                                                                                                                                  
C13                     13564.257        1651.004          21.000                                                                                                                                  
C21                     27180.071          51.085          25.000                                                                                       11213.439          40.614          17.000  
C26                   -598081.291       -2026.633          32.000                                                                                     -191738.608       -1527.204          22.000  
> 2021 12  7  4 25 19.0000000  0 16                     
G10                    181137.893         444.416          36.000                       78182.729         332.494          19.000  
G12                     -7864.623          -0.013          11.000                                                                  
G21                   -279371.628        -757.364          16.000                                                                  
G23                    143197.083        2684.608          18.000                                                                  
G25                   -729424.965       -1922.438          16.000                     -381796.649       -1437.015          18.000  
G31                  -1075603.629       -2835.056          32.000                                                                  
G32                   -419649.699       -1086.435          26.000                     -169824.500        -811.107          22.000  
R 8                                                        23.000  
R 9                                                        15.000  
E 9                   -307564.107        -929.108          25.000                      -92146.708        -692.713          22.000  
E11                    131656.163        2805.428          15.000                      254033.807        2097.678          15.000  
E24                    -43503.904       -3087.350          21.000                     -152085.674       -2303.069          20.000  
E36                    459892.123        1601.083          18.000                      276481.134        1200.651          12.000  
J 2                    106980.167         254.597          21.000                                                                  
C21                     27445.422          52.819          26.000                                                                                       11371.566          41.543          16.000  
C26                   -608644.289       -2030.792          32.000                                                                                     -197736.581       -1528.585          21.000  
> 2021 12  7  4 25 20.0000000  0 18                     
G10                    183481.751         446.116          35.000                       79488.580         333.151          18.000  
G12                     -8031.977          -0.013          15.000                                                                  
G21                   -283351.943        -756.992          14.000                                                                  
G23                    157297.860        2682.744          18.000                                                                  
G25                   -739528.853       -1922.859          20.000                     -387436.106       -1436.539          17.000  
G31                  -1090504.525       -2835.388          31.000                                                                  
G32                   -425356.765       -1086.110          26.000                     -173004.533        -811.725          21.000  
R 8                                                        23.000  
R 9                                                        17.000  
E 9                   -312449.326        -929.587          25.000                      -94870.567        -693.447          20.000  
E11                    146405.977        2810.124          14.000                      262262.795        2096.740          14.000  
E24                    -59726.363       -3086.991          19.000                     -161131.689       -2305.527          20.000  
E36                    468299.516        1598.332          17.000                                                                  
J 2                    108320.541         254.387          23.000                                                                  
C 3                       389.566          81.798          30.000                                                                                                                                  
C 8                      5238.476        1808.151          29.000                                                                                                                                  
C21                     27708.718          50.039          25.000                                                                                       11525.868          38.525          15.000  
C26                   -619209.726       -2029.788          32.000                                                                                     -203734.567       -1528.732          21.000  
> 2021 12  7  4 25 21.0000000  0 21                     
G10                    185822.261         445.953          34.000                       80794.874         334.224          19.000  
G12                     -8188.575          -0.013          15.000                                                                  
G21                   -287323.851        -754.268          12.000                                                                  
G23                    171389.471        2680.202          20.000                                                                  
G25                   -749626.760       -1919.897          23.000                     -393073.280       -1435.853          19.000  
G31                  -1105408.469       -2836.604          31.000                                                                  
G32                   -431067.441       -1090.873          24.000                     -176186.747        -812.348          21.000  
R 8                                                        28.000  
R 9                                                        18.000  
E 9                   -317337.246        -930.218          24.000                      -97596.109        -694.116          20.000  
E11                    161183.095        2810.577          10.000                      270490.584        2096.825          14.000  
E24                    -75945.643       -3087.847          16.000                     -170178.890       -2305.592          22.000  
E36                    476680.812        1591.735          15.000                                                                  
J 2                    109659.046         254.754          23.000                                                                  
C 2                       360.273          32.446          27.000                                                                                                                                  
C 3                       763.848          70.669          30.000                                                                                                                                  
C 6                       414.911         123.509          25.000                                                                                                                                  
C 8                     14655.474        1808.534          27.000                                                                                                                                  
C 9                       578.832          85.357          26.000                                                                                                                                  
C21                     27973.404          52.901          24.000                                                                                       11671.572          36.391          17.000  
C26                   -629767.618       -2026.055          30.000                                                                                     -209732.864       -1529.150          22.000  
> 2021 12  7  4 25 22.0000000  0 16                     
G10                    188165.504         446.403          35.000                       82100.447         333.368          24.000  
G12                     -8358.799          -0.013          15.000                                                                  
G21                   -291300.868        -759.767          16.000                                                                  
G23                    185478.015        2682.642          17.000                                                                  
G25                   -759724.481       -1921.569          25.000                     -398709.081       -1437.526          21.000  
G31                  -1120305.523       -2835.075          27.000                                                                  
G32                   -436798.764       -1088.880          26.000                     -179367.055        -808.329          22.000  
R 8                                                        27.000  
R 9                                                        20.000  
E 9                   -322227.049        -930.737          25.000                     -100324.798        -694.400          20.000  
E11                    175952.178        2809.886          15.000                      278716.713        2096.339          14.000  
E24                                                                                   -179230.030       -2307.492          18.000  
E36                    485055.012        1591.971          15.000                                                                  
J 2                    110999.164         255.185          24.000                                                                  
C21                     28234.474          50.800          24.000                                                                                       11810.724          36.430          17.000  
C26                   -640329.255       -2030.017          33.000                                                                                     -215731.540       -1528.729          22.000  
> 2021 12  7  4 25 23.0000000  0 17                     
G10                    190508.940         446.436          35.000                       83406.852         333.214          22.000  
G12                     -8546.337          -0.013          12.000                                                                  
G21                   -295289.089           0.014          17.000                                                                  
G23                    199573.710        2682.824          17.000                                                                  
G25                   -769820.338       -1921.868          25.000                     -404343.853       -1435.763          20.000  
G31                  -1135216.142       -2838.582          27.000                                                                  
G32                   -442517.306       -1087.836          25.000                     -182551.124        -811.108          21.000  
R 8                                                        26.000  
R 9                                                        20.000  
E 9                   -327118.508        -931.108          25.000                     -103052.921        -692.987          19.000  
E11                    190716.263        2808.425          14.000                      286943.651        2096.165          14.000  
E24                    -24854.151       -3088.191          18.000                     -188286.258       -2308.096          15.000  
E36                    493424.808        1593.549          13.000                                                                  
J 2                    112335.249         253.375          23.000                                                                  
C 3                       453.919          90.964          30.000                                                                                                                                  
C21                     28496.813          50.401          25.000                                                                                       11949.498          35.715          18.000  
C26                   -650886.585       -2026.643          34.000                                                                                     -221734.366       -1528.482          21.000  
> 2021 12  7  4 25 24.0000000  0 21                     
G10                    192850.899         445.582          34.000                       84713.544         332.567          20.000  
G12                     -8735.600          -0.013          12.000                                                                  
G21                   -299272.503           0.014          13.000                                                                  
G23                    213676.523        2684.613          17.000                                                                  
G25                   -779921.602       -1922.394          27.000                     -409980.991       -1433.617          19.000  
G31                  -1150118.592       -2836.078          31.000                                                                  
G32                   -448235.385       -1088.517          27.000                     -185736.196        -811.969          19.000  
R 8                                                        26.000  
R 9                                                        21.000  
E 9                   -332013.433        -931.799          24.000                     -105780.360        -695.275          20.000  
E11                    205477.172        2809.115          12.000                      295169.579        2096.615          14.000  
E24                    -41077.436       -3087.356          17.000                     -197346.730       -2308.651          14.000  
E36                    501806.759        1595.885          15.000                                                                  
J 2                    113669.821         254.274          25.000                                                                  
C 3                       890.103          71.295          29.000                                                                                                                                  
C 6                       822.112         122.713          24.000                                                                                                                                  
C 8                     14657.167        1808.901          26.000                                                                                                                                  
C 9                       576.287          83.669          26.000                                                                                                                                  
C13                     10623.071        1645.828          24.000                                                                                                                                  
C21                     28755.868          49.576          25.000                                                                                       12090.861          37.060          17.000  
C26                   -661445.390       -2029.443          35.000                                                                                     -227730.542       -1523.720          20.000  
> 2021 12  7  4 25 25.0000000  0 16                     
G10                    195192.648         446.383          35.000                       86019.188         333.346          23.000  
G12                     -8919.602          -0.013          16.000                                                                  
G21                   -303269.745        -761.077          13.000                                                                  
G23                    227777.770        2682.185          17.000                                                                  
G25                   -790020.289       -1920.841          29.000                     -415614.239       -1435.004          25.000  
G31                  -1165022.040       -2834.700          32.000                                                                  
G32                   -453952.201       -1087.782          29.000                     -188914.975        -810.158          17.000  
R 8                                                        23.000  
R 9                                                        19.000  
E 9                   -336910.094        -931.901          26.000                     -108510.496        -694.537          19.000  
E11                    220237.189        2808.264          15.000                      303393.407        2095.532          13.000  
E24                    -57308.955       -3090.692          20.000                     -206399.276       -2306.180          11.000  
E36                    510197.700        1597.577          15.000                                                                  
J 2                    115001.761         254.889          29.000                                                                  
C21                     29019.620          48.435          24.000                                                                                       12231.615          34.061          15.000  
C26                   -672011.312       -2028.484          35.000                                                                                     -233730.721       -1528.605          19.000  
> 2021 12  7  4 25 26.0000000  0 16                     
G10                    197537.079         446.208          34.000                       87331.992         333.407          24.000  
G12                     -9107.120          -0.013          13.000                                                                  
G21                   -307266.860        -760.551          16.000                                                                  
G23                    241870.696        2681.562          17.000                                                                  
G25                   -800119.003       -1920.864          29.000                     -421246.037       -1434.563          25.000  
G31                  -1179922.153       -2834.472          32.000                                                                  
G32                   -459667.234       -1088.314          26.000                     -192100.562        -811.733          18.000  
R 8                                                        27.000  
R 9                                                        17.000  
E 9                   -341807.648        -932.162          25.000                     -111241.935        -696.620          21.000  
E11                    234991.671        2807.400          16.000                      311616.009        2094.611          12.000  
E24                    -73552.723       -3090.468          21.000                     -215453.985       -2307.930          17.000  
E36                    518598.559        1599.583          15.000                                                                  
J 2                    116334.677         253.302          28.000                                                                  
C21                     29270.510          48.808          25.000                                                                                       12362.232          34.799          16.000  
C26                   -682579.033       -2028.927          34.000                                                                                     -239727.666       -1525.979          21.000  
> 2021 12  7  4 25 27.0000000  0 19                     
G10                    199882.912         447.488          35.000                       88640.790         334.968          23.000  
G12                     -9302.704          -0.013          13.000                                                                  
G21                   -311266.498        -761.229          16.000                                                                  
G23                    255969.399        2683.736          16.000                                                                  
G25                   -810216.693       -1921.917          28.000                     -426878.136       -1433.772          25.000  
G31                  -1194825.062       -2836.024          33.000                                                                  
G32                   -465375.023       -1085.859          25.000                     -195286.542        -810.664          18.000  
R 8                                                        26.000  
R 9                                                        17.000  
E 9                   -346707.626        -932.657          27.000                     -113974.582        -696.134          20.000  
E11                    249742.616        2806.533          17.000                      319838.046        2093.848          11.000  
E24                    -89795.747       -3091.485          20.000                     -224508.572       -2306.960          16.000  
E36                    527003.747        1599.895          15.000                                                                  
J 2                    117656.637         251.384          27.000                                                                  
C 3                       642.599          51.148          28.000                                                                                                                                  
C 6                       405.749         121.241          22.000                                                                                                                                  
C 9                       565.383          86.823          28.000                                                                                                                                  
C21                     29530.389          50.369          22.000                                                                                       12498.816          37.524          16.000  
C26                   -693144.519       -2029.471          34.000                                                                                     -245730.881       -1529.938          18.000  
> 2021 12  7  4 25 28.0000000  0 18                     
G10                    202228.165         445.427          35.000                       89949.010         333.598          23.000  
G12                     -9499.883          -0.013          11.000                                                                  
G21                   -315267.516           0.014          16.000                                                                  
G23                    270070.646        2683.666          14.000                                                                  
G25                   -820314.156       -1921.567          28.000                     -432509.747       -1435.062          25.000  
G31                  -1209730.366       -2835.804          33.000                                                                  
G32                   -471084.632       -1086.184          24.000                     -198466.943        -809.552          18.000  
R 9                                                        17.000  
E 9                   -351610.109        -932.882          27.000                     -116708.506        -696.102          21.000  
E11                    264489.450        2805.233          17.000                      328059.136        2095.372          10.000  
E24                   -106042.904       -3090.962          18.000                     -233572.603       -2310.022          15.000  
E36                    535410.959        1600.207          16.000                                                                  
J 2                    118972.984         251.854          28.000                                                                  
C 3                       979.523          85.466          29.000                                                                                                                                  
C 6                      1035.589         120.999          24.000                                                                                                                                  
C 9                      1004.220          81.124          28.000                                                                                                                                  
C21                     29794.782          50.761          24.000                                                                                       12652.281          41.256          16.000  
C26                   -703709.956       -2028.562          33.000                                                                                     -251733.336       -1529.997          19.000  
> 2021 12  7  4 25 29.0000000  0 18                     
G10                    204576.139         446.994          33.000                       91257.900         333.577          22.000  
G12                     -9697.181          -0.013          12.000                                                                  
G21                   -319266.906           0.014          15.000                                                                  
G23                    284166.716          -0.008          14.000                                                                  
G25                   -830415.961       -1924.047          30.000                     -438141.371       -1434.704          24.000  
G31                  -1224631.247       -2837.092          32.000                                                                  
G32                   -476798.300       -1088.414          27.000                     -201648.471        -810.661          18.000  
R 9                                                        18.000  
E 9                   -356514.549        -933.426          27.000                     -119443.416        -697.195          22.000  
E11                    279230.061        2804.083          18.000                      336279.488        2094.343          12.000  
E24                   -122289.112       -3089.537          18.000                     -242634.929       -2308.026          16.000  
E36                    543822.077        1600.857          18.000                                                                  
J 2                    120293.704         251.563          28.000                                                                  
C 3                      1360.004          74.861          29.000                                                                                                                                  
C 6                      1659.205         119.685          24.000                                                                                                                                  
C 9                      1424.482          82.121          27.000                                                                                                                                  
C21                     30059.273          49.391          23.000                                                                                       12807.927          40.359          17.000  
C26                   -714277.003       -2029.185          33.000                                                                                     -257734.785       -1528.515          19.000  
> 2021 12  7  4 25 30.0000000  0 19                     
G10                    206921.574         445.864          33.000                       92567.517         333.977          24.000  
G12                     -9894.996          -0.013          12.000                                                                  
G21                   -323276.852           0.014          17.000                                                                  
G23                    298263.404          -0.008          15.000                                                                  
G25                   -840518.623       -1922.049          28.000                     -443771.776       -1435.483          25.000  
G31                  -1239540.715       -2834.152          31.000                                                                  
G32                   -482515.725       -1088.596          29.000                     -204833.267        -813.645          17.000  
R 9                                                        17.000  
E 9                   -361420.943        -933.795          28.000                     -122179.039        -697.247          22.000  
E11                    293962.082        2802.731          15.000                      344500.369        2095.798          12.000  
E24                   -138526.928       -3090.722          18.000                     -251692.896       -2307.691          16.000  
E36                    552234.385        1600.845          19.000                                                                  
J 2                    121613.134         249.444          25.000                                                                  
C 3                      1731.520          57.298          29.000                                                                                                                                  
C 6                      2280.552         119.090          22.000                                                                                                                                  
C 8                     16630.254        1804.380          19.000                                                                                                                                  
C 9                      1844.123          81.555          29.000                                                                                                                                  
C21                     30320.466          51.125          19.000                                                                                       12964.873          39.930          17.000  
C26                   -724842.242       -2029.603          35.000                                                                                     -263734.702       -1528.699          19.000  
> 2021 12  7  4 25 31.0000000  0 15                     
G10                    209269.635         446.827          26.000                       93871.608         331.932          17.000  
G12                    -10087.812          -0.013          15.000                                                                  
G21                   -327282.321        -761.296          18.000                                                                  
G23                    312363.881          -0.008          14.000                                                                  
G25                   -850616.472       -1922.723          36.000                     -449403.388       -1434.440          24.000  
G31                  -1254442.695       -2836.408          26.000                                                                  
G32                   -488244.446       -1090.570          24.000                     -208023.638        -811.524          20.000  
R 9                                                        17.000  
E 9                   -366327.075        -933.700          24.000                     -124913.740        -697.744          20.000  
E11                    308683.963        2800.827          18.000                      352723.776        2095.357          12.000  
E24                   -154768.734       -3092.237          16.000                     -260746.714       -2306.009          16.000  
E36                    560647.227        1599.672          21.000                                                                  
J 2                    122925.344         249.169          33.000                                                                  
C21                     30575.685          50.280          25.000                                                                                       13119.543          39.371          17.000  
C26                   -735413.933       -2030.838          30.000                                                                                     -269735.932       -1529.021          15.000  
> 2021 12  7  4 25 32.0000000  0 15                     
G10                    211617.167         447.165          28.000                       95173.407         333.457          17.000  
G12                    -10256.132          -0.013          17.000                                                                  
G21                   -331277.456        -758.498          19.000                                                                  
G23                    326465.027          -0.008          14.000                                                                  
G25                   -860715.473       -1923.547          28.000                     -455036.074       -1434.385          19.000  
G31                  -1269347.354       -2835.529          22.000                                                                  
G32                   -493968.034       -1087.556          24.000                     -211227.630        -817.329          18.000  
R 9                                                        14.000  
E 9                   -371239.931        -935.863          19.000                     -127656.132        -697.568          15.000  
E11                    323414.406        2803.663          20.000                      360941.733        2094.089          14.000  
E24                   -171021.642       -3091.588          19.000                     -269797.879       -2305.417          15.000  
E36                    569051.912        1599.020          20.000                                                                  
J 2                    124238.047         246.062          27.000                                                                  
C21                     30849.341          50.115          23.000                                                                                       13273.052          38.984          17.000  
C26                   -745967.865       -2027.068          25.000                                                                                     -275733.674       -1527.074          16.000  
> 2021 12  7  4 25 33.0000000  0 16                     
G10                    213968.484         447.928          28.000                       96481.170         332.236          21.000  
G12                    -10417.198          -0.013          15.000                                                                  
G21                   -335257.814        -758.573          17.000                                                                  
G23                    340570.310          -0.008          16.000                                                                  
G25                   -870815.238       -1921.983          30.000                     -460667.678       -1435.110          20.000  
G31                  -1284251.606       -2837.266          25.000                                                                  
G32                   -499687.703       -1088.527          21.000                     -214428.514        -813.924          18.000  
R 9                                                        13.000  
E 9                   -376155.462        -934.890          24.000                     -130396.936        -698.534          15.000  
E11                    338160.173        2809.644          16.000                      369156.894        2093.147          14.000  
E24                   -187262.009       -3088.641          15.000                     -278849.118       -2304.920          16.000  
E36                    577462.159        1599.624          16.000                                                                  
J 2                    125543.627         250.905          32.000                                                                  
C 6                       406.746         116.537          25.000                                                                                                                                  
C21                     31106.631          48.459          27.000                                                                                       13419.999          37.449          15.000  
C26                   -756526.708       -2027.987          26.000                                                                                     -281729.345       -1528.300          19.000  
> 2021 12  7  4 25 34.0000000  0 16                     
G10                    216308.612         446.498          25.000                       97793.365         336.172          19.000  
G12                    -10581.687          -0.013          13.000                                                                  
G21                   -339237.814        -756.311          16.000                                                                  
G23                    354670.761          -0.008          13.000                                                                  
G25                   -880909.456       -1921.428          28.000                     -466292.752       -1432.102          18.000  
G31                  -1299158.900       -2836.261          23.000                                                                  
G32                   -505410.999       -1089.188          18.000                     -217618.873        -811.536          16.000  
R 9                                                        15.000  
E 9                   -381065.689        -933.072          20.000                     -133134.186        -696.682          14.000  
E11                    352893.981        2800.223          17.000                      377372.050        2094.328          13.000  
E24                   -203482.408       -3087.187          16.000                     -287897.605       -2306.639          14.000  
E36                    585865.145        1598.771          18.000                                                                  
J 2                    126856.401         249.606          31.000                                                                  
C 6                      1017.909         117.176          22.000                                                                                                                                  
C21                     31358.910          47.757          24.000                                                                                       13572.025          39.857          15.000  
C26                   -767091.931       -2030.903          25.000                                                                                     -287731.427       -1528.633          22.000  
> 2021 12  7  4 25 35.0000000  0 17                     
G10                    218658.447         448.088          28.000                       99107.700         336.625          17.000  
G12                    -10743.728          -0.013          10.000                                                                  
G21                   -343207.746        -754.634          16.000                                                                  
G23                    368774.977          -0.008          12.000                                                                  
G25                   -891005.825       -1923.506          29.000                     -471919.295       -1432.783          17.000  
G31                  -1314069.725       -2837.515          18.000                                                                  
G32                   -511134.871       -1088.872          24.000                     -220804.953        -810.443          14.000  
R 9                                                        16.000  
E 9                   -385973.475        -935.014          23.000                     -135874.702        -699.065          16.000  
E11                    367604.150        2800.152          16.000                      385589.369        2093.570          15.000  
E24                   -219726.120       -3093.558          18.000                     -296947.460       -2306.271          19.000  
E36                    594259.343        1598.308          18.000                                                                  
J 2                    128168.510         249.536          30.000                                                                  
C 6                      1634.114         118.893          23.000                                                                                                                                  
C 8                     10593.225        1803.526          22.000                                                                                                                                  
C21                     31610.313          47.790          19.000                                                                                       13715.181          36.179          16.000  
C26                   -777657.269       -2027.841          23.000                                                                                     -293735.671       -1528.905          17.000  
> 2021 12  7  4 25 36.0000000  0 19                     
G10                    221010.374         447.163          29.000                      100429.666         335.914          17.000  
G12                    -10910.319          -0.013          12.000                                                                  
G21                   -347177.735        -755.611          14.000                                                                  
G23                    382880.750          -0.008          12.000                                                                  
G25                   -901105.945       -1921.050          30.000                     -477542.065       -1432.127          17.000  
G31                  -1328973.612       -2835.811          23.000                                                                  
G32                   -516861.392       -1089.991          25.000                     -223985.013        -808.231          15.000  
R 9                                                        17.000  
E 9                   -390889.289        -935.394          20.000                     -138619.669        -700.277          17.000  
E11                    382317.641        2799.817          12.000                      393803.416        2092.797          17.000  
E24                   -235981.125       -3091.560          17.000                     -306003.388       -2308.110          20.000  
E36                    602656.222        1597.911          24.000                                                                  
J 2                    129478.051         249.253          30.000                                                                  
C 6                      2244.811         116.662          22.000                                                                                                                                  
C 8                     19990.950        1804.977          24.000                                                                                                                                  
C 9                      1516.242          80.713          20.000                                                                                                                                  
C13                     19896.022        1640.124          23.000                                                                                                                                  
C21                     31868.576          49.678          20.000                                                                                       13857.769          36.615          12.000  
C26                   -788216.940       -2027.947          24.000                                                                                     -299736.701       -1529.708          17.000  
> 2021 12  7  4 25 37.0000000  0 15                     
G10                    223362.001         447.198          30.000                      101745.786         335.690          17.000  
G12                    -11083.727          -0.013          12.000                                                                  
G21                   -351142.383           0.014          14.000                                                                  
G23                    396981.202          -0.008          14.000                                                                  
G25                   -911201.401       -1920.252          31.000                     -483168.126       -1435.138          21.000  
G31                  -1343875.269       -2835.891          26.000                                                                  
G32                   -522581.667       -1088.872          20.000                     -227169.242        -811.373          19.000  
R 9                                                        17.000  
E 9                   -395811.577        -937.495          19.000                     -141363.777        -699.251          18.000  
E11                    397024.663        2797.619          13.000                      402011.837        2092.154          17.000  
E24                   -252213.751       -3089.058          18.000                     -315069.921       -2309.408          18.000  
E36                    611051.879        1599.212          19.000                        3398.977        1196.655          17.000  
J 2                    130782.214         248.410          34.000                                                                  
C21                     32126.384          48.793          27.000                                                                                       13998.899          35.266          17.000  
C26                   -798781.186       -2030.037          28.000                                                                                     -305747.046       -1529.188          22.000  
> 2021 12  7  4 25 38.0000000  0 16                     
G10                    225711.261         448.492          35.000                      103063.053         336.103          21.000  
G12                    -11237.129          -0.013          13.000                                                                  
G21                   -355115.413           0.014          16.000                                                                  
G23                    411072.372          -0.008          14.000                                                                  
G25                   -921291.255       -1920.266          35.000                     -488797.239       -1432.954          23.000  
G31                  -1358786.466       -2838.520          34.000                                                                  
G32                   -528308.935       -1090.138          23.000                     -230354.718        -812.752          19.000  
R 8                                                        25.000  
R 9                                                        16.000  
E 9                   -400736.124        -936.920          21.000                     -144110.812        -699.975          18.000  
E11                    411728.342        2797.871          11.000                      410220.839        2092.301          14.000  
E24                   -268467.295       -3094.880          18.000                     -324135.171       -2309.130          17.000  
E36                    619454.947        1598.226          18.000                        8086.104        1192.705          25.000  
J 2                    132084.642         247.998          35.000                                                                  
C21                     32381.013          48.249          29.000                                                                                       14137.546          38.251          17.000  
C26                   -809353.145       -2028.603          33.000                                                                                     -311743.085       -1526.080          21.000  
> 2021 12  7  4 25 39.0000000  0 18                     
G10                    228067.465         448.717          36.000                      104375.214         334.584          27.000  
G12                    -11377.643          -0.013          14.000                                                                  
G21                   -359103.071           0.014          19.000                                                                  
G23                    425154.970          -0.008          15.000                                                                  
G25                   -931387.877       -1920.649          33.000                     -494426.012       -1433.813          29.000  
G31                  -1373689.847       -2838.297          25.000                                                                  
G32                   -534045.749       -1092.419          29.000                     -233555.730        -813.107          20.000  
R 8                                                        23.000  
R 9                                                        17.000  
E 9                   -405661.533        -938.090          23.000                     -146853.418        -696.901          19.000  
E11                    426436.683        2798.751          13.000                      418428.478        2091.870          14.000  
E24                   -284743.303       -3099.339          20.000                     -333195.332       -2309.461          13.000  
E36                    627858.517        1599.458          21.000                       12762.191        1192.472          18.000  
J 2                    133384.234         247.176          36.000                                                                  
C 6                       405.994         114.819          24.000                                                                                                                                  
C 9                       273.654          77.608          29.000                                                                                                                                  
C21                     32630.907          47.509          29.000                                                                                       14280.280          36.735          20.000  
C26                   -819919.448       -2028.731          31.000                                                                                     -317743.125       -1527.534          17.000  
> 2021 12  7  4 25 40.0000000  0 19                     
G10                    230422.884         447.949          34.000                      105684.266         336.844          24.000  
G12                    -11512.406          -0.013          14.000                                                                  
G21                   -363097.457        -759.537          17.000                                                                  
G23                    439229.559          -0.008          14.000                                                                  
G25                   -941479.176       -1918.022          32.000                     -500053.347       -1433.588          25.000  
G31                  -1388608.027       -2839.463          30.000                                                                  
G32                   -539785.640       -1091.460          30.000                     -236758.539        -817.380          19.000  
R 8                                                        23.000  
R 9                                                        21.000  
E 9                   -410588.859        -937.167          22.000                     -149591.056        -694.640          20.000  
E11                    441143.026        2798.511          16.000                      426637.763        2091.334          13.000  
E24                   -301005.150       -3093.556          20.000                     -342257.026       -2308.124          15.000  
E36                    636255.812        1597.672          19.000                       17437.125        1191.968          17.000  
J 2                    134684.902         248.189          32.000                                                                  
C 6                      1002.818         114.541          23.000                                                                                                                                  
C 9                       673.225          75.249          25.000                                                                                                                                  
C13                      8123.864        1643.088          20.000                                                                                                                                  
C21                     32873.701          47.587          26.000                                                                                       14426.412          34.208          20.000  
C26                   -830480.627       -2027.439          32.000                                                                                     -323736.442       -1526.216          17.000  
> 2021 12  7  4 25 41.0000000  0 16                     
G10                    232783.016         449.235          34.000                      107000.732         336.352          22.000  
G12                    -11642.537          -0.013          13.000                                                                  
G21                   -367087.937        -761.358          16.000                                                                  
G23                    453303.459          -0.008          14.000                                                                  
G25                   -951566.564       -1920.628          30.000                     -505680.548       -1432.759          27.000  
G31                  -1403514.568       -2835.766          32.000                                                                  
G32                   -545512.862       -1090.839          26.000                     -239966.317        -817.038          17.000  
R 8                                                        19.000  
R 9                                                        23.000  
E 9                   -415516.331        -937.874          21.000                     -152322.711        -694.715          19.000  
E11                    455852.973        2799.864          19.000                      434841.704        2090.187          11.000  
E24                   -317264.280       -3095.358          22.000                     -351317.304       -2308.801          13.000  
E36                    644644.972        1597.793          22.000                       22114.963        1193.471          15.000  
J 2                    135984.067         246.852          30.000                                                                  
C21                     33110.416          45.523          23.000                                                                                       14570.677          36.340          19.000  
C26                   -841042.138       -2028.071          33.000                                                                                     -329732.221       -1528.192          14.000  
> 2021 12  7  4 25 42.0000000  0 17                     
G10                    235139.675         448.561          34.000                      108317.613         335.867          24.000  
G12                    -11779.906          -0.013          14.000                                                                  
G21                   -371084.936        -758.817          17.000                                                                  
G23                    467384.406          -0.008          12.000                                                                  
G25                   -961663.087       -1921.226          30.000                     -511306.568       -1433.746          28.000  
G31                  -1418421.451       -2836.965          34.000                                                                  
G32                   -551244.137       -1091.302          30.000                     -243165.199        -815.120          20.000  
R 8                                                        20.000  
R 9                                                        23.000  
E 9                   -420443.293        -937.476          25.000                     -155067.707        -700.100          22.000  
E11                    470565.514        2799.585          19.000                      443042.528        2087.675          12.000  
E24                   -333533.271       -3094.111          21.000                     -360379.266       -2309.830          13.000  
E36                    653035.940        1596.171          19.000                       26800.338        1195.424          13.000  
J 2                    137279.134         243.948          31.000                                                                  
C 3                       338.397          58.077          26.000                                                                                                                                  
C21                     33349.545          46.337          24.000                                                                                       14721.366          37.141          20.000  
C26                   -851605.525       -2030.296          33.000                                                                                     -335731.961       -1531.524          14.000  
> 2021 12  7  4 25 43.0000000  0 19                     
G10                    237505.163         451.314          35.000                      109636.528         336.092          24.000  
G12                    -11918.710          -0.013          14.000                                                                  
G21                   -375066.972        -757.405          17.000                                                                  
G23                    481466.647          -0.008          14.000                                                                  
G25                   -971744.079       -1917.357          30.000                     -516931.310       -1433.950          27.000  
G31                  -1433324.803       -2835.942          32.000                                                                  
G32                   -556972.667       -1087.807          28.000                     -246363.979        -816.519          21.000  
R 8                                                        21.000  
R 9                                                        22.000  
E 9                   -425369.885        -937.275          25.000                     -157815.803        -701.055          21.000  
E11                    485277.758        2800.226          18.000                      451239.004        2088.742          13.000  
E24                   -349795.806       -3094.323          19.000                     -369448.829       -2312.501          13.000  
E36                    661428.223        1595.845          16.000                       31488.209        1194.923          13.000  
J 2                    138585.011         247.342          31.000                                                                  
C 3                       610.991          47.860          27.000                                                                                                                                  
C 9                       522.073          77.339          24.000                                                                                                                                  
C13                      5122.874        1642.427          27.000                                                                                                                                  
C21                     33597.820          49.544          24.000                                                                                       14865.573          37.404          20.000  
C26                   -862164.810       -2028.594          32.000                                                                                     -341737.425       -1532.689          14.000  
> 2021 12  7  4 25 44.0000000  0 16                     
G10                    239872.308         449.340          34.000                      110956.368         334.995          23.000  
G12                    -12047.960          -0.013          15.000                                                                  
G21                   -379046.271        -757.132          19.000                                                                  
G23                    495562.368          -0.008          17.000                                                                  
G25                   -981831.095       -1918.406          32.000                     -522553.157       -1433.123          27.000  
G31                  -1448227.906       -2835.023          28.000                                                                  
G32                   -562704.826       -1091.164          29.000                     -249555.371        -814.063          19.000  
R 8                                                        27.000  
R 9                                                        18.000  
E 9                   -430296.699        -937.559          25.000                     -160562.337        -700.196          21.000  
E11                    499993.373        2800.214          18.000                      459435.176        2086.409          11.000  
E24                   -366060.746       -3095.647          19.000                     -378530.690       -2313.656          13.000  
E36                    669804.123        1593.030          18.000                       36171.680        1191.252          14.000  
J 2                    139883.924         247.670          32.000                                                                  
C21                     33855.081          48.098          27.000                                                                                       15012.411          37.343          20.000  
C26                   -872723.685       -2028.133          31.000                                                                                     -347759.140       -1535.638          13.000  
> 2021 12  7  4 25 45.0000000  0 16                     
G10                    242241.895         452.678          33.000                      112285.278         340.720          20.000  
G12                    -12182.842         -26.577          16.000                                                                  
G21                   -383026.196        -757.331          20.000                                                                  
G23                    509653.247        2682.458          17.000                                                                  
G25                   -991914.861       -1919.913          28.000                     -528173.890       -1432.049          26.000  
G31                  -1463126.462       -2834.919          31.000                                                                  
G32                   -568439.689       -1092.458          24.000                     -252755.344        -817.394          17.000  
R 8                                                        24.000  
R 9                                                        22.000  
E 9                   -435221.065        -936.714          20.000                     -163305.590        -698.421          19.000  
E11                    514711.419        2799.973          17.000                      467621.458        2083.864          11.000  
E24                   -382330.302       -3095.013          19.000                                                                  
E36                    678189.165        1596.042          20.000                       40855.160        1192.747          17.000  
J 2                    141184.829         249.992          29.000                                                                  
C21                     34118.846          52.169          28.000                                                                                       15158.323          37.372          17.000  
C26                   -883280.027       -2027.157          23.000                                                                                     -353776.762       -1532.755          17.000  
> 2021 12  7  4 25 46.0000000  0 20                     
G10                    244615.291         451.173          30.000                      113603.659         334.346          19.000  
G12                    -12328.163         -28.139          15.000                                                                  
G21                   -387010.418        -757.887          17.000                                                                  
G23                    523750.666        2683.631          17.000                                                                  
G25                  -1001990.888       -1916.080          32.000                     -533794.611       -1429.806          22.000  
G31                  -1478026.038       -2834.526          19.000                                                                  
G32                   -574176.783       -1091.652          28.000                     -255963.043        -816.674          15.000  
R 8                                                        24.000  
R 9                                                        25.000  
E 9                   -440154.261        -938.282          18.000                     -166047.826        -700.458          20.000  
E11                    529414.035        2794.814          14.000                      475799.586        2083.768          11.000  
E24                   -398592.949       -3093.264          19.000                                                                  
E36                    686582.085        1599.158          23.000                       45540.508        1193.530          20.000  
J 2                    142489.554         247.907          28.000                                                                  
C 2                       223.779           8.965          25.000                                                                                                                                  
C 3                       626.335          68.883          25.000                                                                                                                                  
C 8                      5602.449        1802.733          26.000                                                                                                                                  
C13                      5122.047        1644.192          26.000                                                                                                                                  
C21                     34388.143          52.018          28.000                                                                                       15306.111          39.042          15.000  
C26                   -893833.527       -2027.412          30.000                                                                                     -359779.557       -1531.150          17.000  
> 2021 12  7  4 25 47.0000000  0 16                     
G10                    246996.708         452.975          28.000                      114924.136         339.787          17.000  
G12                    -12467.652         -24.537          16.000                                                                  
G21                   -390989.386        -757.588          17.000                                                                  
G23                    537855.153        2683.593          17.000                                                                  
G25                  -1012062.525       -1917.099          32.000                     -539412.141       -1431.129          20.000  
G31                  -1492915.798       -2835.364          28.000                                                                  
G32                   -579908.090       -1090.833          32.000                     -259171.085        -816.739          14.000  
R 8                                                        29.000  
R 9                                                        22.000  
E 9                   -445090.512        -938.707          20.000                     -168797.983        -700.835          17.000  
E11                    544106.316        2796.299          11.000                      483980.536        2085.567          11.000  
E24                   -414861.631       -3098.636          13.000                                                                  
E36                    694993.076        1600.960          27.000                       50231.107        1194.635          24.000  
J 2                    143791.234         247.979          28.000                                                                  
C21                     34652.411          51.157          28.000                                                                                       15463.085          39.365          15.000  
C26                   -904388.483       -2026.574          30.000                                                                                     -365782.561       -1529.141          18.000  
> 2021 12  7  4 25 48.0000000  0 18                     
G10                    249383.123         454.403          35.000                      116262.705         340.823          21.000  
G12                    -12588.396         -22.175          18.000                                                                  
G21                   -394970.854        -757.575          18.000                                                                  
G23                    551961.141        2685.041          18.000                                                                  
G25                  -1022132.596       -1918.696          32.000                     -545025.977       -1430.936          24.000  
G31                  -1507808.543       -2833.912          31.000                                                                  
G32                   -585629.291       -1088.389          28.000                     -262372.357        -816.328          16.000  
R 8                                                        26.000  
R 9                                                        21.000  
E 9                   -450016.880        -937.405          26.000                     -171540.115        -698.157          18.000  
E11                    558798.304        2795.880           9.000                      492167.380        2085.941          10.000  
E24                   -431146.434       -3100.748          18.000                                                                  
E36                    703404.430        1601.441          22.000                       54922.199        1196.568          22.000  
J 2                    145091.441         246.253          30.000                                                                  
C 3                       332.927          62.828          30.000                                                                                                                                  
C13                      6829.431        1641.094          30.000                                                                                                                                  
C21                     34922.325          52.247          32.000                                                                                       15619.466          39.026          19.000  
C26                   -914935.751       -2024.973          30.000                                                                                     -371782.632       -1529.855          18.000  
> 2021 12  7  4 25 49.0000000  0 22                     
G10                    251762.748         453.421          31.000                      117590.915         335.953          21.000  
G12                    -12700.079         -21.329          17.000                                                                  
G21                   -398951.433        -758.058          17.000                                                                  
G23                    566081.372        2688.240          16.000                                                                  
G25                  -1032203.249       -1916.256          32.000                     -550641.154       -1431.994          23.000  
G31                  -1522700.782       -2833.876          29.000                                                                  
G32                   -591350.521       -1090.581          32.000                     -265579.648        -817.453          15.000  
R 8                                                        30.000  
R 9                                                        19.000  
E 9                   -454941.445        -937.677          20.000                     -174282.116        -700.036          17.000  
E11                    573490.979        2796.050          11.000                      500362.565        2088.442          10.000  
E24                   -447435.263       -3098.999          19.000                                                                  
E36                    711817.754        1600.746          21.000                       59613.000        1194.614          22.000  
J 2                    146392.857         247.177          25.000                                                                  
C 2                       483.180          40.133          30.000                                                                                                                                  
C 3                       681.245          71.681          28.000                                                                                                                                  
C 6                       385.588         112.302          22.000                                                                                                                                  
C 8                     14618.007        1806.289          29.000                                                                                                                                  
C 9                       275.520          77.865          24.000                                                                                                                                  
C13                     15381.111        1642.418          32.000                                                                                                                                  
C21                     35196.792          53.087          28.000                                                                                       15774.776          38.556          16.000  
C26                   -925475.826       -2020.729          29.000                                                                                     -377778.078       -1527.862          19.000  
> 2021 12  7  4 25 50.0000000  0 17                     
G10                    254148.059         456.808          32.000                      118925.997         338.315          19.000  
G12                    -12805.137         -19.608          17.000                                                                  
G21                   -402924.810        -754.825          17.000                                                                  
G23                    580207.133        2687.587          17.000                                                                  
G25                  -1042271.099       -1912.729          29.000                     -556253.695       -1430.082          27.000  
G31                  -1537589.915       -2833.929          29.000                                                                  
G32                   -597079.109       -1091.072          29.000                     -268785.949        -817.190          17.000  
R 8                                                        29.000  
R 9                                                        22.000  
R10                                                        25.000  
E 9                   -459866.902        -936.982          26.000                     -177023.927        -698.180          19.000  
E11                    588184.936        2796.529          15.000                      508561.355        2088.484          11.000  
E24                   -463711.481       -3095.270          18.000                                                                  
E36                    720231.895        1601.585          22.000                       64305.022        1194.208          20.000  
J 2                    147696.295         248.735          27.000                       70912.964         185.993          25.000  
C21                     35471.281          54.835          29.000                                                                                       15928.101          38.596          13.000  
C26                   -936004.285       -2022.932          26.000                                                                                     -383767.679       -1526.608          19.000  
