     3.04           OBSERVATION DATA    M: Mixed            RINEX VERSION / TYPE
Higeo_Hi1105        Huawei CBG          20220123 112210 UTC PGM / RUN BY / DATE 
************************************************************COMMENT             
* If you have any problem,                                 *COMMENT             
*     please contact with LBS Technology Group, thanks.    *COMMENT             
*                                                          *COMMENT             
* Version Higeo2RinexV1.1 2020.07.21                       *COMMENT             
* Fuction:  Convert Higeo Log to Rinex file                *COMMENT             
*                                                          *COMMENT             
* Note that the verision support B1C B2A signal            *COMMENT             
*     BDS: C1D L1D D1D S1D indicate BDS B1C                *COMMENT             
*     BDS: C5D L5D D5D S5D indicate BDS B2A                *COMMENT             
*     Reference: RINEX V3.04                               *COMMENT             
*                                                          *COMMENT             
* Copyright(C) Huawei Technologies Co., Ltd. 2019 - 2020   *COMMENT             
*     All rights reserved.                                 *COMMENT             
************************************************************COMMENT             
                                                            MARKER NAME         
                                                            MARKER NUMBER       
                                                            MARKER TYPE         
                                                            OBSERVER / AGENCY   
                                                            REC # / TYPE / VERS 
                                                            ANT # / TYPE        
        0.0000        0.0000        0.0000                  APPROX POSITION XYZ 
        0.0000        0.0000        0.0000                  ANTENNA: DELTA H/E/N
G    8 C1C L1C D1C S1C C5I L5I D5I S5I                      SYS / # / OBS TYPES 
R    4 C1C L1C D1C S1C                                      SYS / # / OBS TYPES 
E    8 C1C L1C D1C S1C C5I L5I D5I S5I                      SYS / # / OBS TYPES 
J    8 C1C L1C D1C S1C C5I L5I D5I S5I                      SYS / # / OBS TYPES 
C   12 C2I L2I D2I S2I C1D L1D D1D S1D C5D L5D D5D S5D      SYS / # / OBS TYPES 
  2021    12     8     2    48   47.0000000     GPS         TIME OF FIRST OBS   
  2021    12     8     3     3   19.0000000     GPS         TIME OF LAST OBS    
G                                                           SYS / PHASE SHIFT   
R                                                           SYS / PHASE SHIFT   
E                                                           SYS / PHASE SHIFT   
J                                                           SYS / PHASE SHIFT   
C                                                           SYS / PHASE SHIFT   
  0                                                         GLONASS SLOT / FRQ #
 C1C    0.000 C1P    0.000 C2C    0.000 C2P    0.000        GLONASS COD/PHS/BIS 
                                                            END OF HEADER       
> 2021 12  8  2 48 47.0000000  0  1                     
G10                     -8686.152       -1780.856          24.000                                                                  
> 2021 12  8  2 48 48.0000000  0  1                     
G10                    -18050.578       -1782.403          29.000                                                                  
> 2021 12  8  2 48 49.0000000  0  1                     
G10                    -27412.983       -1781.623          29.000                                                                  
> 2021 12  8  2 48 50.0000000  0  2                     
G10                    -36774.635       -1782.676          28.000                                                                  
R 8                                                        26.000  
> 2021 12  8  2 48 51.0000000  0  3                     
G10                    -46136.350       -1781.924          26.000                                                                  
G23                      4229.738         269.498          20.000                                                                  
R 8                                                        28.000  
> 2021 12  8  2 48 52.0000000  0  4                     
G10                    -55507.526       -1784.098          26.000                                                                  
G23                      5653.210         274.118          19.000                                                                  
G32                    -32456.008       -1621.899          18.000                                                                  
R 8                                                        28.000  
> 2021 12  8  2 48 53.0000000  0  4                     
G10                    -64875.550       -1780.871          27.000                                                                  
G23                      7091.936         274.612          22.000                                                                  
G32                    -40972.860       -1619.436          18.000                                                                  
R 8                                                        30.000  
> 2021 12  8  2 48 55.0000000  0  4                     
G10                    -74231.405       -1781.981          28.000                                                                  
G23                      8529.166         273.496          20.000                                                                  
G32                    -49504.313       -1627.069          20.000                                                                  
R 8                                                        30.000  
> 2021 12  8  2 48 56.0000000  0  4                     
G10                    -83605.349       -1784.057          23.000                                                                  
G23                      9966.196         272.945          22.000                                                                  
G32                    -58068.695       -1631.545          18.000                                                                  
R 8                                                        25.000  
> 2021 12  8  2 48 57.0000000  0  7                     
G10                    -92979.064       -1784.604          25.000                                                                  
G23                     11391.570         270.179          22.000                                                                  
G32                    -66655.437       -1635.279          17.000                                                                  
R 8                                                        27.000  
R 9                                                        17.000  
C 8                      2592.969        1221.587          27.000                                                                                                                                  
C13                      3734.343        1015.858          24.000                                                                                                                                  
> 2021 12  8  2 48 58.0000000  0  7                     
G10                   -102786.441       -1787.758          29.000                                                                  
G23                     12875.329         270.332          22.000                                                                  
G32                    -75617.153       -1631.787          22.000                                                                  
R 8                                                        24.000  
R 9                                                        18.000  
C 8                      9238.068        1221.342          24.000                                                                                                                                  
C13                      9254.579        1013.760          23.000                                                                                                                                  
> 2021 12  8  2 48 59.0000000  0  7                     
G10                   -112177.446       -1786.703          19.000                                                                  
G23                     14296.306         270.332          20.000                                                                  
G32                    -84188.954       -1631.255          18.000                                                                  
R 8                                                        29.000  
R 9                                                        18.000  
C 8                     15595.798        1220.443          24.000                                                                                                                                  
C13                     14538.991        1016.187          17.000                                                                                                                                  
> 2021 12  8  2 49  0.0000000  0  6                     
G10                   -121569.111       -1789.020          18.000                                                                  
G23                     15717.242         271.618          20.000                                                                  
G32                    -92768.646       -1632.836          16.000                                                                  
R 8                                                        29.000  
R 9                                                        20.000  
C 8                     21961.543        1223.752          25.000                                                                                                                                  
> 2021 12  8  2 49  1.0000000  0 11                     
G10                   -130965.052       -1787.745          23.000                                                                  
G23                     17147.407         272.581          19.000                                                                  
G32                   -101340.752       -1631.273          17.000                                                                  
R 8                                                        29.000  
R 9                                                        20.000  
R24                                                        18.000  
E33                      4318.478        1007.994          22.000                                                                  
C 8                     28328.776        1222.154          24.000                                                                                                                                  
C 9                      1554.476         257.712          23.000                                                                                                                                  
C13                      7246.602        1014.055          21.000                                                                                                                                  
C20                     11575.276        2429.755          22.000                                                                                                                                  
> 2021 12  8  2 49  2.0000000  0 11                     
G10                   -140353.637       -1786.213          28.000                                                                  
G23                     18579.926         272.761          22.000                                                                  
G32                   -109911.293       -1630.803          20.000                                                                  
R 8                                                        28.000  
R 9                                                        19.000  
R24                                                        18.000  
E33                      9617.294        1008.717          22.000                                                                  
C 8                     34686.606        1220.993          24.000                                                                                                                                  
C 9                      2893.580         257.449          25.000                                                                                                                                  
C13                     12530.950        1014.364          22.000                                                                                                                                  
C20                     24229.362        2431.344          20.000                                                                                                                                  
> 2021 12  8  2 49  3.0000000  0 10                     
G10                   -149743.207       -1785.939          31.000                                                                  
G23                     20007.984         272.357          22.000                                                                  
R 8                                                        31.000  
R 9                                                        18.000  
R24                                                        17.000  
E33                     14917.998        1008.597          28.000                                                                  
C 8                     41041.783        1220.205          24.000                                                                                                                                  
C 9                      4236.657         258.843          24.000                                                                                                                                  
C13                     17811.555        1014.160          24.000                                                                                                                                  
C20                     36883.101        2427.932          24.000                                                                                                                                  
> 2021 12  8  2 49  4.0000000  0 13                     
G10                   -159125.819       -1785.373          25.000                       -5991.770       -1334.562          19.000  
G23                     21438.387         273.254          20.000                                                                  
G32                   -127053.481       -1630.191          28.000                                                                  
R 8                                                        30.000  
R 9                                                        18.000  
R24                                                        14.000  
E33                     20218.561        1008.755          20.000                                                                  
C 6                      1048.020         345.140          24.000                                                                                                                                  
C 8                     47388.703        1219.275          22.000                                                                                                                                  
C 9                      5586.796         258.739          26.000                                                                                                                                  
C13                     23086.042        1012.868          21.000                                                                                                                                  
C20                     49523.532        2425.802          25.000                                                                                                                                  
C36                     -7980.854       -1776.923          21.000                                                                                                                                  
> 2021 12  8  2 49  5.0000000  0 14                     
G10                   -168507.157       -1785.015          27.000                      -11225.315       -1330.555          18.000  
G23                     22871.124         270.678          19.000                                                                  
G24                     63979.764        2256.210          14.000                                                                  
G32                   -135617.531       -1631.270          19.000                                                                  
R 8                                                        21.000  
R 9                                                        18.000  
R24                                                        13.000  
E33                     25521.313        1008.733          22.000                                                                  
C 6                      2849.859         347.048          20.000                                                                                                                                  
C 8                     53736.172        1218.971          22.000                                                                                                                                  
C 9                      6938.303         260.389          25.000                                                                                                                                  
C13                     28365.404        1014.730          24.000                                                                                                                                  
C20                     62163.926        2427.736          25.000                                                                                                                                  
C36                    -17246.730       -1780.970          25.000                                                                                                                                  
> 2021 12  8  2 49  6.0000000  0 14                     
G10                   -177888.706       -1787.354          31.000                      -16446.419       -1331.853          19.000  
G23                     24296.112         271.064          22.000                                                                  
G24                     75829.513        2253.666          15.000                                                                  
G32                   -144196.114       -1632.655          19.000                                                                  
R 8                                                        25.000  
R 9                                                        17.000  
R24                                                        13.000  
E33                      4659.837        1008.607          24.000                                                                  
C 6                      4661.358         345.638          21.000                                                                                                                                  
C 8                     60086.847        1219.197          24.000                                                                                                                                  
C 9                      8289.198         257.636          26.000                                                                                                                                  
C13                     33648.395        1013.362          20.000                                                                                                                                  
C20                     74799.453        2426.882          24.000                                                                                                                                  
C36                    -26523.941       -1779.901          26.000                                                                                                                                  
> 2021 12  8  2 49  7.0000000  0 15                     
G10                   -187279.499       -1787.779          32.000                      -21682.107       -1334.279          20.000  
G12                    -42630.599       -2352.783          17.000                                                                  
G23                     25722.004         270.005          23.000                                                                  
G24                     87677.752        2254.393          16.000                                                                  
G32                   -152766.386          -0.006          21.000                                                                  
R 8                                                        26.000  
R 9                                                        16.000  
R24                                                        12.000  
E33                      9960.760        1008.612          25.000                                                                  
C 6                      6455.756         344.379          23.000                                                                                                                                  
C 8                     66429.966        1217.593          24.000                                                                                                                                  
C 9                      9630.842         258.271          26.000                                                                                                                                  
C13                     38917.880        1010.259          17.000                                                                                                                                  
C20                     87436.559        2426.784          24.000                                                                                                                                  
C36                    -35800.746       -1781.383          26.000                                                                                                                                  
> 2021 12  8  2 49  8.0000000  0 16                     
G10                   -196668.760       -1785.450          33.000                      -26917.448       -1332.614          20.000  
G12                    -55005.731       -2355.355          17.000                                                                  
G23                     27149.390         272.639          24.000                                                                  
G24                     99514.655        2253.341          14.000                                                                  
G32                   -161332.974          -0.006          19.000                                                                  
R 8                                                        27.000  
R 9                                                        15.000  
R24                                                        14.000  
E33                     15261.555        1008.684          28.000                                                                  
C 6                      8243.630         342.666          21.000                                                                                                                                  
C 8                     72768.500        1217.006          24.000                                                                                                                                  
C 9                     10974.959         258.010          25.000                                                                                                                                  
C13                     44183.208        1011.996          17.000                                                                                                                                  
C20                    100069.523        2426.177          25.000                                                                                                                                  
C22                     -5334.665       -1206.488          24.000                                                                                                                                  
C36                    -45075.951       -1781.339          25.000                                                                                                                                  
> 2021 12  8  2 49  9.0000000  0 16                     
G10                   -206051.502       -1782.915          33.000                      -32149.513       -1333.686          20.000  
G12                    -67385.156       -2356.536          19.000                                                                  
G23                     28578.788         273.555          24.000                                                                  
G24                    111352.708        2253.643          15.000                                                                  
G32                   -169903.831          -0.006          15.000                                                                  
R 8                                                        25.000  
R 9                                                        19.000  
R24                                                        13.000  
E33                     20563.038        1008.930          27.000                                                                  
C 6                     10026.322         342.429          22.000                                                                                                                                  
C 8                     79106.696        1216.859          22.000                                                                                                                                  
C 9                     12307.206         254.485          25.000                                                                                                                                  
C13                     49455.997        1012.731          18.000                                                                                                                                  
C20                    112711.256        2428.528          25.000                                                                                                                                  
C22                    -11626.242       -1208.912          25.000                                                                                                                                  
C36                    -54351.287       -1781.509          23.000                                                                                                                                  
> 2021 12  8  2 49 10.0000000  0 15                     
G10                   -215442.887       -1789.392          31.000                      -37387.633       -1334.447          18.000  
G12                    -79763.681       -2355.659          17.000                                                                  
G23                     30000.199         268.432          20.000                                                                  
G24                    123194.544        2253.007          17.000                                                                  
G32                   -178481.185          -0.006          17.000                                                                  
R 8                                                        24.000  
R 9                                                        18.000  
R24                                                        13.000  
E33                     25865.662        1009.895          20.000                                                                  
C 8                     85443.962        1217.617          21.000                                                                                                                                  
C 9                     13635.749         255.127          22.000                                                                                                                                  
C13                     54728.823        1012.940          23.000                                                                                                                                  
C20                    125349.328        2425.257          22.000                                                                                                                                  
C22                    -17920.117       -1208.237          24.000                                                                                                                                  
C36                    -63617.790       -1779.679          23.000                                                                                                                                  
> 2021 12  8  2 49 11.0000000  0 15                     
G10                   -224835.597       -1787.335          33.000                      -42622.418       -1332.898          17.000  
G12                    -92142.445       -2354.811          15.000                                                                  
G23                     31414.476         269.849          20.000                                                                  
G24                    135041.094        2254.163          17.000                                                                  
G32                   -187060.970          -0.006          19.000                                                                  
R 8                                                        27.000  
R 9                                                        17.000  
R24                                                        17.000  
E33                     31167.235        1008.420          22.000                                                                  
C 8                     91790.896        1218.862          21.000                                                                                                                                  
C 9                     14969.022         254.041          21.000                                                                                                                                  
C13                     60001.023        1012.376          26.000                                                                                                                                  
C20                    137991.116        2426.365          17.000                                                                                                                                  
C22                    -24217.274       -1210.388          25.000                                                                                                                                  
C36                    -72889.679       -1781.991          25.000                                                                                                                                  
> 2021 12  8  2 49 12.0000000  0 13                     
G10                   -234232.506       -1785.794          32.000                      -47853.406       -1332.160          16.000  
G12                   -104518.734          -0.010          12.000                                                                  
G23                     32839.083         271.396          25.000                                                                  
G24                    146892.249        2257.497          17.000                                                                  
R 8                                                        23.000  
R 9                                                        18.000  
R24                                                        17.000  
E33                     36456.338        1007.299          19.000                                                                  
C 6                      3665.845         341.063          21.000                                                                                                                                  
C 8                     98133.454        1220.077          20.000                                                                                                                                  
C 9                     16293.965         255.133          29.000                                                                                                                                  
C13                     65264.599        1012.712          26.000                                                                                                                                  
C20                    150626.938        2427.229          15.000                                                                                                                                  
> 2021 12  8  2 49 13.0000000  0 14                     
G10                   -243620.465       -1787.295          36.000                      -53081.503       -1330.598          15.000  
G12                   -116894.119          -0.010          13.000                                                                  
G23                     34267.092         272.341          23.000                                                                  
G24                    158742.877        2253.672          19.000                                                                  
R 8                                                        26.000  
R 9                                                        20.000  
R24                                                        17.000  
E33                     41765.368        1009.268          20.000                                                                  
C 6                      5444.944         341.776          21.000                                                                                                                                  
C 8                    104483.721        1219.005          21.000                                                                                                                                  
C 9                     17627.212         255.970          27.000                                                                                                                                  
C13                     70531.466        1009.900          27.000                                                                                                                                  
C20                    163273.254          -0.003          11.000                                                                                                                                  
C22                     -5159.594       -1209.966          33.000                                                                                       -4475.691        -911.346          20.000  
> 2021 12  8  2 49 14.0000000  0 15                     
G10                   -253010.070       -1786.440          34.000                      -58302.668       -1329.702          15.000  
G12                   -129274.071          -0.010          13.000                                                                  
G23                     35696.558         272.514          19.000                                                                  
G24                    170584.809        2252.536          18.000                                                                  
R 8                                                        23.000  
R 9                                                        19.000  
R24                                                        14.000  
E33                     47064.457        1008.673          25.000                                                                  
C 6                      7217.862         340.536          22.000                                                                                                                                  
C 8                    110821.095        1217.236          25.000                                                                                                                                  
C 9                     18954.548         254.742          25.000                                                                                                                                  
C13                     75795.998        1010.771          26.000                                                                                                                                  
C20                    175930.262          -0.003          12.000                                                                                                                                  
C22                    -11454.979       -1208.958          33.000                                                                                       -8042.168        -909.416          20.000  
C36                    -12433.344       -1779.844          25.000                                                                                                                                  
> 2021 12  8  2 49 15.0000000  0 14                     
G10                   -262403.009       -1786.871          35.000                      -63531.612       -1334.806          14.000  
G23                     37123.958         271.774          22.000                                                                  
G24                    182417.968        2252.239          20.000                                                                  
R 8                                                        32.000  
R 9                                                        16.000  
R24                                                        15.000  
E33                     52372.582        1010.065          20.000                                                                  
C 6                      8985.739         337.011          17.000                                                                                                                                  
C 8                    117169.165        1218.913          24.000                                                                                                                                  
C 9                     20284.944         254.190          17.000                                                                                                                                  
C13                     81069.016        1012.185          25.000                                                                                                                                  
C20                    188580.467          -0.003          14.000                                                                                                                                  
C22                    -17744.715       -1206.984          31.000                                                                                      -11616.583        -913.820          19.000  
C36                    -21707.161       -1782.020          19.000                                                                                                                                  
> 2021 12  8  2 49 16.0000000  0 13                     
G10                   -271790.428       -1786.572          33.000                      -68765.025       -1333.679          15.000  
G23                     38559.473         273.359          24.000                                                                  
G24                    194256.857        2252.136          20.000                                                                  
R 8                                                        28.000  
R 9                                                        16.000  
R24                                                        16.000  
E33                     57695.306        1015.137          18.000                                                                  
C 8                    123510.391        1216.210          24.000                                                                                                                                  
C 9                     21616.589         257.488          15.000                                                                                                                                  
C13                     86335.324        1010.319          24.000                                                                                                                                  
C20                    201232.268          -0.003          16.000                                                                                                                                  
C22                    -24039.651       -1210.453          31.000                                                                                      -15196.833        -911.281          17.000  
C36                    -30982.826       -1780.070          17.000                                                                                                                                  
> 2021 12  8  2 49 17.0000000  0 14                     
G10                   -281181.238       -1787.846          30.000                      -73991.826       -1333.259          13.000  
G23                     39996.894         273.299          24.000                                                                  
G24                    206093.462        2252.774          18.000                                                                  
R 8                                                        27.000  
R 9                                                        16.000  
R24                                                        17.000  
E33                     63023.566        1011.285          20.000                                                                  
C 8                    129844.575        1214.789          19.000                                                                                                                                  
C 9                     22951.911         255.375          20.000                                                                                                                                  
C13                     91600.746        1010.760          28.000                                                                                                                                  
C19                     29407.675         971.172          20.000                                                                                                                                  
C20                    213875.662          -0.003          19.000                                                                                                                                  
C22                    -30336.346       -1210.731          28.000                                                                                      -18768.993        -910.444          17.000  
C36                    -40256.117       -1780.667          21.000                                                                                                                                  
> 2021 12  8  2 49 18.0000000  0 15                     
G10                   -290571.157       -1787.152          32.000                                                                  
G23                     41433.363         272.309          24.000                                                                  
G24                    217930.275        2251.996          15.000                                                                  
R 8                                                        25.000  
R 9                                                        15.000  
R24                                                        18.000  
E33                     68333.550        1010.479          24.000                                                                  
C 6                      5251.751         339.389          29.000                                                                                                                                  
C 8                    136156.845        1210.544          17.000                                                                                                                                  
C 9                     24273.533         253.014          25.000                                                                                                                                  
C13                     96855.156        1012.281          27.000                                                                                                                                  
C19                     34455.366         966.584          16.000                                                                                                                                  
C20                    226500.609        2422.510          20.000                                                                                                                                  
C22                    -36632.581       -1208.863          25.000                                                                                      -22339.970        -909.826          19.000  
C36                    -49528.453       -1780.171          26.000                                                                                                                                  
> 2021 12  8  2 49 19.0000000  0 15                     
G10                   -299962.618       -1786.667          31.000                                                                  
G23                     42860.011         272.571          21.000                                                                  
G24                    229759.481        2250.228          15.000                                                                  
R 8                                                        31.000  
R 9                                                        18.000  
R24                                                        17.000  
E33                     73631.857        1009.920          26.000                                                                  
C 6                      7017.423         341.181          27.000                                                                                                                                  
C 8                    142470.721        1214.370          19.000                                                                                                                                  
C 9                     25593.111         253.565          24.000                                                                                                                                  
C13                    102121.876        1011.584          25.000                                                                                                                                  
C19                     39487.259         966.130          15.000                                                                                                                                  
C20                    239118.158        2422.280          19.000                                                                                                                                  
C22                    -42929.933       -1210.818          28.000                                                                                      -25913.528        -910.270          19.000  
C36                    -58793.214       -1777.744          30.000                                                                                                                                  
> 2021 12  8  2 49 20.0000000  0 15                     
G10                   -309351.725       -1784.717          31.000                                                                  
G23                     44293.223         273.812          20.000                                                                  
G24                    241576.536        2248.396          11.000                                                                  
R 8                                                        28.000  
R 9                                                        16.000  
R24                                                        17.000  
E33                     78945.139        1011.387          23.000                                                                  
C 6                      8800.786         344.567          19.000                                                                                                                                  
C 8                    148800.270        1216.401          17.000                                                                                                                                  
C 9                     26915.980         255.041          19.000                                                                                                                                  
C13                    107386.089        1010.999          27.000                                                                                                                                  
C19                     44529.508         968.309          16.000                                                                                                                                  
C20                    251739.305        2423.033          17.000                                                                                                                                  
C22                    -49229.967       -1210.761          28.000                                                                                      -29483.143        -909.828          19.000  
C36                    -68065.090       -1782.684          26.000                                                                                       -9881.564       -1342.991          17.000  
> 2021 12  8  2 49 21.0000000  0 15                     
G10                   -318744.918       -1788.298          33.000                      -94947.957       -1335.051          19.000  
G23                     45715.717         271.911          19.000                                                                  
G24                    253394.673        2247.618          12.000                                                                  
R 8                                                        27.000  
R 9                                                        17.000  
R24                                                        16.000  
E33                     84257.614        1010.709          22.000                        6285.400         757.243          17.000  
C 6                     10585.842         343.608          17.000                                                                                                                                  
C 8                    155128.255        1215.271          20.000                                                                                                                                  
C 9                     28247.500         254.573          19.000                                                                                                                                  
C13                    112648.910        1010.362          25.000                                                                                                                                  
C19                     49574.928         969.543          17.000                                                                                                                                  
C20                    264355.717        2421.492          17.000                                                                                                                                  
C22                    -55536.348       -1211.248          30.000                                                                                      -33056.099        -910.692          17.000  
C36                    -77342.310       -1780.547          24.000                                                                                      -15147.693       -1342.236          17.000  
> 2021 12  8  2 49 22.0000000  0 14                     
G10                   -328135.386       -1787.398          33.000                     -100193.914       -1338.583          19.000  
G23                     47152.805         275.628          18.000                                                                  
R 8                                                        30.000  
R 9                                                        18.000  
R24                                                        14.000  
E33                     89581.036        1014.588          21.000                        9252.531         753.869          16.000  
C 6                     12352.829         339.053          20.000                                                                                                                                  
C 8                    161452.786        1215.108          23.000                                                                                                                                  
C 9                     29579.039         256.091          23.000                                                                                                                                  
C13                    117915.368        1011.438          25.000                                                                                                                                  
C19                     54623.167         969.394          15.000                                                                                                                                  
C20                    276962.530        2420.566          15.000                                                                                                                                  
C22                    -61833.876       -1209.515          29.000                                                                                      -36631.658        -912.487          19.000  
C36                    -86614.710       -1782.636          19.000                                                                                      -20414.236       -1341.338          17.000  
> 2021 12  8  2 49 23.0000000  0 14                     
G10                   -337525.505       -1786.832          34.000                     -105437.297       -1336.572          18.000  
G23                     48600.883         274.142          17.000                                                                  
R 8                                                        29.000  
R 9                                                        17.000  
R24                                                        12.000  
E33                     94902.189        1012.205          22.000                       12212.280         752.293          17.000  
C 6                     14111.652         338.278          23.000                                                                                                                                  
C 8                    167780.321        1215.081          24.000                                                                                                                                  
C 9                     30908.958         253.936          20.000                                                                                                                                  
C13                    123184.647        1010.533          23.000                                                                                                                                  
C19                     59673.371          -0.007          15.000                                                                                                                                  
C20                    289572.526        2421.086          15.000                                                                                                                                  
C22                    -68133.289       -1209.630          33.000                                                                                      -40216.742        -916.505          17.000  
C36                    -95891.834       -1781.634          20.000                                                                                      -25674.106       -1339.733          17.000  
> 2021 12  8  2 49 24.0000000  0 14                     
G10                   -346914.812       -1789.933          34.000                     -110674.739       -1336.283          19.000  
G23                     50039.295         273.755          17.000                                                                  
G24                    288829.875        2248.830          16.000                                                                  
R 8                                                        31.000  
R 9                                                        16.000  
E33                    100223.740        1012.759          21.000                       15161.516         750.055          17.000  
C 6                     15869.204         337.395          21.000                                                                                                                                  
C 8                    174107.015        1215.453          24.000                                                                                                                                  
C 9                     32227.931         253.811          21.000                                                                                                                                  
C13                    128451.909        1011.188          23.000                                                                                                                                  
C19                     64712.154          -0.007          17.000                                                                                                                                  
C20                    302191.139        2424.382          16.000                                                                                                                                  
C22                    -74434.399       -1210.907          30.000                                                                                      -43804.897        -911.434          19.000  
C36                   -105166.416       -1779.758          19.000                                                                                      -30933.233       -1341.841          16.000  
> 2021 12  8  2 49 25.0000000  0 14                     
G10                   -356304.736       -1786.378          22.000                     -115912.319       -1334.090          16.000  
G23                     51492.460         275.648          16.000                                                                  
G24                    300648.689        2249.841          15.000                                                                  
R 8                                                        28.000  
R 9                                                        15.000  
E33                                                                                     18114.649         754.996          14.000  
C 6                     17634.362         340.083          23.000                                                                                                                                  
C 8                    180443.851        1217.103          22.000                                                                                                                                  
C 9                     33549.485         254.845          17.000                                                                                                                                  
C13                    133724.386        1013.462          20.000                                                                                                                                  
C19                     69743.289         966.752          17.000                                                                                                                                  
C20                    314807.601        2421.121          17.000                                                                                                                                  
C22                    -80749.556       -1212.377          18.000                                                                                                                                  
C36                   -114431.713       -1779.761          24.000                                                                                      -36199.822       -1340.294          17.000  
> 2021 12  8  2 49 26.0000000  0 12                     
G10                   -365696.988       -1786.897          23.000                                                                  
G23                     52938.632         274.789          12.000                                                                  
G24                    312471.027        2249.202          15.000                                                                  
R 8                                                        29.000  
C 6                     19403.692         339.471          23.000                                                                                                                                  
C 8                    186783.544        1217.875          22.000                                                                                                                                  
C 9                     34875.237         256.142          17.000                                                                                                                                  
C13                    138998.019        1012.746          19.000                                                                                                                                  
C19                     74781.056         968.261          17.000                                                                                                                                  
C20                    327419.370        2423.247          15.000                                                                                                                                  
C22                    -87068.521           0.006          16.000                                                                                                                                  
C36                   -123697.664       -1778.431          24.000                                                                                      -41460.861       -1342.911          15.000  
> 2021 12  8  2 49 27.0000000  0 13                     
G10                   -375086.510       -1786.090          24.000                                                                  
G23                     54380.265          -0.007          12.000                                                                  
G24                    324293.523          -0.002          15.000                                                                  
R 8                                                        29.000  
R24                                                        15.000  
C 6                     21174.163         339.970          22.000                                                                                                                                  
C 8                    193125.577        1217.587          20.000                                                                                                                                  
C 9                     36205.985         255.159          17.000                                                                                                                                  
C13                    144268.170        1011.696          18.000                                                                                                                                  
C19                     79820.180         967.709          17.000                                                                                                                                  
C20                    340038.769        2424.295          15.000                                                                                                                                  
C22                    -93381.502           0.006          13.000                                                                                                                                  
C36                   -132958.066       -1778.590          26.000                                                                                      -46722.660       -1338.848          16.000  
> 2021 12  8  2 49 28.0000000  0 13                     
G10                   -384472.103       -1785.985          23.000                                                                  
G23                     55817.424          -0.007          14.000                                                                  
G24                    336121.523          -0.002          15.000                                                                  
R 8                                                        26.000  
R24                                                        15.000  
C 6                     22940.661         339.555          20.000                                                                                                                                  
C 8                    199456.126        1215.017          21.000                                                                                                                                  
C 9                     37526.130         251.833          15.000                                                                                                                                  
C13                    149542.635        1013.565          17.000                                                                                                                                  
C19                     84861.688         969.686          17.000                                                                                                                                  
C20                    352654.818        2420.802          17.000                                                                                                                                  
C22                    -99689.764           0.005          14.000                                                                                                                                  
C36                   -142220.395       -1778.079          20.000                                                                                      -51973.110       -1336.696          15.000  
> 2021 12  8  2 49 29.0000000  0 14                     
G10                   -393863.239       -1787.605          24.000                                                                  
G23                     57256.024          -0.007          15.000                                                                  
G24                    347956.627          -0.002          13.000                                                                  
G32                     -8669.102       -1633.094          22.000                                                                  
R 8                                                        25.000  
R24                                                        13.000  
C 6                     24706.918         338.872          21.000                                                                                                                                  
C 8                    205784.015        1215.286          22.000                                                                                                                                  
C 9                     38841.159         252.873          17.000                                                                                                                                  
C13                    154815.852        1012.972          18.000                                                                                                                                  
C19                     89919.694         971.714          16.000                                                                                                                                  
C20                    365266.180        2422.748          18.000                                                                                                                                  
C22                   -105969.761           0.005          17.000                                                                                                                                  
C36                   -151492.566       -1780.821          19.000                                                                                      -57226.263       -1340.287          17.000  
> 2021 12  8  2 49 30.0000000  0 14                     
G10                   -403254.708       -1787.021          25.000                                                                  
G23                     58705.768          -0.007          16.000                                                                  
G24                    359791.222          -0.002          13.000                                                                  
G32                    -17259.107       -1638.068          17.000                                                                  
R 8                                                        29.000  
R24                                                        16.000  
C 6                     26466.826         338.996          22.000                                                                                                                                  
C 8                    212110.339        1215.549          27.000                                                                                                                                  
C 9                     40161.255         252.830          19.000                                                                                                                                  
C13                    160093.389        1013.650          18.000                                                                                                                                  
C19                     94979.122         970.835          15.000                                                                                                                                  
C20                    377871.054        2418.818          17.000                                                                                                                                  
C22                   -112250.509       -1206.912          17.000                                                                                                                                  
C36                   -160753.675       -1777.000          22.000                                                                                      -62483.928       -1338.901          19.000  
> 2021 12  8  2 49 31.0000000  0 14                     
G10                   -412638.420       -1782.718          24.000                                                                  
G23                     60155.864          -0.007          16.000                                                                  
G24                    371629.847          -0.002          17.000                                                                  
G32                    -25856.332       -1635.724          16.000                                                                  
R 8                                                        24.000  
R24                                                        16.000  
C 6                     28233.484         339.395          22.000                                                                                                                                  
C 8                    218449.664        1217.801          24.000                                                                                                                                  
C 9                     41475.245         251.970          17.000                                                                                                                                  
C13                    165371.916        1013.529          20.000                                                                                                                                  
C19                    100037.187         970.904          13.000                                                                                                                                  
C20                    390462.686        2418.608          17.000                                                                                                                                  
C22                   -118539.535       -1208.097          16.000                                                                                                                                  
C36                   -170005.949       -1776.826          22.000                                                                                      -67729.672       -1337.084          18.000  
> 2021 12  8  2 49 32.0000000  0 14                     
G10                   -422008.673       -1784.219          23.000                                                                  
G23                     61614.488         277.767          17.000                                                                  
G24                    383476.893        2255.696          17.000                                                                  
G32                    -34448.972          -0.006          15.000                                                                  
R 8                                                        20.000  
R24                                                        13.000  
C 6                     30002.434         342.909          18.000                                                                                                                                  
C 8                    224795.506        1218.267          23.000                                                                                                                                  
C 9                     42790.455         252.644          16.000                                                                                                                                  
C13                    170644.489        1012.056          20.000                                                                                                                                  
C19                    105086.144         967.394          13.000                                                                                                                                  
C20                    403061.121        2420.921          17.000                                                                                                                                  
C22                   -124830.990       -1208.314          17.000                                                                                                                                  
C36                   -179253.670       -1775.206          25.000                                                                                      -72976.657       -1338.229          19.000  
> 2021 12  8  2 49 33.0000000  0 14                     
G10                   -431393.134       -1787.234          24.000                                                                  
G23                     63081.184         279.712          19.000                        2494.779         201.289          14.000  
G24                    395329.672        2257.359          16.000                                                                  
G32                    -43044.984          -0.006          17.000                                                                  
R 8                                                        28.000  
R24                                                        13.000  
C 6                     31788.216         340.362          15.000                                                                                                                                  
C 8                    231147.540        1222.348          17.000                                                                                                                                  
C 9                     44100.573         251.241          15.000                                                                                                                                  
C13                    175909.723        1013.441          17.000                                                                                                                                  
C19                    110121.253          -0.007          12.000                                                                                                                                  
C20                    415665.648        2421.260          17.000                                                                                                                                  
C22                   -131120.037       -1206.784          17.000                                                                                                                                  
C36                   -188493.884       -1774.956          19.000                                                                                      -78230.571       -1339.550          16.000  
> 2021 12  8  2 49 34.0000000  0 14                     
G10                   -440776.409       -1784.725          27.000                                                                  
G23                     64552.233         279.760          18.000                        3283.303         201.366          15.000  
G24                    407195.232        2258.932          17.000                                                                  
G32                    -51639.231          -0.006          15.000                                                                  
R 8                                                        23.000  
R24                                                        15.000  
C 6                     33556.221         338.127          15.000                                                                                                                                  
C 8                    237503.367        1221.139          17.000                                                                                                                                  
C 9                     45415.181         251.876          13.000                                                                                                                                  
C13                    181183.543        1012.982          18.000                                                                                                                                  
C19                    115174.554          -0.007          13.000                                                                                                                                  
C20                    428278.049        2423.091          15.000                                                                                                                                  
C22                   -137405.890       -1207.267          18.000                                                                                                                                  
C36                   -197738.060       -1775.742          23.000                                                                                      -83482.076       -1336.279          17.000  
> 2021 12  8  2 49 35.0000000  0 14                     
G10                   -450157.851       -1784.146          28.000                                                                  
G23                     66019.026         278.620          17.000                        4074.189         201.935          12.000  
G24                    419065.639        2259.171          14.000                                                                  
G32                    -60232.135          -0.006          14.000                                                                  
R 8                                                        30.000  
R24                                                        15.000  
C 6                     35314.649         338.495          21.000                                                                                                                                  
C 8                    243853.683        1218.295          20.000                                                                                                                                  
C 9                     46733.316         253.787          13.000                                                                                                                                  
C13                    186456.157        1011.633          21.000                                                                                                                                  
C19                    120222.605          -0.007          15.000                                                                                                                                  
C20                    440901.791        2424.792          15.000                                                                                                                                  
C22                   -143694.217       -1210.959          17.000                                                                                                                                  
C36                   -206981.806       -1774.799          24.000                                                                                      -88723.891       -1335.927          17.000  
> 2021 12  8  2 49 36.0000000  0 14                     
G10                   -459541.071       -1787.466          27.000                                                                  
G23                     67481.649         279.115          20.000                                                                  
G24                    430945.329        2260.509          14.000                                                                  
G32                    -68835.488          -0.006          13.000                                                                  
R 8                                                        26.000  
R24                                                        14.000  
C 6                     37077.604         339.017          20.000                                                                                                                                  
C 8                    250199.722        1219.314          20.000                                                                                                                                  
C 9                     48060.953          -0.047          13.000                                                                                                                                  
C13                    191724.746        1012.518          23.000                                                                                                                                  
C19                    125266.266          -0.007          13.000                                                                                                                                  
C20                    453526.437        2423.927          16.000                                                                                                                                  
C22                   -149987.968       -1208.165          17.000                                                                                                                                  
C36                   -216222.835       -1774.927          22.000                                                                                      -93969.772       -1335.915          19.000  
> 2021 12  8  2 49 37.0000000  0 14                     
G10                   -468927.174       -1784.350          27.000                                                                  
G23                     68946.650         277.908          21.000                                                                  
G24                    442820.787          -0.002          15.000                                                                  
G32                    -77439.008          -0.006          17.000                                                                  
R 8                                                        29.000  
R24                                                        14.000  
C 6                     38844.856         338.267          19.000                                                                                                                                  
C 8                    256548.898        1218.821          20.000                                                                                                                                  
C 9                     49386.229          -0.047          14.000                                                                                                                                  
C13                    196995.223        1012.510          20.000                                                                                                                                  
C19                    130317.441          -0.007          13.000                                                                                                                                  
C20                    466151.818        2423.691          17.000                                                                                                                                  
C22                   -156279.756       -1208.420          16.000                                                                                                                                  
C36                   -225465.730       -1775.658          21.000                                                                                      -99210.821       -1335.801          18.000  
> 2021 12  8  2 49 38.0000000  0 14                     
G10                   -478283.568       -1780.979          18.000                                                                  
G23                     70408.412         277.441          18.000                                                                  
G24                    454702.696          -0.002          17.000                                                                  
G32                    -86031.533          -0.006          17.000                                                                  
R 8                                                        23.000  
R24                                                        15.000  
C 6                     40616.473         339.762          17.000                                                                                                                                  
C 8                    262890.697        1216.084          23.000                                                                                                                                  
C 9                     50711.048          -0.047          17.000                                                                                                                                  
C13                    202268.290        1012.312          24.000                                                                                                                                  
C19                    135368.012          -0.007          14.000                                                                                                                                  
C20                    478771.896        2422.874          20.000                                                                                                                                  
C22                   -162566.073       -1208.174          17.000                                                                                                                                  
C36                   -234702.683       -1773.475          24.000                                                                                     -104453.491       -1336.030          17.000  
> 2021 12  8  2 49 39.0000000  0 14                     
G10                   -487661.650       -1785.383          24.000                                                                  
G23                     71872.821         278.669          19.000                                                                  
G24                    466577.508          -0.002          15.000                                                                  
G32                    -94620.202          -0.006          15.000                                                                  
R 8                                                        21.000  
R24                                                        15.000  
C 6                     42387.235         340.070          18.000                                                                                                                                  
C 8                    269234.177        1219.270          23.000                                                                                                                                  
C 9                     52028.723         251.727          16.000                                                                                                                                  
C13                    207541.945        1012.750          21.000                                                                                                                                  
C19                    140419.447          -0.007          12.000                                                                                                                                  
C20                    491392.397        2422.603          18.000                                                                                                                                  
C22                   -168857.070       -1206.595          16.000                                                                                                                                  
C36                   -243940.760       -1774.158          21.000                                                                                     -109694.104       -1335.259          17.000  
> 2021 12  8  2 49 40.0000000  0 14                     
G10                   -497040.874       -1784.895          19.000                                                                  
G23                     73336.352         278.079          17.000                                                                  
G24                    478453.941        2260.771          16.000                                                                  
G32                   -103211.018       -1635.772          17.000                                                                  
R 8                                                        20.000  
R24                                                        15.000  
C 6                     44157.462         341.109          18.000                                                                                                                                  
C 8                    275583.803        1218.543          19.000                                                                                                                                  
C 9                     53345.333         254.795          16.000                                                                                                                                  
C13                    212817.014        1013.218          21.000                                                                                                                                  
C19                    145476.553          -0.007          15.000                                                                                                                                  
C20                    504011.927        2423.267          22.000                                                                                                                                  
C22                   -175142.790       -1207.354          19.000                                                                                                                                  
C36                   -253184.461       -1776.074          23.000                                                                                     -114939.904       -1336.687          17.000  
> 2021 12  8  2 49 41.0000000  0 14                     
G10                   -506429.358       -1785.922          19.000                                                                  
G23                     74797.964         277.750          15.000                                                                  
G24                    490336.860        2260.792          15.000                                                                  
G32                   -111797.638       -1632.471          17.000                                                                  
R 8                                                        18.000  
R24                                                        16.000  
C 6                     45932.677         342.203          17.000                                                                                                                                  
C 8                    281921.190        1218.463          20.000                                                                                                                                  
C 9                     54675.536         255.744          16.000                                                                                                                                  
C13                    218092.460        1012.255          24.000                                                                                                                                  
C19                    150534.634          -0.007          13.000                                                                                                                                  
C20                    516627.034        2420.559          22.000                                                                                                                                  
C22                   -181435.295       -1208.395          17.000                                                                                                                                  
C36                   -262429.679       -1774.442          20.000                                                                                     -120180.273       -1336.629          17.000  
> 2021 12  8  2 49 42.0000000  0 14                     
G10                   -515811.198       -1785.442          18.000                                                                  
G23                     76251.842          -0.007          14.000                                                                  
G24                    502220.170        2261.738          17.000                                                                  
G32                   -120375.220       -1631.957          18.000                                                                  
R 8                                                        19.000  
R24                                                        16.000  
C 6                     47711.272         341.938          19.000                                                                                                                                  
C 8                    288260.134        1216.255          19.000                                                                                                                                  
C 9                     56009.114         255.908          18.000                                                                                                                                  
C13                    223367.050        1014.191          20.000                                                                                                                                  
C19                    155599.955          -0.007          14.000                                                                                                                                  
C20                    529227.966        2418.211          24.000                                                                                                                                  
C22                   -187720.067       -1207.418          17.000                                                                                                                                  
C36                   -271672.401       -1775.247          19.000                                                                                     -125425.534       -1337.391          16.000  
> 2021 12  8  2 49 43.0000000  0 14                     
G10                   -525187.236       -1783.025          20.000                                                                  
G23                     77713.775          -0.007          16.000                                                                  
G24                    514109.761        2262.906          18.000                                                                  
G32                   -128959.381          -0.006          19.000                                                                  
R 8                                                        17.000  
R24                                                        16.000  
C 6                     49487.296         340.207          19.000                                                                                                                                  
C 8                    294597.479        1215.181          20.000                                                                                                                                  
C 9                     57340.964         257.079          17.000                                                                                                                                  
C13                    228646.994        1013.734          23.000                                                                                                                                  
C19                    160662.416          -0.007          13.000                                                                                                                                  
C20                    541821.230        2417.698          25.000                                                                                                                                  
C22                   -194007.733       -1208.592          17.000                                                                                                                                  
C36                   -280908.059       -1772.861          17.000                                                                                     -130677.414       -1340.490          14.000  
> 2021 12  8  2 49 44.0000000  0 15                     
G10                   -534557.512       -1782.669          21.000                                                                  
G23                     79173.612         276.382          15.000                                                                  
G24                    526003.111        2262.250          17.000                                                                  
G32                   -137552.453          -0.006          19.000                                                                  
R 8                                                        17.000  
R22                                                        16.000  
R24                                                        17.000  
C 6                     51262.107         340.962          19.000                                                                                                                                  
C 8                    300939.878        1220.702          20.000                                                                                                                                  
C 9                     58675.669         254.885          18.000                                                                                                                                  
C13                    233928.141        1014.366          24.000                                                                                                                                  
C19                    165716.189          -0.007          15.000                                                                                                                                  
C20                    554408.672        2416.873          20.000                                                                                                                                  
C22                   -200308.683       -1209.515          17.000                                                                                                                                  
C36                   -290129.423       -1770.312          16.000                                                                                     -135932.032       -1337.344          14.000  
> 2021 12  8  2 49 45.0000000  0 15                     
G10                   -543918.545       -1781.704          19.000                                                                  
G23                     80629.534         276.482          16.000                                                                  
G24                    537895.863        2263.114          17.000                                                                  
G32                   -146156.113       -1637.994          19.000                                                                  
R 8                                                        18.000  
R22                                                        16.000  
R24                                                        17.000  
C 6                     53033.591         340.478          19.000                                                                                                                                  
C 8                    307291.826        1219.466          20.000                                                                                                                                  
C 9                     60003.451         254.523          19.000                                                                                                                                  
C13                    239208.329        1012.516          27.000                                                                                                                                  
C19                    170773.891          -0.007          16.000                                                                                                                                  
C20                    566989.967        2414.449          18.000                                                                                                                                  
C22                   -206601.466       -1207.741          18.000                                                                                                                                  
C36                   -299354.817       -1773.551          17.000                                                                                     -141180.904       -1338.483          11.000  
> 2021 12  8  2 49 46.0000000  0 15                     
G10                   -553281.052       -1782.312          22.000                       -9019.291       -1330.375          17.000  
G23                     82088.416         277.607          15.000                                                                  
G24                    549789.779        2263.162          17.000                                                                  
G32                   -154753.453       -1635.728          18.000                                                                  
R 8                                                        18.000  
R22                                                        17.000  
R24                                                        15.000  
C 6                     54809.426         339.677          19.000                                                                                                                                  
C 8                    313647.098        1220.072          20.000                                                                                                                                  
C 9                     61325.362         254.404          19.000                                                                                                                                  
C13                    244482.504        1012.283          24.000                                                                                                                                  
C19                    175841.442         972.682          14.000                                                                                                                                  
C20                    579568.747        2415.716          15.000                                                                                                                                  
C22                   -212893.937       -1210.980          16.000                                                                                                                                  
C36                   -308587.850       -1771.168          16.000                                                                                     -146437.633       -1339.305          12.000  
> 2021 12  8  2 49 47.0000000  0 15                     
G10                   -562647.671       -1782.918          20.000                      -14239.473       -1329.942          15.000  
G23                     83547.512         278.213          14.000                                                                  
G24                    561681.919        2262.394          17.000                                                                  
G32                   -163345.252       -1635.436          18.000                                                                  
R 8                                                        19.000  
R22                                                        17.000  
R24                                                        16.000  
C 6                     56575.238         338.406          19.000                                                                                                                                  
C 8                    319993.432        1217.883          20.000                                                                                                                                  
C 9                     62647.728         255.005          18.000                                                                                                                                  
C13                    249760.431        1014.134          27.000                                                                                                                                  
C19                    180906.173         972.488          16.000                                                                                                                                  
C20                    592155.808        2417.977          16.000                                                                                                                                  
C22                   -219197.143       -1209.414          19.000                                                                                                                                  
C36                   -317811.735       -1771.254          14.000                                                                                     -151696.249       -1341.362          13.000  
> 2021 12  8  2 49 48.0000000  0 15                     
G10                   -572026.235       -1784.874          19.000                      -19460.026       -1330.603          13.000  
G23                     85008.120         278.502          14.000                                                                  
G24                    573573.345        2263.727          15.000                                                                  
G32                   -171931.131       -1633.090          17.000                                                                  
R 8                                                        21.000  
R22                                                        17.000  
R24                                                        17.000  
C 6                     58345.731         340.085          17.000                                                                                                                                  
C 8                    326340.493        1219.397          22.000                                                                                                                                  
C 9                     63982.989         255.793          20.000                                                                                                                                  
C13                    255045.005        1012.448          23.000                                                                                                                                  
C19                    185979.327          -0.007          16.000                                                                                                                                  
C20                    604749.198        2418.845          16.000                                                                                                                                  
C22                   -225503.330       -1212.048          18.000                                                                                                                                  
C36                   -327022.926       -1769.388          14.000                                                                                     -156960.158       -1341.562          14.000  
> 2021 12  8  2 49 49.0000000  0 16                     
G10                   -581395.659       -1781.064          19.000                      -24675.790       -1331.581          13.000  
G23                     86470.494         278.693          16.000                                                                  
G24                    585476.487        2266.438          15.000                                                                  
G32                   -180515.552       -1633.895          17.000                                                                  
R 7                                                        14.000  
R 8                                                        20.000  
R22                                                        16.000  
R24                                                        13.000  
C 6                     60121.023         341.055          17.000                                                                                                                                  
C 8                    332684.597        1214.945          19.000                                                                                                                                  
C 9                     65313.198         254.341          20.000                                                                                                                                  
C13                    260321.013        1015.644          20.000                                                                                                                                  
C19                    191063.518          -0.007          16.000                                                                                                                                  
C20                    617338.891        2416.274          15.000                                                                                                                                  
C22                   -231795.635       -1205.771          17.000                                                                                                                                  
C36                   -336240.416          -0.018          14.000                                                                                     -162225.159       -1340.145          13.000  
> 2021 12  8  2 49 50.0000000  0 16                     
G10                   -590749.885       -1779.587          16.000                      -29898.064       -1331.412          13.000  
G23                     87938.051         278.530          15.000                                                                  
G24                    597389.386        2267.284          16.000                                                                  
G32                   -189106.117       -1636.544          20.000                                                                  
R 7                                                        18.000  
R 8                                                        19.000  
R22                                                        15.000  
R24                                                        16.000  
C 6                     61902.133         340.926          17.000                                                                                                                                  
C 8                    339017.791        1219.500          18.000                                                                                                                                  
C 9                     66634.919         250.462          19.000                                                                                                                                  
C13                    265602.640        1013.835          20.000                                                                                                                                  
C19                    196153.164          -0.007          17.000                                                                                                                                  
C20                    629917.919        2414.420          12.000                                                                                                                                  
C22                   -238075.066       -1206.674          17.000                                                                                                                                  
C36                   -345461.011          -0.018          13.000                                                                                                                                  
> 2021 12  8  2 49 51.0000000  0 16                     
G10                   -600102.734       -1779.096          15.000                                                                  
G23                     89403.032         279.272          17.000                                                                  
G24                    609306.423        2267.040          15.000                                                                  
G32                   -197705.420       -1636.674          21.000                                                                  
R 7                                                        18.000  
R 8                                                        17.000  
R22                                                        14.000  
R24                                                        19.000  
C 6                     63674.907         339.011          17.000                                                                                                                                  
C 8                    345363.253        1217.906          19.000                                                                                                                                  
C 9                     67946.635         253.450          17.000                                                                                                                                  
C13                    270886.739        1014.649          23.000                                                                                                                                  
C19                    201244.508         977.765          17.000                                                                                                                                  
C20                    642495.761        2416.346          13.000                                                                                                                                  
C22                   -244355.200       -1206.289          17.000                                                                                                                                  
C36                   -354687.608          -0.018          12.000                                                                                                                                  
> 2021 12  8  2 49 52.0000000  0 16                     
G10                   -609460.388       -1781.453          16.000                                                                  
G23                     90874.388         281.282          20.000                                                                  
G24                    621215.704          -0.002          16.000                                                                  
G32                   -206299.479       -1633.173          18.000                                                                  
R 7                                                        17.000  
R 8                                                        16.000  
R22                                                        15.000  
R24                                                        21.000  
C 6                     65444.654         339.909          18.000                                                                                                                                  
C 8                    351707.372        1218.912          19.000                                                                                                                                  
C 9                     69271.992         255.426          18.000                                                                                                                                  
C13                    276176.562        1015.326          27.000                                                                                                                                  
C19                    206334.730         977.939          17.000                                                                                                                                  
C20                    655079.874          -0.003          16.000                                                                                                                                  
C22                   -250627.717       -1203.567          18.000                                                                                                                                  
C36                   -363918.039          -0.018          14.000                                                                                                                                  
> 2021 12  8  2 49 53.0000000  0 15                     
G10                   -618820.186       -1780.110          15.000                                                                  
G23                     92358.377         282.875          21.000                                                                  
G24                    633123.994          -0.002          15.000                                                                  
G32                   -214881.222          -0.006          20.000                                                                  
R 7                                                        18.000  
R 8                                                        16.000  
R24                                                        17.000  
C 6                     67224.280         342.289          19.000                                                                                                                                  
C 8                    358061.808        1221.733          23.000                                                                                                                                  
C 9                     70604.621         256.005          19.000                                                                                                                                  
C13                    281466.551        1015.451          26.000                                                                                                                                  
C19                    211425.410         976.955          15.000                                                                                                                                  
C20                    667663.907          -0.003          15.000                                                                                                                                  
C22                   -256905.341       -1206.957          17.000                                                                                                                                  
C36                   -373142.765          -0.018          16.000                                                                                                                                  
> 2021 12  8  2 49 54.0000000  0 16                     
G10                   -628181.236       -1781.989          15.000                                                                  
G23                     93844.223         283.286          23.000                                                                  
G24                    645029.650          -0.002          15.000                                                                  
G32                   -223470.788       -1633.348          18.000                                                                  
R 7                                                        17.000  
R 8                                                        14.000  
R24                                                        17.000  
E33                      7695.236        1024.824          22.000                                                                  
C 6                     68997.351         340.468          19.000                                                                                                                                  
C 8                    364419.450        1219.944          23.000                                                                                                                                  
C 9                     71931.540         254.671          21.000                                                                                                                                  
C13                    286747.443        1014.191          25.000                                                                                                                                  
C19                    216510.215         975.937          13.000                                                                                                                                  
C20                    680256.541          -0.003          12.000                                                                                                                                  
C22                   -263195.504       -1209.437          17.000                                                                                                                                  
C36                   -382352.880          -0.018          14.000                                                                                                                                  
> 2021 12  8  2 49 55.0000000  0 16                     
G10                   -637545.711          -0.012          13.000                                                                  
G23                     95340.139         283.655          20.000                                                                  
G24                    656937.316          -0.002          15.000                                                                  
G32                   -232054.989       -1633.416          17.000                                                                  
R 7                                                        14.000  
R 8                                                        16.000  
R24                                                        17.000  
E33                     13088.220        1028.273          21.000                                                                  
C 6                     70765.962         338.624          19.000                                                                                                                                  
C 8                    370770.780        1217.735          19.000                                                                                                                                  
C 9                     73244.303         252.312          19.000                                                                                                                                  
C13                    292019.473        1013.105          25.000                                                                                                                                  
C19                    221584.779          -0.007          16.000                                                                                                                                  
C20                    692862.054          -0.003          13.000                                                                                                                                  
C22                   -269499.194       -1210.906          15.000                                                                                                                                  
C36                   -391565.901          -0.018          17.000                                                                                                                                  
> 2021 12  8  2 49 56.0000000  0 17                     
G10                   -646903.390          -0.012          16.000                                                                  
G23                     96838.483         286.350          17.000                                                                  
G24                    668857.426          -0.002          15.000                                                                  
G32                   -240640.582       -1634.058          17.000                                                                  
R 1                                                        15.000  
R 7                                                        15.000  
R 8                                                        14.000  
R24                                                        17.000  
E33                     18485.946        1027.329          19.000                                                                  
C 6                     72531.503         337.717          17.000                                                                                                                                  
C 8                    377113.993        1218.901          17.000                                                                                                                                  
C 9                     74561.497         252.169          18.000                                                                                                                                  
C13                    297304.850        1019.052          24.000                                                                                                                                  
C19                    226661.367          -0.007          14.000                                                                                                                                  
C20                    705471.948          -0.003          14.000                                                                                                                                  
C22                   -275791.880           0.005          15.000                                                                                                                                  
C36                   -400775.050       -1769.287          17.000                                                                                                                                  
> 2021 12  8  2 49 57.0000000  0 17                     
G10                   -656255.826       -1779.682          17.000                                                                  
G23                     98341.289         285.758          17.000                        2614.431         209.176          15.000  
G24                    680782.436          -0.002          14.000                                                                  
G32                   -249223.436       -1632.533          17.000                                                                  
R 1                                                        14.000  
R 7                                                        14.000  
R 8                                                        14.000  
R24                                                        14.000  
E33                     23883.251        1030.167          20.000                                                                  
C 6                     74303.189         341.034          18.000                                                                                                                                  
C 8                    383458.503        1219.673          15.000                                                                                                                                  
C 9                     75881.095         254.437          19.000                                                                                                                                  
C13                    302606.282        1016.652          25.000                                                                                                                                  
C19                    231732.135          -0.007          13.000                                                                                                                                  
C20                    718085.157          -0.003          12.000                                                                                                                                  
C22                   -282077.236           0.005          15.000                                                                                                                                  
C36                   -409988.543       -1768.912          18.000                                                                                                                                  
> 2021 12  8  2 49 58.0000000  0 17                     
G10                   -665606.788       -1779.389          13.000                                                                  
G18                     52705.331        3432.487          20.000                                                                  
G23                     99854.709         289.733          15.000                        3434.797         211.098          14.000  
G24                    692710.278          -0.002          14.000                                                                  
G32                   -257810.375          -0.006          17.000                                                                  
R 1                                                        13.000  
R 7                                                        14.000  
R 8                                                        14.000  
R24                                                        14.000  
C 6                     76082.536         341.137          20.000                                                                                                                                  
C 8                    389807.853        1218.519          14.000                                                                                                                                  
C 9                     77208.418         254.115          19.000                                                                                                                                  
C13                    307894.521        1017.108          25.000                                                                                                                                  
C19                    236796.971          -0.007          14.000                                                                                                                                  
C20                    730693.561          -0.003          13.000                                                                                                                                  
C22                   -288364.053           0.005          16.000                                                                                                                                  
C36                   -419200.818       -1769.480          16.000                                                                                                                                  
> 2021 12  8  2 49 59.0000000  0 17                     
G10                   -674961.008       -1780.444          14.000                                                                  
G18                     70748.358        3435.652          23.000                                                                  
G23                    101377.749         288.444          15.000                        4266.001         212.235          14.000  
G24                    704643.704          -0.002          13.000                                                                  
G32                   -266414.822       -1639.460          18.000                                                                  
R 1                                                        12.000  
R 7                                                        13.000  
R 8                                                        13.000  
R24                                                        13.000  
C 6                     77854.348         340.386          19.000                                                                                                                                  
C 8                    396159.883        1219.941          14.000                                                                                                                                  
C 9                     78537.552         256.175          21.000                                                                                                                                  
C13                    313183.328        1016.343          23.000                                                                                                                                  
C19                    241867.510          -0.007          14.000                                                                                                                                  
C20                    743306.841          -0.003          13.000                                                                                                                                  
C22                   -294649.922       -1206.982          14.000                                                                                                                                  
C36                   -428418.433       -1770.217          18.000                                                                                                                                  
> 2021 12  8  2 50  0.0000000  0 18                     
G10                   -684319.971          -0.012          17.000                                                                  
G15                     50747.210        3091.154          15.000                                                                  
G18                     88803.216        3435.313          25.000                                                                  
G23                    102894.963         287.118          17.000                        5086.573         207.919          11.000  
G24                    716576.100          -0.002          14.000                                                                  
G32                   -275027.148       -1638.033          18.000                                                                  
R 1                                                        13.000  
R 7                                                        14.000  
R 8                                                        15.000  
R24                                                        12.000  
C 6                     79618.974         338.886          20.000                                                                                                                                  
C 8                    402512.386        1218.694          15.000                                                                                                                                  
C 9                     79871.388         256.860          20.000                                                                                                                                  
C13                    318471.946        1016.024          25.000                                                                                                                                  
C19                    246929.244          -0.007          14.000                                                                                                                                  
C20                    755916.983          -0.003          13.000                                                                                                                                  
C22                   -300937.025       -1208.059          14.000                                                                                                                                  
C36                   -437638.090       -1771.050          18.000                                                                                                                                  
> 2021 12  8  2 50  1.0000000  0 18                     
G10                   -693682.667       -1782.394          17.000                                                                  
G15                     66985.805        3091.260          15.000                                                                  
G18                    106852.113        3434.309          29.000                                                                  
G23                    104410.417         288.718          17.000                        5906.124         210.121          12.000  
G24                    728515.344          -0.002          13.000                                                                  
G32                   -283626.709       -1634.512          17.000                                                                  
R 1                                                        13.000  
R 7                                                        15.000  
R 8                                                        15.000  
R24                                                        13.000  
C 6                     81376.970         337.840          18.000                                                                                                                                  
C 8                    408851.299           0.050          14.000                                                                                                                                  
C 9                     81203.104         255.883          22.000                                                                                                                                  
C13                    323774.783        1018.416          25.000                                                                                                                                  
C19                    251996.676          -0.007          14.000                                                                                                                                  
C20                    768519.089          -0.003          14.000                                                                                                                                  
C22                   -307232.683           0.005          15.000                                                                                                                                  
C36                   -446856.508       -1770.527          17.000                                                                                                                                  
> 2021 12  8  2 50  2.0000000  0 18                     
G10                   -703051.348       -1782.436          17.000                                                                  
G15                     83235.318        3091.744          15.000                                                                  
G18                    124912.281        3437.517          27.000                                                                  
G23                    105926.824         287.810          16.000                        6728.283         208.394          10.000  
G24                    740447.857          -0.002          14.000                                                                  
G32                   -292212.983       -1634.982          18.000                                                                  
R 7                                                        14.000  
R 8                                                        17.000  
R24                                                        15.000  
E33                     10216.326        1022.558          22.000                                                                  
C 6                     83133.334         336.282          17.000                                                                                                                                  
C 8                    415187.843           0.050          16.000                                                                                                                                  
C 9                     82531.101         253.223          20.000                                                                                                                                  
C13                    329070.756        1016.927          22.000                                                                                                                                  
C19                    257062.538          -0.007          15.000                                                                                                                                  
C20                    781128.579          -0.003          13.000                                                                                                                                  
C22                   -313525.378           0.005          15.000                                                                                                                                  
C36                   -456071.919       -1768.781          19.000                                                                                                                                  
> 2021 12  8  2 50  3.0000000  0 17                     
G10                   -712413.621       -1780.932          16.000                                                                  
G18                    142986.193        3438.037          19.000                                                                  
G23                    107442.857         290.307          17.000                        7546.977         210.429          12.000  
G24                    752375.896          -0.002          14.000                                                                  
G32                   -300800.742       -1632.693          19.000                                                                  
R 7                                                        14.000  
R 8                                                        15.000  
R24                                                        14.000  
E33                     15580.093        1020.062          20.000                                                                  
C 6                     84904.324         341.005          20.000                                                                                                                                  
C 8                    421520.762           0.050          17.000                                                                                                                                  
C 9                     83850.354         253.316          22.000                                                                                                                                  
C13                    334362.776        1016.178          25.000                                                                                                                                  
C19                    262127.386          -0.007          15.000                                                                                                                                  
C20                    793722.595          -0.003          12.000                                                                                                                                  
C22                   -319815.855           0.005          15.000                                                                                                                                  
C36                   -465282.413       -1768.459          22.000                                                                                                                                  
> 2021 12  8  2 50  4.0000000  0 17                     
G10                   -721772.186       -1780.724          17.000                                                                  
G18                    161049.835        3437.720          17.000                                                                  
G23                    108972.008         290.961          18.000                        8369.295         210.344          12.000  
G24                    764304.635          -0.002          14.000                                                                  
G32                   -309385.655       -1632.680          17.000                                                                  
R 7                                                        14.000  
R 8                                                        17.000  
R24                                                        15.000  
E33                     20941.186        1020.245          19.000                                                                  
C 6                     86677.523         340.837          20.000                                                                                                                                  
C 8                    427843.908        1214.597          17.000                                                                                                                                  
C 9                     85165.111         252.405          18.000                                                                                                                                  
C13                    339656.583        1015.179          23.000                                                                                                                                  
C19                    267188.500          -0.007          13.000                                                                                                                                  
C20                    806316.019          -0.003          13.000                                                                                                                                  
C22                   -326090.188           0.005          14.000                                                                                                                                  
C36                   -474492.218       -1767.680          25.000                                                                                                                                  
> 2021 12  8  2 50  5.0000000  0 18                     
G10                   -731129.937       -1780.256          14.000                                                                  
G15                    131963.488        3089.852          15.000                                                                  
G18                    179119.673        3439.562          17.000                                                                  
G23                    110499.055         289.819          16.000                        9195.425         210.365           9.000  
G24                    776239.963          -0.002          14.000                                                                  
G32                   -317963.516       -1632.302          18.000                                                                  
R 7                                                        16.000  
R 8                                                        14.000  
R24                                                        14.000  
E33                     26304.794        1021.711          17.000                                                                  
C 6                     88447.238         338.668          19.000                                                                                                                                  
C 8                    434164.165        1212.773          15.000                                                                                                                                  
C 9                     86481.364         251.491          21.000                                                                                                                                  
C13                    344935.678        1012.107          20.000                                                                                                                                  
C19                    272241.670          -0.007          11.000                                                                                                                                  
C20                    818896.725          -0.003          14.000                                                                                                                                  
C22                   -332374.217           0.005          14.000                                                                                                                                  
C36                   -483696.709       -1765.346          29.000                                                                                                                                  
> 2021 12  8  2 50  6.0000000  0 18                     
G10                   -740484.847       -1779.936          14.000                                                                  
G15                    148209.774        3092.622          14.000                                                                  
G18                    197197.027        3439.531          16.000                                                                  
G23                    112025.034         290.055          16.000                       10017.940         210.351          10.000  
G24                    788174.952          -0.002          14.000                                                                  
G32                   -326542.851       -1632.624          17.000                                                                  
R 7                                                        14.000  
R 8                                                        17.000  
R24                                                        14.000  
E33                     31680.711        1024.052          18.000                                                                  
C 6                     90211.686         338.069          19.000                                                                                                                                  
C 8                    440484.688           0.050          13.000                                                                                                                                  
C 9                     87796.140         254.522          18.000                                                                                                                                  
C13                    350212.357        1016.262          20.000                                                                                                                                  
C19                    277309.954          -0.007          13.000                                                                                                                                  
C20                    831469.924          -0.003          13.000                                                                                                                                  
C22                   -338669.822           0.005          15.000                                                                                                                                  
C36                   -492886.072       -1766.181          24.000                                                                                      -10146.990       -1330.705          21.000  
> 2021 12  8  2 50  7.0000000  0 17                     
G10                   -749849.007          -0.012          16.000                                                                  
G15                    164460.064        3089.844          13.000                                                                  
G18                    215265.118        3437.048          14.000                                                                  
G23                    113554.339         290.694          16.000                       10841.637         210.606          11.000  
G24                    800119.719          -0.002          14.000                                                                  
G32                   -335126.639       -1632.509          19.000                                                                  
R 7                                                        14.000  
R 8                                                        15.000  
E33                     37062.971        1025.418          26.000                                                                  
C 6                     91973.225         337.268          20.000                                                                                                                                  
C 8                    446807.399           0.050          15.000                                                                                                                                  
C 9                     89116.342         252.778          20.000                                                                                                                                  
C13                    355513.660        1019.222          19.000                                                                                                                                  
C19                    282389.011          -0.007          14.000                                                                                                                                  
C20                    844048.438          -0.003          11.000                                                                                                                                  
C22                   -344960.966           0.005          14.000                                                                                                                                  
C36                   -502083.045       -1769.291          24.000                                                                                      -15371.767       -1331.756          17.000  
> 2021 12  8  2 50  8.0000000  0 16                     
G10                   -759216.983          -0.012          17.000                                                                  
G18                    233329.752        3439.241          16.000                                                                  
G23                    115084.583         291.707          14.000                       11666.339         211.642          10.000  
G24                    812070.674          -0.002          14.000                                                                  
G32                   -343696.822       -1630.541          18.000                                                                  
R 7                                                        15.000  
R 8                                                        18.000  
E33                     42440.725        1023.443          21.000                                                                  
C 6                     93733.712         338.807          18.000                                                                                                                                  
C 8                    453139.547           0.050          14.000                                                                                                                                  
C 9                     90437.616         254.247          20.000                                                                                                                                  
C13                    360821.013        1019.246          17.000                                                                                                                                  
C19                    287461.466          -0.007          15.000                                                                                                                                  
C20                    856633.756          -0.003          12.000                                                                                                                                  
C22                   -351256.902           0.005          16.000                                                                                                                                  
C36                   -511283.969       -1762.945          23.000                                                                                      -20601.829       -1332.593          19.000  
> 2021 12  8  2 50  9.0000000  0 16                     
G10                   -768577.992       -1781.073          17.000                                                                  
G18                    251409.128        3441.667          16.000                                                                  
G23                    116618.070         290.676          15.000                       12496.346         212.817          12.000  
G24                    824011.953          -0.002          14.000                                                                  
G32                   -352266.859       -1631.047          18.000                                                                  
R 7                                                        10.000  
R 8                                                        21.000  
E33                     47817.544        1026.519          21.000                                                                  
C 6                     95497.717         336.984          20.000                                                                                                                                  
C 8                    459468.985           0.050          13.000                                                                                                                                  
C 9                     91763.098         254.836          20.000                                                                                                                                  
C13                    366117.069        1015.828          19.000                                                                                                                                  
C19                    292541.647          -0.007          15.000                                                                                                                                  
C20                    869222.382          -0.003          13.000                                                                                                                                  
C22                   -357559.667           0.005          16.000                                                                                                                                  
C36                   -520479.682       -1767.197          24.000                                                                                      -25825.029       -1326.492          20.000  
> 2021 12  8  2 50 10.0000000  0 16                     
G10                   -777934.263       -1780.630          16.000                                                                  
G18                    269493.283          -0.011          15.000                                                                  
G23                    118142.387         289.613          16.000                       13335.691         215.814          13.000  
G24                    835945.971          -0.002          14.000                                                                  
G32                   -360841.264       -1632.676          18.000                                                                  
R 7                                                        11.000  
R 8                                                        19.000  
E33                     53212.695        1026.936          24.000                                                                  
C 6                     97258.770         340.040          20.000                                                                                                                                  
C 8                    465797.486           0.050          12.000                                                                                                                                  
C 9                     93082.816         252.354          18.000                                                                                                                                  
C13                    371413.223        1018.906          19.000                                                                                                                                  
C19                    297632.019          -0.007          15.000                                                                                                                                  
C20                    881815.134          -0.003          13.000                                                                                                                                  
C22                   -363862.263           0.005          16.000                                                                                                                                  
C36                   -529680.017       -1766.501          23.000                                                                                      -31039.885       -1333.314          19.000  
> 2021 12  8  2 50 11.0000000  0 16                     
G10                   -787289.477       -1779.554          17.000                                                                  
G18                    287579.051          -0.011          17.000                                                                  
G23                    119659.766         289.331          16.000                       14181.415         217.274          13.000  
G24                    847879.820          -0.002          15.000                                                                  
G32                   -369417.522       -1630.802          18.000                                                                  
R 7                                                        15.000  
R 8                                                        17.000  
E33                     58594.631        1025.950          21.000                                                                  
C 6                     99030.716         341.438          22.000                                                                                                                                  
C 8                    472121.943           0.050          14.000                                                                                                                                  
C 9                     94396.665         252.897          21.000                                                                                                                                  
C13                    376711.053        1016.687          17.000                                                                                                                                  
C19                    302715.256          -0.007          13.000                                                                                                                                  
C20                    894420.457          -0.003          13.000                                                                                                                                  
C22                   -370163.036           0.005          16.000                                                                                                                                  
C36                   -538876.285       -1762.847          22.000                                                                                      -36276.704       -1333.470          17.000  
> 2021 12  8  2 50 12.0000000  0 15                     
G10                   -796640.554       -1779.887          15.000                                                                  
G18                    305662.635        3439.815          16.000                                                                  
G23                    121174.136         287.846          16.000                       15034.905         216.667          13.000  
G24                    859815.522          -0.002          16.000                                                                  
G32                   -377991.741       -1630.819          17.000                                                                  
R 7                                                        13.000  
R 8                                                        16.000  
E33                     63997.784        1032.806          23.000                                                                  
C 6                    100799.565         339.077          22.000                                                                                                                                  
C 8                    478441.518           0.050          15.000                                                                                                                                  
C 9                     95707.970         249.922          20.000                                                                                                                                  
C13                    382010.518        1017.179          14.000                                                                                                                                  
C19                    307793.121          -0.007          12.000                                                                                                                                  
C22                   -376462.249           0.005          18.000                                                                                                                                  
C36                   -548056.561       -1763.648          20.000                                                                                      -41510.269       -1331.773          20.000  
> 2021 12  8  2 50 13.0000000  0 15                     
G10                   -805998.266       -1780.131          15.000                                                                  
G18                    323736.422        3438.311          16.000                                                                  
G23                    122683.842         287.448          16.000                       15882.804         217.437          12.000  
G24                    871757.961          -0.002          16.000                                                                  
G32                   -386557.456       -1629.263          15.000                                                                  
R 7                                                        13.000  
R 8                                                        16.000  
E33                     69409.051        1030.335          21.000                                                                  
C 6                    102564.175         340.641          22.000                                                                                                                                  
C 8                    484776.983           0.050          16.000                                                                                                                                  
C 9                     97025.784         254.458          21.000                                                                                                                                  
C13                    387302.065        1015.859          17.000                                                                                                                                  
C19                    312868.038          -0.007          13.000                                                                                                                                  
C22                   -382765.681       -1210.623          15.000                                                                                                                                  
C36                   -557244.787       -1765.966          22.000                                                                                      -46742.336       -1329.052          21.000  
> 2021 12  8  2 50 14.0000000  0 15                     
G10                   -815350.818       -1779.950          16.000                                                                  
G18                    341798.809        3435.550          15.000                                                                  
G23                    124206.562         289.186          17.000                       16734.391         217.386          13.000  
G24                    883699.741          -0.002          15.000                                                                  
G32                   -395124.807       -1631.800          20.000                                                                  
R 7                                                        14.000  
R 8                                                        14.000  
E33                     74821.069        1032.071          21.000                                                                  
C 6                    104338.723         339.971          21.000                                                                                                                                  
C 8                    491121.834        1218.539          15.000                                                                                                                                  
C 9                     98351.004         253.445          25.000                                                                                                                                  
C13                    392598.186        1018.201          16.000                                                                                                                                  
C19                    317950.725          -0.007          14.000                                                                                                                                  
C22                   -389069.120       -1210.364          14.000                                                                                                                                  
C36                   -566441.932       -1767.176          23.000                                                                                      -51971.375       -1334.024          21.000  
> 2021 12  8  2 50 15.0000000  0 15                     
G10                   -824702.033       -1778.829          18.000                                                                  
G18                    359855.511        3436.837          14.000                                                                  
G23                    125734.807         291.679          20.000                       17586.905         217.500          14.000  
G24                    895643.213        2273.592          16.000                                                                  
G32                   -403701.593       -1633.102          17.000                                                                  
R 7                                                        12.000  
R 8                                                        17.000  
E33                     80259.170        1034.574          19.000                                                                  
C 6                    106108.871         341.381          25.000                                                                                                                                  
C 8                    497466.837        1219.435          15.000                                                                                                                                  
C 9                     99670.571         252.959          20.000                                                                                                                                  
C13                    397896.906        1018.620          16.000                                                                                                                                  
C19                    323039.050          -0.007          13.000                                                                                                                                  
C22                   -395371.851           0.005          12.000                                                                                                                                  
C36                   -575636.145       -1765.181          25.000                                                                                      -57195.929       -1331.716          24.000  
> 2021 12  8  2 50 16.0000000  0 15                     
G10                   -834049.313       -1778.277          20.000                                                                  
G18                    377913.650        3436.139          17.000                                                                  
G23                    127269.144         293.130          22.000                       18442.471         219.377          18.000  
G24                    907587.831        2272.928          17.000                                                                  
G32                   -412278.194       -1630.074          20.000                                                                  
R 7                                                        14.000  
R 8                                                        15.000  
E33                     85692.090        1034.429          20.000                                                                  
C 6                    107889.212         341.487          24.000                                                                                                                                  
C 8                    503817.310        1220.394          17.000                                                                                                                                  
C 9                    100984.951         252.201          18.000                                                                                                                                  
C13                    403198.567        1017.044          16.000                                                                                                                                  
C19                    328123.997          -0.007          12.000                                                                                                                                  
C22                   -401678.917           0.005          17.000                                                                                                                                  
C36                   -584825.702       -1762.168          23.000                                                                                      -62422.921       -1331.503          23.000  
> 2021 12  8  2 50 17.0000000  0 15                     
G10                   -843400.862       -1780.766          18.000                                                                  
G18                    395967.969        3434.515          16.000                                                                  
G23                    128813.555         294.160          20.000                       19307.045         220.580          17.000  
G24                    919538.501        2274.731          17.000                                                                  
G32                   -420842.875       -1627.566          19.000                                                                  
R 7                                                        14.000  
R 8                                                        15.000  
E33                     91128.664        1034.168          18.000                                                                  
C 6                    109665.700         340.940          22.000                                                                                                                                  
C 8                    510173.243        1221.335          18.000                                                                                                                                  
C 9                    102299.215         251.888          18.000                                                                                                                                  
C13                    408499.326        1019.656          16.000                                                                                                                                  
C19                    333206.286          -0.007          13.000                                                                                                                                  
C22                   -407987.628           0.005          17.000                                                                                                                                  
C36                   -594014.831       -1765.936          26.000                                                                                      -67654.363       -1327.977          23.000  
> 2021 12  8  2 50 18.0000000  0 15                     
G10                   -852753.919       -1779.404          21.000                                                                  
G18                    414011.459        3434.067          17.000                                                                  
G23                    130357.552         294.154          22.000                       20169.473         219.473          15.000  
G24                    931496.875        2275.833          17.000                                                                  
G32                   -429398.517       -1628.844          19.000                                                                  
R 7                                                        13.000  
R 8                                                        16.000  
E33                     96553.025        1032.461          20.000                                                                  
C 6                    111433.732         340.785          24.000                                                                                                                                  
C 8                    516526.994        1218.908          22.000                                                                                                                                  
C 9                    103620.445         252.003          20.000                                                                                                                                  
C13                    413809.181        1019.509          16.000                                                                                                                                  
C19                    338287.779          -0.007          13.000                                                                                                                                  
C22                   -414296.312       -1210.189          18.000                                                                                                                                  
C36                   -603210.175       -1763.461          23.000                                                                                      -72890.218       -1336.088          22.000  
> 2021 12  8  2 50 19.0000000  0 15                     
G10                   -862094.073       -1776.456          17.000                                                                  
G18                    432058.963        3436.172          17.000                                                                  
G23                    131907.145         296.170          20.000                       21027.328         219.346          15.000  
G24                    943456.473        2277.055          15.000                                                                  
G32                   -437956.961       -1628.122          23.000                                                                  
R 7                                                        12.000  
R 8                                                        12.000  
E33                    101991.186        1035.776          20.000                                                                  
C 6                    113200.225         339.302          20.000                                                                                                                                  
C 8                    522873.006        1218.082          22.000                                                                                                                                  
C 9                    104936.735         253.153          22.000                                                                                                                                  
C13                    419120.073        1019.954          14.000                                                                                                                                  
C19                    343349.374          -0.007          14.000                                                                                                                                  
C22                   -420601.803       -1209.709          19.000                                                                                                                                  
C36                   -612405.706       -1766.283          24.000                                                                                      -78110.454       -1329.896          22.000  
> 2021 12  8  2 50 20.0000000  0 15                     
G10                   -871443.082       -1780.504          17.000                                                                  
G18                    450125.415        3438.681          16.000                                                                  
G23                    133460.995         294.677          20.000                       21886.801         219.822          17.000  
G24                    955411.170        2275.487          17.000                                                                  
G32                   -446513.330       -1627.251          22.000                                                                  
R 7                                                        16.000  
R 8                                                        14.000  
E33                    107440.827        1037.296          24.000                                                                  
C 6                    114953.558         337.391          20.000                                                                                                                                  
C 8                    529221.462        1221.089          20.000                                                                                                                                  
C 9                    106250.695         253.067          22.000                                                                                                                                  
C13                    424434.390        1021.354          14.000                                                                                                                                  
C19                    348412.807          -0.007          13.000                                                                                                                                  
C22                   -426905.170       -1211.604          16.000                                                                                                                                  
C36                   -621590.391       -1761.455          22.000                                                                                      -83339.908       -1334.508          23.000  
> 2021 12  8  2 50 21.0000000  0 15                     
G10                   -880799.549       -1780.884          22.000                                                                  
G18                    468197.749        3439.755          16.000                                                                  
G23                    135011.474         296.494          22.000                       22751.437         220.053          17.000  
G24                    967374.632        2277.609          15.000                                                                  
G32                   -455055.584       -1623.507          29.000                                                                  
R 7                                                        15.000  
R 8                                                        14.000  
E33                    112887.308        1034.789          23.000                                                                  
C 6                    116708.221         336.083          22.000                                                                                                                                  
C 8                    535577.593        1221.003          18.000                                                                                                                                  
C 9                    107572.576         254.861          20.000                                                                                                                                  
C13                    429749.036           0.018          16.000                                                                                                                                  
C19                    353478.201          -0.007          11.000                                                                                                                                  
C22                   -433221.755       -1214.089          18.000                                                                                                                                  
C36                   -630768.238       -1763.087          24.000                                                                                      -88562.793       -1331.412          22.000  
> 2021 12  8  2 50 22.0000000  0 15                     
G10                   -890154.854       -1779.895          19.000                                                                  
G18                    486267.557          -0.011          15.000                                                                  
G23                    136573.009         296.337          21.000                       23617.341         220.256          16.000  
G24                    979353.336        2281.200          15.000                                                                  
G32                   -463600.086       -1623.825          29.000                                                                  
R 7                                                        14.000  
R 8                                                        13.000  
E33                    118335.056        1035.470          22.000                                                                  
C 6                    118463.704         338.834          24.000                                                                                                                                  
C 8                    541932.313        1219.796          19.000                                                                                                                                  
C 9                    108899.116         253.757          19.000                                                                                                                                  
C13                    435063.233           0.018          16.000                                                                                                                                  
C19                    358542.920          -0.007          12.000                                                                                                                                  
C22                   -439539.044       -1214.157          16.000                                                                                                                                  
C36                   -639943.603       -1760.915          22.000                                                                                      -93783.097       -1335.585          20.000  
> 2021 12  8  2 50 23.0000000  0 15                     
G10                   -899500.169       -1778.780          22.000                                                                  
G18                    504328.735          -0.011          16.000                                                                  
G23                    138122.601         293.123          20.000                       24484.341         220.056          17.000  
G24                    991340.835        2279.738          14.000                                                                  
G32                   -472139.962       -1623.254          27.000                                                                  
R 7                                                        17.000  
R 8                                                        16.000  
E33                    123774.539        1036.156          22.000                                                                  
C 6                    120223.435         337.371          20.000                                                                                                                                  
C 8                    548280.562        1217.087          18.000                                                                                                                                  
C 9                    110218.227         253.232          20.000                                                                                                                                  
C13                    440367.702        1017.793          16.000                                                                                                                                  
C19                    363616.588          -0.007          13.000                                                                                                                                  
C22                   -445850.309       -1211.314          19.000                                                                                                                                  
C36                   -649123.557       -1764.385          24.000                                                                                      -99019.720       -1334.546          23.000  
> 2021 12  8  2 50 24.0000000  0 15                     
G10                   -908857.112       -1783.514          23.000                                                                  
G18                    522395.349          -0.011          16.000                                                                  
G23                    139670.316         294.949          19.000                       25351.779         220.288          17.000  
G24                   1003326.127        2280.705          15.000                                                                  
G32                   -480675.494       -1626.557          28.000                                                                  
R 7                                                        16.000  
R 8                                                        16.000  
E33                    129209.543        1035.274          21.000                                                                  
C 6                    121991.205         340.819          21.000                                                                                                                                  
C 8                    554643.865        1224.840          17.000                                                                                                                                  
C 9                    111541.612         255.521          19.000                                                                                                                                  
C13                    445669.674        1019.507          18.000                                                                                                                                  
C19                    368698.139          -0.007          13.000                                                                                                                                  
C22                   -452156.118       -1210.352          22.000                                                                                                                                  
C36                   -658308.625       -1764.380          26.000                                                                                     -104239.302       -1335.099          19.000  
> 2021 12  8  2 50 25.0000000  0 15                     
G10                   -918225.899       -1784.357          22.000                                                                  
G18                    540464.227        3437.439          17.000                                                                  
G23                    141218.992         295.758          18.000                       26216.511         221.154          19.000  
G24                   1015309.029        2279.460          15.000                                                                  
G32                   -489221.879       -1627.113          29.000                                                                  
R 7                                                        16.000  
R 8                                                        15.000  
E33                    134656.166        1036.758          20.000                        6344.436         775.305          19.000  
C 6                    123761.599         337.302          19.000                                                                                                                                  
C 8                    561008.391        1221.804          17.000                                                                                                                                  
C 9                    112863.906         250.582          20.000                                                                                                                                  
C13                    450981.965        1021.173          16.000                                                                                                                                  
C19                    373782.886          -0.007          13.000                                                                                                                                  
C22                   -458460.944       -1210.128          20.000                                                                                                                                  
C36                   -667485.431       -1763.293          24.000                                                                                     -109466.429       -1329.712          20.000  
> 2021 12  8  2 50 26.0000000  0 15                     
G10                   -927592.989       -1782.616          19.000                                                                  
G18                    558518.359        3433.785          16.000                                                                  
G23                    142779.149         296.056          21.000                       27087.501         221.825          17.000  
G24                   1027295.388        2282.267          16.000                                                                  
G32                   -497776.998       -1625.729          31.000                                                                  
R 7                                                        19.000  
R 8                                                        14.000  
E33                    140103.264        1036.904          24.000                        9389.088         774.538          18.000  
C 6                    125521.947         337.828          21.000                                                                                                                                  
C 8                    567371.092        1219.996          20.000                                                                                                                                  
C 9                    114161.781         250.140          20.000                                                                                                                                  
C13                    456294.032        1019.969          15.000                                                                                                                                  
C19                    378868.995          -0.007          13.000                                                                                                                                  
C22                   -464770.815       -1211.480          18.000                                                                                                                                  
C36                   -676659.423       -1764.485          24.000                                                                                     -114683.924       -1334.991          20.000  
> 2021 12  8  2 50 27.0000000  0 15                     
G10                   -936957.778       -1778.904          19.000                                                                  
G18                    576562.766        3434.294          15.000                                                                  
G23                    144336.558         296.758          19.000                       27959.627         220.788          17.000  
G24                   1039286.293        2281.066          14.000                                                                  
G32                   -506326.213       -1626.859          27.000                                                                  
R 7                                                        17.000  
R 8                                                        14.000  
E33                    145547.768        1034.407          20.000                       12430.822         774.236          18.000  
C 6                    127287.114         340.604          20.000                                                                                                                                  
C 8                    573723.863        1220.972          19.000                                                                                                                                  
C 9                    115469.303         250.287          19.000                                                                                                                                  
C13                    461599.998        1018.857          15.000                                                                                                                                  
C19                    383972.825          -0.007          14.000                                                                                                                                  
C22                   -471081.607       -1213.042          17.000                                                                                                                                  
C36                   -685818.783       -1757.521          23.000                                                                                     -119907.048       -1334.545          20.000  
> 2021 12  8  2 50 28.0000000  0 16                     
G10                   -946301.503       -1779.145          17.000                                                                  
G18                    594610.120        3434.194          16.000                                                                  
G23                    145904.837         298.616          19.000                       28830.866         221.678          18.000  
G24                   1051261.330        2278.210          16.000                                                                  
G32                   -514883.585       -1627.655          31.000                                                                  
R 7                                                        17.000  
R 8                                                        12.000  
E30                       819.357         136.240          19.000                                                                  
E33                    150991.857        1036.516          25.000                       15467.530         772.114          20.000  
C 6                    129060.036         339.487          22.000                                                                                                                                  
C 8                    580082.639        1219.578          22.000                                                                                                                                  
C 9                    116776.168         250.177          20.000                                                                                                                                  
C13                    466907.578        1021.383          17.000                                                                                                                                  
C19                    389087.833          -0.007          14.000                                                                                                                                  
C22                   -477405.355       -1213.985          17.000                                                                                                                                  
C36                   -694978.191       -1759.984          25.000                                                                                     -125131.850       -1329.451          19.000  
> 2021 12  8  2 50 29.0000000  0 16                     
G10                   -955660.603       -1780.094          18.000                                                                  
G18                    612664.620        3435.712          16.000                                                                  
G23                    147473.478         298.026          20.000                       29702.885         220.656          17.000  
G24                   1063238.557        2280.062          15.000                                                                  
G32                   -523440.774       -1625.599          33.000                                                                  
R 7                                                        21.000  
R 8                                                        16.000  
E30                      1523.140         133.158          16.000                                                                  
E33                    156442.373        1037.469          26.000                       18518.249         777.040          18.000  
C 6                    130825.268         338.580          23.000                                                                                                                                  
C 8                    586436.824        1218.640          20.000                                                                                                                                  
C 9                    118078.874         249.927          19.000                                                                                                                                  
C13                    472226.048        1019.971          17.000                                                                                                                                  
C19                    394206.860          -0.007          14.000                                                                                                                                  
C22                   -483720.748       -1212.997          17.000                                                                                                                                  
C36                   -704142.220       -1761.667          25.000                                                                                     -130351.901       -1330.033          18.000  
> 2021 12  8  2 50 30.0000000  0 15                     
G10                   -965013.438       -1779.833          20.000                                                                  
G18                    630726.870        3436.963          17.000                                                                  
G23                    149044.025         299.718          20.000                       30573.317         221.760          17.000  
G24                   1075229.529          -0.002          14.000                                                                  
G32                   -531995.622       -1626.756          28.000                                                                  
R 7                                                        20.000  
R 8                                                        13.000  
E33                    161897.021        1037.548          23.000                       21570.780         781.782          20.000  
C 6                    132589.744         339.420          20.000                                                                                                                                  
C 8                    592789.405        1218.981          18.000                                                                                                                                  
C 9                    119392.978         251.611          20.000                                                                                                                                  
C13                    477539.783        1021.049          17.000                                                                                                                                  
C19                    399328.944          -0.007          14.000                                                                                                                                  
C22                   -490038.521       -1212.685          16.000                                                                                                                                  
C36                   -713299.657       -1758.480          23.000                                                                                     -135560.403       -1330.086          19.000  
> 2021 12  8  2 50 31.0000000  0 15                     
G10                   -974363.694       -1779.742          18.000                                                                  
G18                    648787.552        3437.531          16.000                                                                  
G23                    150610.923         297.321          20.000                       31445.000         222.446          18.000  
G24                   1087227.436          -0.002          14.000                                                                  
G32                   -540535.528       -1623.699          29.000                                                                  
R 7                                                        22.000  
R 8                                                        14.000  
E33                    167353.549        1037.338          25.000                       24615.333         776.440          19.000  
C 6                    134356.702         341.044          20.000                                                                                                                                  
C 8                    599139.873        1220.313          19.000                                                                                                                                  
C 9                    120703.394         252.428          20.000                                                                                                                                  
C13                    482846.569        1019.031          17.000                                                                                                                                  
C19                    404445.799          -0.007          13.000                                                                                                                                  
C22                   -496347.218       -1210.398          15.000                                                                                                                                  
C36                   -722461.028       -1760.765          21.000                                                                                     -140769.849       -1326.591          19.000  
> 2021 12  8  2 50 32.0000000  0 16                     
G10                   -983721.913       -1782.588          17.000                                                                  
G18                    666858.065        3439.972          15.000                                                                  
G23                    152187.585         300.812          18.000                       32320.694         222.636          17.000  
G24                   1099225.066          -0.002          13.000                                                                  
G32                   -549077.089       -1625.532          28.000                                                                  
R 7                                                        19.000  
R 8                                                        14.000  
E33                    172815.098        1040.030          24.000                       27669.900         779.362          18.000  
C 6                    136129.663         339.716          23.000                                                                                                                                  
C 8                    605489.925        1219.626          22.000                                                                                                                                  
C 9                    122010.623         249.707          21.000                                                                                                                                  
C12                      2795.876         443.539          18.000                                                                                                                                  
C13                    488154.461        1018.147          17.000                                                                                                                                  
C19                    409560.729          -0.007          15.000                                                                                                                                  
C22                   -502653.546       -1211.545          14.000                                                                                                                                  
C36                   -731628.144       -1760.805          23.000                                                                                     -145974.401       -1326.337          17.000  
> 2021 12  8  2 50 33.0000000  0 15                     
G10                   -993086.372       -1779.909          17.000                                                                  
G18                    684935.747        3440.226          16.000                                                                  
G23                    153762.966         299.278          19.000                       33199.393         224.479          18.000  
G24                   1111224.839          -0.002          14.000                                                                  
G32                   -557610.713       -1625.482          26.000                                                                  
R 7                                                        16.000  
R 8                                                        14.000  
E33                    178280.889        1040.283          24.000                       30725.592         778.276          17.000  
C 6                    137888.020         338.463          21.000                                                                                                                                  
C 8                    611844.964        1223.147          20.000                                                                                                                                  
C 9                    123304.879         251.538          19.000                                                                                                                                  
C13                    493455.468        1017.682          19.000                                                                                                                                  
C19                    414677.172          -0.007          15.000                                                                                                                                  
C22                   -508966.609       -1213.240          15.000                                                                                                                                  
C36                   -740792.920       -1760.042          22.000                                                                                     -151178.537       -1328.826          16.000  
> 2021 12  8  2 50 34.0000000  0 15                     
G10                  -1002435.816       -1779.539          17.000                                                                  
G18                    703011.420        3439.171          15.000                                                                  
G23                    155334.671         300.356          20.000                       34084.207         224.898          16.000  
G24                   1123231.449          -0.002          14.000                                                                  
G32                   -566148.697       -1624.489          26.000                                                                  
R 7                                                        15.000  
R 8                                                        14.000  
E33                    183749.360        1040.317          24.000                       33780.045         778.210          18.000  
C 6                    139649.737         337.539          20.000                                                                                                                                  
C 8                    618203.598        1219.972          18.000                                                                                                                                  
C 9                    124615.179         251.934          20.000                                                                                                                                  
C13                    498744.324        1015.037          20.000                                                                                                                                  
C19                    419791.368          -0.007          15.000                                                                                                                                  
C22                   -515279.547           0.005          14.000                                                                                                                                  
C36                   -749957.635       -1759.092          23.000                                                                                     -156389.840       -1327.363          14.000  
> 2021 12  8  2 50 35.0000000  0 16                     
G10                  -1011781.847       -1776.289          17.000                                                                  
G18                    721087.165        3441.360          17.000                                                                  
G23                    156914.272         300.920          20.000                       34966.657         224.736          16.000  
G24                   1135244.559          -0.002          15.000                                                                  
G32                   -574689.456       -1625.265          27.000                                                                  
R 1                                                        24.000  
R 7                                                        19.000  
R 8                                                        12.000  
E33                    189221.092        1041.533          27.000                       36837.619         779.212          19.000  
C 6                    141411.580         338.859          21.000                                                                                                                                  
C 8                    624556.923        1220.391          18.000                                                                                                                                  
C 9                    125933.990         251.905          19.000                                                                                                                                  
C13                    504035.769        1017.083          24.000                                                                                                                                  
C19                    424906.140          -0.007          14.000                                                                                                                                  
C22                   -521584.384           0.005          14.000                                                                                                                                  
C36                   -759117.735       -1758.307          19.000                                                                                     -161595.453       -1324.944          15.000  
> 2021 12  8  2 50 36.0000000  0 18                     
G10                  -1021109.015       -1774.628          16.000                                                                  
G18                    739169.335        3441.348          16.000                                                                  
G23                    158494.504         301.346          19.000                       35850.433         226.067          18.000  
G24                   1147273.801          -0.002          14.000                                                                  
G32                   -583234.940       -1621.156          28.000                                                                  
R 1                                                        24.000  
R 7                                                        16.000  
R 8                                                        14.000  
E19                    -25215.051       -1255.500          18.000                                                                  
E33                    194695.790        1042.635          25.000                       39890.928         780.672          20.000  
C 6                    143176.527         337.856          20.000                                                                                                                                  
C 8                    630904.685        1218.217          18.000                                                                                                                                  
C 9                    127244.233         251.347          18.000                                                                                                                                  
C12                     12055.057         445.517          13.000                                                                                                                                  
C13                    509332.061        1018.567          23.000                                                                                                                                  
C19                    430015.866          -0.007          13.000                                                                                                                                  
C22                   -527891.142           0.005          15.000                                                                                                                                  
C36                   -768273.709       -1759.104          18.000                                                                                     -166799.316       -1326.287          17.000  
> 2021 12  8  2 50 37.0000000  0 12                     
G10                  -1030432.742       -1772.669          16.000                                                                  
G18                    757263.098        3443.934          15.000                                                                  
G23                    160076.860         301.131          20.000                       36736.661         225.232          18.000  
G24                   1159311.528          -0.002          13.000                                                                  
G32                   -591746.816       -1621.461          35.000                                                                  
R 1                                                        23.000  
R 7                                                        15.000  
R 8                                                        15.000  
E19                    -31805.876       -1250.805          19.000                                                                  
E26                     22916.107        3048.901          20.000                                                                  
E33                    200181.222        1043.937          20.000                       42947.963         779.200          18.000  
C36                                                                                                                                                   -171993.712       -1324.190          13.000  
> 2021 12  8  2 50 38.0000000  0 12                     
G10                  -1039745.306       -1772.457          16.000                                                                  
G18                    775361.958          -0.011          16.000                                                                  
G23                    161660.024         301.100          20.000                       37617.805         223.471          18.000  
G24                   1171342.105          -0.002          14.000                                                                  
G32                   -600266.682       -1624.788          31.000                                                                  
R 1                                                        18.000  
R 7                                                        16.000  
R 8                                                        15.000  
E19                    -38388.649       -1252.265          18.000                                                                  
E26                     38941.595        3049.256          21.000                                                                  
E33                    205679.008        1048.034          18.000                       46011.506         780.204          16.000  
C36                                                                                                                                                   -177185.258       -1323.562          12.000  
> 2021 12  8  2 50 39.0000000  0 11                     
G10                  -1049054.905       -1771.596          15.000                                                                  
G18                    793472.319          -0.011          17.000                                                                  
G23                    163242.642         302.583          20.000                       38493.639         223.327          17.000  
G24                   1183368.795          -0.002          12.000                                                                  
G32                   -608806.001       -1622.325          39.000                                                                  
R 1                                                        20.000  
R 7                                                        17.000  
R 8                                                        14.000  
E19                    -44964.752       -1250.465          19.000                                                                  
E26                     54964.878        3048.198          20.000                                                                  
E33                    211181.092        1047.895          17.000                       49075.117         781.189          13.000  
> 2021 12  8  2 50 40.0000000  0 13                     
G10                  -1058362.927       -1772.114          15.000                                                                  
G18                    811579.533        3445.659          17.000                                                                  
G23                    164833.998         302.290          17.000                       39372.479         224.035          17.000  
G24                   1195393.921          -0.002          15.000                                                                  
G32                   -617322.068       -1626.216          28.000                                                                  
R 1                                                        23.000  
R 7                                                        13.000  
R 8                                                        13.000  
E19                    -51540.243       -1252.480          25.000                                                                  
E33                    216682.230        1044.955          15.000                       52133.772         781.418          11.000  
C 6                      2910.094         339.709          24.000                                                                                                                                  
C 8                     10085.568        1223.582          18.000                                                                                                                                  
C13                      8619.866        1017.771          24.000                                                                                                                                  
> 2021 12  8  2 50 41.0000000  0 13                     
G10                  -1067679.487       -1773.041          16.000                                                                  
G18                    829686.740        3445.237          14.000                                                                  
G23                    166421.603         303.926          21.000                       40252.745         224.716          17.000  
G24                   1207419.833          -0.002          15.000                                                                  
G32                   -625866.986       -1625.439          23.000                                                                  
R 1                                                        20.000  
R 7                                                        15.000  
R 8                                                        14.000  
E19                    -58105.935       -1249.103          20.000                                                                  
E26                     87023.140        3049.917          22.000                                                                  
E33                    222177.747        1045.869          10.000                       55197.496         780.597          11.000  
C 6                      4681.066         338.797          20.000                                                                                                                                  
C13                     13922.987        1020.746          24.000                                                                                                                                  
> 2021 12  8  2 50 42.0000000  0 13                     
G10                  -1076997.527          -0.012          16.000                                                                  
G18                    847788.446        3444.409          15.000                                                                  
G23                    168014.486         303.579          20.000                       41140.007         225.643          17.000  
G24                   1219438.819          -0.002          15.000                                                                  
G32                   -634415.413          -0.006          19.000                                                                  
R 1                                                        18.000  
R 7                                                        17.000  
R 8                                                        13.000  
E19                    -64677.233       -1249.702          18.000                                                                  
E26                    103052.625        3051.540          21.000                       24603.193        2274.479          17.000  
E33                    227675.159        1046.621          12.000                       58257.924         778.344          11.000  
C13                     19229.733        1018.695          23.000                                                                                                                                  
C19                     30231.332         978.937          17.000                                                                                                                                  
> 2021 12  8  2 50 43.0000000  0 14                     
G10                  -1086321.020          -0.012          17.000                                                                  
G18                    865894.538          -0.011          16.000                                                                  
G23                    169612.025         306.099          19.000                       42026.074         226.965          17.000  
G24                   1231458.661          -0.002          14.000                                                                  
G32                   -642960.217       -1626.531          18.000                                                                  
R 1                                                        18.000  
R 7                                                        20.000  
R 8                                                        12.000  
E19                    -71248.465       -1253.842          15.000                                                                  
E26                    119087.067        3050.796          20.000                       33533.583        2276.631          16.000  
E33                    233177.785        1047.292          12.000                                                                  
C 6                      3162.283         342.220          16.000                                                                                                                                  
C13                     24532.420        1018.295          22.000                                                                                                                                  
C19                     35320.152         976.407          18.000                                                                                                                                  
> 2021 12  8  2 50 44.0000000  0 15                     
G10                  -1095632.320       -1770.741          16.000                                                                  
G18                    883994.504          -0.011          16.000                                                                  
G23                    171214.072         305.103          18.000                       42919.081         227.901          18.000  
G24                   1243472.861          -0.002          14.000                                                                  
G32                   -651514.192       -1629.999          18.000                                                                  
R 1                                                        19.000  
R 7                                                        18.000  
R 8                                                        15.000  
E19                    -77828.334       -1251.778           9.000                                                                  
E26                    135119.654        3049.085          17.000                       42466.303        2279.724          14.000  
E27                    -29406.607       -2067.593          18.000                                                                  
E33                    238686.675        1048.447          10.000                                                                  
C 8                     17557.701        1222.104          18.000                                                                                                                                  
C13                     29826.163        1016.170          23.000                                                                                                                                  
C19                     40411.416         978.334          22.000                                                                                                                                  
> 2021 12  8  2 50 45.0000000  0 17                     
G10                  -1104939.081       -1771.938          17.000                                                                  
G18                    902092.550        3444.413          17.000                                                                  
G23                    172812.361         303.557          20.000                       43813.191         228.369          19.000  
G24                   1255484.513          -0.002          13.000                                                                  
G32                   -660077.103       -1628.264          19.000                                                                  
R 1                                                        18.000  
R 7                                                        17.000  
R 8                                                        14.000  
E19                    -84409.550       -1252.880          11.000                                                                  
E26                    151139.234        3047.232          17.000                       51411.681        2280.170          14.000  
E27                    -40270.841       -2068.135          17.000                                                                  
E30                      3741.970         134.167          15.000                                                                  
E33                    244193.835        1048.098           6.000                                                                  
C 8                     23932.757        1228.156          19.000                                                                                                                                  
C13                     35119.824        1019.237          23.000                                                                                                                                  
C19                     45506.108         978.350          20.000                                                                                                                                  
C35                     24643.908        2919.350          23.000                                                                                                                                  
> 2021 12  8  2 50 46.0000000  0 16                     
G10                  -1114250.916       -1771.639          18.000                                                                  
G18                    920182.004        3441.766          16.000                                                                  
G23                    174415.143         305.839          22.000                       44709.425         228.109          19.000  
G24                   1267502.698          -0.002          14.000                                                                  
G32                   -668638.355       -1629.427          17.000                                                                  
R 1                                                        17.000  
R 7                                                        18.000  
R 8                                                        13.000  
E19                    -90993.222       -1253.290          10.000                                                                  
E26                    167145.342        3045.452          14.000                       60365.014        2282.011          11.000  
E30                      4440.953         131.645          14.000                                                                  
E33                    249704.915        1048.733           8.000                                                                  
C 8                     30316.832        1224.529          19.000                                                                                                                                  
C13                     40425.121        1019.071          23.000                                                                                                                                  
C19                     50605.690         979.706          20.000                                                                                                                                  
C35                     39845.998        2918.940          27.000                                                                                                                                  
> 2021 12  8  2 50 47.0000000  0 16                     
G10                  -1123558.969       -1772.042          20.000                                                                  
G18                    938265.772        3440.695          15.000                                                                  
G23                    176024.666         305.606          20.000                       45602.012         227.057          18.000  
G24                   1279535.849          -0.002          16.000                                                                  
G32                   -677194.194       -1626.644          17.000                                                                  
R 1                                                        17.000  
R 7                                                        15.000  
R 8                                                        14.000  
E19                    -97580.943       -1253.412           8.000                                                                  
E26                    183135.313        3042.561          11.000                       69315.288        2280.871          12.000  
E30                      5138.532         133.274          10.000                                                                  
E33                    255216.743        1048.815           8.000                                                                  
C 8                     36688.046        1220.788          19.000                                                                                                                                  
C13                     45730.975        1019.313          24.000                                                                                                                                  
C19                     55708.693         982.582          17.000                                                                                                                                  
C35                     55054.942        2919.211          25.000                                                                                                                                  
> 2021 12  8  2 50 48.0000000  0 17                     
G10                  -1132865.133       -1770.710          21.000                                                                  
G18                    956347.500        3441.345          17.000                                                                  
G23                    177627.459         303.752          17.000                       46494.402         228.057          16.000  
G24                   1291575.222        2290.276          17.000                                                                  
G32                   -685735.859       -1623.432          14.000                                                                  
R 1                                                        18.000  
R 7                                                        17.000  
R 8                                                        16.000  
E19                   -104165.516       -1253.038           6.000                                                                  
E26                    199125.971        3042.855          11.000                                                                  
E27                    -28486.940       -2067.606          19.000                                                                  
E30                      5842.810         134.583           8.000                                                                  
E33                    260728.146        1048.781           7.000                                                                  
C 8                     43041.687        1219.477          18.000                                                                                                                                  
C13                     51037.276        1018.232          22.000                                                                                                                                  
C19                     60810.821         978.952          14.000                                                                                                                                  
C35                     70257.789        2918.824          20.000                                                                                                                                  
> 2021 12  8  2 50 49.0000000  0 18                     
G10                  -1142165.273       -1769.423          27.000                                                                  
G18                    974434.508        3442.162          18.000                                                                  
G23                    179220.885         303.407          16.000                       47391.435         228.791          14.000  
G24                   1303608.899        2291.093          17.000                                                                  
G32                   -694274.117       -1626.224          15.000                                                                  
R 1                                                        17.000  
R 7                                                        17.000  
R 8                                                        15.000  
E19                   -110750.606       -1253.137           6.000                                                                  
E26                    215123.618        3044.839           9.000                                                                  
E27                    -39354.649       -2067.354          17.000                                                                  
E30                      6551.941         135.377           7.000                                                                  
E33                    266237.954        1048.609           7.000                                                                  
C 6                     13840.547         336.452          14.000                                                                                                                                  
C 8                     49402.541        1223.892          20.000                                                                                                                                  
C13                     56346.351        1020.154          22.000                                                                                                                                  
C19                     65909.943         980.456          15.000                                                                                                                                  
C35                     85451.612        2918.793          24.000                                                                                                                                  
> 2021 12  8  2 50 50.0000000  0 17                     
G10                  -1151464.513       -1769.367          25.000                                                                  
G18                    992528.316        3443.610          17.000                                                                  
G23                    180814.597         303.398          15.000                       48291.369         229.372          14.000  
G24                   1315644.799        2291.552          17.000                                                                  
G32                   -702806.558       -1623.074          16.000                                                                  
R 1                                                        16.000  
R 7                                                        15.000  
R 8                                                        14.000  
E19                   -117336.990       -1253.645           7.000                                                                  
E26                    231125.200        3046.012          11.000                                                                  
E30                      7265.364         136.128           9.000                                                                  
E33                    271747.997        1048.401           8.000                                                                  
C 6                     15605.541         341.145          14.000                                                                                                                                  
C 8                     55773.770        1225.460          20.000                                                                                                                                  
C13                     61658.214        1020.543          23.000                                                                                                                                  
C19                     71015.669         979.762          18.000                                                                                                                                  
C35                    100651.044        2920.591          24.000                                                                                                                                  
> 2021 12  8  2 50 51.0000000  0 18                     
G10                  -1160751.430       -1768.372          29.000                                                                  
G18                   1010621.697        3442.294          18.000                                                                  
G23                    182420.141         306.440          16.000                       49195.426         230.868          11.000  
G24                   1327686.809        2291.419          16.000                                                                  
G32                   -711344.859       -1625.244          13.000                                                                  
R 1                                                        15.000  
R 7                                                        13.000  
R 8                                                        15.000  
E19                   -123925.693       -1253.643           7.000                                                                  
E26                    247132.243        3046.734           8.000                                                                  
E27                    -61062.149       -2064.764          19.000                                                                  
E30                      7989.556         137.962           9.000                                                                  
E33                    277257.916        1048.562           9.000                                                                  
C 6                     17370.368         334.835          17.000                                                                                                                                  
C 8                     62150.759        1225.519          20.000                                                                                                                                  
C13                     66966.950        1019.467          23.000                                                                                                                                  
C19                     76125.519         983.418          17.000                                                                                                                                  
C35                    115854.667        2918.230          23.000                                                                                                                                  
> 2021 12  8  2 50 52.0000000  0 18                     
G10                  -1170041.641       -1769.405          25.000                                                                  
G18                   1028715.382        3443.060          17.000                                                                  
G23                    184033.100         306.510          14.000                       50101.472         230.006          11.000  
G24                   1339728.762        2291.104          15.000                                                                  
G32                   -719881.346          -0.006          14.000                                                                  
R 1                                                        15.000  
R 7                                                        14.000  
R 8                                                        16.000  
E19                   -130511.959       -1253.228           6.000                                                                  
E26                    263144.086        3046.714           7.000                                                                  
E27                    -71907.259       -2063.356          26.000                                                                  
E30                      8718.932         138.922           8.000                                                                  
E33                    282769.086        1048.685           7.000                                                                  
C 6                     19124.097         337.298          13.000                                                                                                                                  
C 8                     68520.548        1222.377          19.000                                                                                                                                  
C13                     72276.171        1019.772          21.000                                                                                                                                  
C19                     81250.523         985.289          16.000                                                                                                                                  
C35                    131050.039        2919.180          23.000                                                                                                                                  
> 2021 12  8  2 50 53.0000000  0 17                     
G10                  -1179332.422       -1767.743          21.000                                                                  
G18                   1046812.054        3444.585          25.000                                                                  
G23                    185643.502         307.478          14.000                       51000.920         228.672           9.000  
G24                   1351779.100        2294.616          14.000                                                                  
G32                   -728417.892          -0.006          12.000                                                                  
R 1                                                        13.000  
R 7                                                        16.000  
R 8                                                        17.000  
E19                   -137099.602       -1253.527           6.000                                                                  
E26                    279154.638        3046.637           6.000                                                                  
E27                    -82764.328       -2065.159          27.000                                                                  
E30                      9452.830         140.213           8.000                                                                  
E33                    288278.789        1048.383          11.000                                                                  
C 6                     20864.525         331.009          13.000                                                                                                                                  
C 8                     74882.100        1222.195          19.000                                                                                                                                  
C13                     77592.037        1021.335          21.000                                                                                                                                  
C19                     86378.913         984.580          15.000                                                                                                                                  
> 2021 12  8  2 50 54.0000000  0 17                     
G10                  -1188624.759       -1767.411          20.000                      -30897.386       -1322.144          20.000  
G18                   1064914.595        3446.368          20.000                                                                  
G23                    187260.258         307.405          14.000                       51895.777         228.257          11.000  
G24                   1363840.322        2296.404          15.000                                                                  
G32                   -736947.310          -0.006          13.000                                                                  
R 1                                                        15.000  
R 7                                                        14.000  
R 8                                                        20.000  
E19                   -143688.152       -1253.951           7.000                                                                  
E26                    295163.898        3046.454           7.000                                                                  
E27                    -93618.014       -2064.527          26.000                                                                  
E30                     10194.104         141.214          11.000                                                                  
E33                    293788.774        1048.775          13.000                                                                  
C 6                     22607.485         336.056          14.000                                                                                                                                  
C 8                     81251.147        1225.083          20.000                                                                                                                                  
C13                     82903.694        1019.044          19.000                                                                                                                                  
C19                     91502.594         983.063          17.000                                                                                                                                  
> 2021 12  8  2 50 55.0000000  0 17                     
G10                  -1197902.690       -1765.838          21.000                      -36066.021       -1316.077          19.000  
G18                   1083020.160        3445.010          26.000                                                                  
G23                    188877.799          -0.007          15.000                       52793.236         228.400          11.000  
G24                   1375909.456          -0.002          16.000                                                                  
G32                   -745482.872          -0.006          15.000                                                                  
R 1                                                        14.000  
R 7                                                        16.000  
R 8                                                        19.000  
E19                   -150276.873       -1253.733           8.000                                                                  
E26                    311173.903        3046.886           6.000                                                                  
E27                   -104468.666       -2063.550          25.000                                                                  
E30                     10945.367         143.840          13.000                                                                  
E33                    299301.101        1049.041          15.000                                                                  
C 6                     24369.861           0.091          15.000                                                                                                                                  
C 8                     87625.529        1224.916          19.000                                                                                                                                  
C13                     88206.024        1018.831          21.000                                                                                                                                  
C19                     96627.559         985.093          21.000                                                                                                                                  
> 2021 12  8  2 50 56.0000000  0 19                     
G10                  -1207184.917       -1768.623          25.000                      -41235.133       -1316.620          17.000  
G18                   1101120.783        3443.915          26.000                                                                  
G23                    190500.650          -0.007          15.000                       53690.817         229.011           9.000  
G24                   1387986.837          -0.002          17.000                                                                  
G32                   -754019.254          -0.006          12.000                                                                  
R 1                                                        13.000  
R 7                                                        19.000  
R 8                                                        19.000  
E19                   -156865.958       -1253.824           8.000                                                                  
E26                    327187.660        3048.206           6.000                                                                  
E27                   -115313.688       -2063.626          24.000                      -12151.968       -1540.369          19.000  
E30                     11706.791         145.417          13.000                                                                  
E33                    304813.872        1049.146          18.000                                                                  
C 6                     26148.012           0.091          17.000                                                                                                                                  
C 8                     94004.404        1225.508          19.000                                                                                                                                  
C13                     93511.659        1020.106          20.000                                                                                                                                  
C19                    101756.243         983.766          17.000                                                                                                                                  
C22                    -35021.215       -1195.228          17.000                                                                                                                                  
C35                     50978.755        2912.504          23.000                                                                                                                                  
> 2021 12  8  2 50 57.0000000  0 20                     
G10                  -1216483.268       -1771.486          23.000                      -46405.188       -1317.783          18.000  
G18                   1119220.835        3444.496          26.000                                                                  
G23                    192117.920         309.009          17.000                                                                  
G24                   1400057.413        2297.499          17.000                                                                  
G32                   -762549.526          -0.006          14.000                                                                  
R 1                                                        13.000  
R 7                                                        23.000  
R 8                                                        19.000  
R24                                                        23.000  
E26                    343205.722        3048.393           8.000                                                                  
E27                   -126164.777       -2064.271          25.000                      -18200.542       -1541.159          18.000  
E30                     12478.105         147.435          12.000                                                                  
E33                    310327.591        1049.394          24.000                                                                  
C 6                     27905.891         338.210          17.000                                                                                                                                  
C 8                    100382.175        1224.952          17.000                                                                                                                                  
C13                     98821.150        1019.062          20.000                                                                                                                                  
C19                    106886.359         986.287          20.000                                                                                                                                  
C22                    -41283.593           0.005          21.000                                                                                                                                  
C35                     66149.477        2913.179          19.000                                                                                                                                  
C36                    -49380.196       -1745.713          15.000                                                                                                                                  
> 2021 12  8  2 50 58.0000000  0 17                     
G10                  -1225773.065       -1766.721          25.000                      -51581.131       -1319.156          17.000  
G18                   1137312.751        3443.455          27.000                                                                  
G23                    193744.266         309.796          16.000                                                                  
G24                   1412132.214        2297.539          17.000                                                                  
G32                   -771075.904          -0.006          17.000                                                                  
R 1                                                        14.000  
R 7                                                        21.000  
R 8                                                        20.000  
R24                                                        21.000  
E26                    359227.737        3049.403           9.000                                                                  
E27                   -137011.423       -2062.435          23.000                      -24251.268       -1542.866          18.000  
E30                     13255.617         148.340          11.000                                                                  
E33                    315848.622        1051.152          22.000                                                                  
C19                    112015.570         985.367          18.000                                                                                                                                  
C22                    -47561.010       -1205.084          26.000                                                                                                                                  
C35                     81318.168        2913.376          24.000                                                                                                                                  
C36                    -58456.650       -1742.604          14.000                                                                                                                                  
> 2021 12  8  2 50 59.0000000  0 17                     
G10                  -1235051.784       -1765.046          25.000                      -56765.636       -1321.262          17.000  
G18                   1155412.749        3444.254          27.000                                                                  
G23                    195375.822         312.019          14.000                                                                  
G24                   1424211.812        2299.475          20.000                                                                  
G32                   -779590.907       -1621.172          16.000                                                                  
R 1                                                        11.000  
R 7                                                        20.000  
R 8                                                        19.000  
R24                                                        19.000  
E26                    375256.731        3050.321          10.000                                                                  
E27                   -147852.735       -2062.028          24.000                      -30309.826       -1542.165          18.000  
E30                     14039.450         150.033          13.000                                                                  
E33                    321370.760        1049.434          22.000                                                                  
C19                    117143.827         984.898          17.000                                                                                                                                  
C22                    -53836.904       -1205.987          26.000                                                                                                                                  
C35                     96486.425        2913.409          25.000                                                                                                                                  
C36                    -67520.911       -1739.661          13.000                                                                                                                                  
> 2021 12  8  2 51  0.0000000  0 17                     
G10                  -1244316.947       -1761.585          24.000                      -61950.291       -1321.064          18.000  
G18                   1173517.922        3445.908          29.000                                                                  
G23                    197014.431          -0.007          14.000                                                                  
G24                   1436297.774        2300.627          22.000                                                                  
G32                   -788111.518       -1621.957          17.000                                                                  
R 1                                                        13.000  
R 7                                                        17.000  
R 8                                                        20.000  
R24                                                        17.000  
E26                    391288.068        3050.886          10.000                                                                  
E27                   -158697.574       -2063.652          23.000                      -36367.695       -1543.755          15.000  
E30                     14829.457         150.809          11.000                                                                  
E33                    326880.891        1048.548          22.000                                                                  
C19                    122267.638         983.378          15.000                                                                                                                                  
C22                    -60105.331       -1203.666          23.000                                                                                                                                  
C35                    111651.789        2913.123          21.000                                                                                                                                  
C36                    -76570.986       -1737.358          13.000                                                                                                                                  
> 2021 12  8  2 51  1.0000000  0 18                     
G10                  -1253595.812       -1768.496          24.000                      -67133.199       -1317.582          19.000  
G18                   1191631.564        3449.200          30.000                                                                  
G23                    198658.005          -0.007          15.000                                                                  
G24                   1448383.874        2298.001          18.000                                                                  
G32                   -796634.990       -1620.554          19.000                                                                  
R 1                                                        12.000  
R 7                                                        17.000  
R 8                                                        20.000  
R24                                                        15.000  
E26                    407324.465        3051.760          10.000                                                                  
E27                   -169539.229       -2062.589          18.000                      -42419.462       -1541.943          14.000  
E30                     15627.110         152.930          12.000                                                                  
E33                    332395.248        1051.729          22.000                                                                  
C13                      8529.915        1020.821          23.000                                                                                                                                  
C19                    127388.572         983.305          17.000                                                                                                                                  
C22                    -66372.832       -1202.096          21.000                                                                                                                                  
C35                    126825.162        2916.831          20.000                                                                                                                                  
C36                    -85606.209       -1734.399          13.000                                                                                                                                  
> 2021 12  8  2 51  2.0000000  0 18                     
G10                  -1262868.624       -1762.930          27.000                      -72303.108       -1317.371          17.000  
G18                   1209749.581        3444.939          30.000                                                                  
G23                    200304.288          -0.007          13.000                                                                  
G24                   1460462.489        2299.848          18.000                                                                  
G32                   -805154.020       -1622.266          24.000                                                                  
R 7                                                        19.000  
R 8                                                        19.000  
R24                                                        15.000  
E26                    423365.136        3052.607           8.000                                                                  
E27                   -180370.386       -2058.307          16.000                                                                  
E30                     16435.565         154.780          12.000                                                                  
E33                    337918.418        1052.302          19.000                                                                  
C 9                      3457.437         252.388          21.000                                                                                                                                  
C13                     13841.256        1020.889          20.000                                                                                                                                  
C19                    132507.761         982.089          16.000                                                                                                                                  
C22                    -72620.523       -1198.094          23.000                                                                                                                                  
C35                    142009.099        2914.723          22.000                                                                                                                                  
C36                    -94638.487          -0.018          14.000                                                                                                                                  
> 2021 12  8  2 51  3.0000000  0 19                     
G10                  -1272132.559       -1762.046          26.000                      -77477.317       -1317.838          17.000  
G18                   1227858.797        3445.694          30.000                                                                  
G23                    201957.951          -0.007          13.000                                                                  
G24                   1472542.772        2299.171          17.000                                                                  
G32                   -813681.877       -1622.709          29.000                                                                  
R 7                                                        19.000  
R 8                                                        21.000  
R24                                                        14.000  
E26                    439407.845        3052.818           8.000                                                                  
E27                   -191179.116       -2051.742          13.000                                                                  
E30                     17249.476         155.075          13.000                                                                  
E33                    343445.463        1050.240          17.000                                                                  
C 6                      6375.184         336.656          24.000                                                                                                                                  
C 8                     14693.129        1225.512          20.000                                                                                                                                  
C13                     19152.114        1019.299          22.000                                                                                                                                  
C19                    137629.292         984.937          17.000                                                                                                                                  
C22                    -78867.347       -1199.907          20.000                                                                                      -12054.830        -902.997          15.000  
C35                    157181.093        2912.973          22.000                                                                                                                                  
C36                   -103680.198          -0.018          14.000                                                                                                                                  
> 2021 12  8  2 51  4.0000000  0 15                     
G10                  -1281397.972       -1762.284          27.000                      -82649.972       -1315.917          18.000  
G18                   1245984.506        3448.870          27.000                       23939.654        2488.185          12.000  
G23                    203608.014          -0.007          16.000                                                                  
G24                   1484617.914        2295.267          18.000                                                                  
G32                   -822205.301       -1622.126          26.000                                                                  
R 7                                                        19.000  
R 8                                                        24.000  
R24                                                        15.000  
E26                    455454.722        3054.343          10.000                                                                  
E27                   -201957.220       -2051.062          12.000                                                                  
E30                     18070.906         157.062          11.000                                                                  
C19                    142760.606         984.630          17.000                                                                                                                                  
C22                    -85120.886       -1200.356          19.000                                                                                      -15605.732        -907.640          15.000  
C35                    172349.154        2913.879          23.000                                                                                                                                  
C36                   -112732.120          -0.018          15.000                                                                                                                                  
